timestamp_ms,ax,ay,az,gx,gy,gz,latitude,longitude,altitude,satellite_count,position_lock,temperature,pressure,barometer_altitude,highg_ax,highg_ay,highg_az,extension,voltage_battery,bno_ax,bno_ay,bno_az,bno_gx,bno_gy,bno_gz,bno_mx,bno_my,bno_mz,bno_yaw,bno_pitch,bno_roll,magnet_mx,magnet_my,magnet_mz
0,-0.18592800199985504,1.0082080364227295,0.016103999689221382,1.3300000429153442,-3.640000104904175,-1.6100000143051147,0.0,0.0,-17.0,0,False,15.989999771118164,1012.969970703125,1.6805520057678223,0.94921875,0.15234375,0.068359375,0.0,7.705370903015137,0.0,0.0,0.0,0.0,0.0,0.0,0.0,0.0,0.0,0.0,0.0,0.0,-0.14513300359249115,0.3852674663066864,-0.8463899493217468
10,-0.18592800199985504,1.0082080364227295,0.016103999689221382,1.3300000429153442,-3.640000104904175,-1.6100000143051147,0.0,0.0,-17.0,0,False,15.989999771118164,1012.969970703125,1.6805520057678223,0.94921875,0.15234375,0.068359375,0.0,7.705370903015137,0.0,0.0,0.0,0.0,0.0,0.0,0.0,0.0,0.0,0.0,0.0,0.0,-0.14513300359249115,0.3852674663066864,-0.8463899493217468
20,-0.18592800199985504,1.0082080364227295,0.016103999689221382,1.3300000429153442,-3.640000104904175,-1.6100000143051147,0.0,0.0,-17.0,0,False,15.989999771118164,1012.969970703125,1.6805520057678223,0.94921875,0.15234375,0.068359375,0.0,7.705370903015137,0.0,0.0,0.0,0.0,0.0,0.0,0.0,0.0,0.0,0.0,0.0,0.0,-0.14513300359249115,0.3852674663066864,-0.8463899493217468
30,-0.18592800199985504,1.0082080364227295,0.016103999689221382,1.3300000429153442,-3.640000104904175,-1.6100000143051147,0.0,0.0,-17.0,0,False,15.989999771118164,1012.969970703125,1.6805520057678223,0.94921875,0.15234375,0.068359375,0.0,7.705370903015137,0.0,0.0,0.0,0.0,0.0,0.0,0.0,0.0,0.0,0.0,0.0,0.0,-0.14513300359249115,0.3852674663066864,-0.8463899493217468
40,-0.18592800199985504,1.0082080364227295,0.016103999689221382,1.3300000429153442,-3.640000104904175,-1.6100000143051147,0.0,0.0,-17.0,0,False,15.989999771118164,1012.969970703125,1.6805520057678223,0.94921875,0.15234375,0.068359375,0.0,7.705370903015137,0.0,0.0,0.0,0.0,0.0,0.0,0.0,0.0,0.0,0.0,0.0,0.0,-0.14513300359249115,0.3852674663066864,-0.8463899493217468
50,-0.1751919984817505,1.0072319507598877,0.016103999689221382,1.3300000429153442,-3.640000104904175,-0.20999999344348907,0.0,0.0,-17.0,0,False,16.029998779296875,1012.9599609375,1.7645047903060913,0.94921875,0.15625,0.068359375,0.0,7.744043350219727,0.418212890625,-0.58026123046875,-0.6220703125,0.418212890625,-0.58026123046875,-0.6220703125,0.418212890625,-0.58026123046875,-0.6220703125,0.15136371552944183,-1.5943101644515991,-2.0404412746429443,-0.1492253690958023,0.3842443823814392,-0.849020779132843
60,-0.1751919984817505,1.0072319507598877,0.016103999689221382,1.3300000429153442,-3.640000104904175,-0.20999999344348907,0.0,0.0,-17.0,0,False,16.029998779296875,1012.9599609375,1.7645047903060913,0.94921875,0.15625,0.068359375,0.0,7.744043350219727,0.418212890625,-0.58026123046875,-0.6220703125,0.418212890625,-0.58026123046875,-0.6220703125,0.418212890625,-0.58026123046875,-0.6220703125,0.15136371552944183,-1.5943101644515991,-2.0404412746429443,-0.1492253690958023,0.3842443823814392,-0.849020779132843
70,-0.1751919984817505,1.0072319507598877,0.016103999689221382,1.3300000429153442,-3.640000104904175,-0.20999999344348907,0.0,0.0,-17.0,0,False,16.06999969482422,1012.9299926757812,2.0149402618408203,0.94921875,0.15625,0.068359375,0.0,7.744043350219727,0.418212890625,-0.58026123046875,-0.6220703125,0.418212890625,-0.58026123046875,-0.6220703125,0.418212890625,-0.58026123046875,-0.6220703125,0.15136371552944183,-1.5943101644515991,-2.0404412746429443,-0.2215726375579834,0.3675825893878937,-0.8982753753662109
80,-0.15030400454998016,1.00381600856781,0.01903199963271618,1.4700000286102295,-4.059999942779541,-1.2599999904632568,0.0,0.0,-17.0,0,False,16.06999969482422,1012.9299926757812,2.0149402618408203,0.955078125,0.15234375,0.068359375,0.0,7.483007431030273,0.418212890625,-0.58026123046875,-0.6220703125,0.418212890625,-0.58026123046875,-0.6220703125,0.418212890625,-0.58026123046875,-0.6220703125,0.15136371552944183,-1.5943101644515991,-2.0404412746429443,-0.2215726375579834,0.3675825893878937,-0.8982753753662109
90,-0.15030400454998016,1.00381600856781,0.01903199963271618,1.4700000286102295,-4.059999942779541,-1.2599999904632568,0.0,0.0,-17.0,0,False,16.06999969482422,1012.9299926757812,2.0149402618408203,0.955078125,0.15234375,0.068359375,0.0,7.483007431030273,0.418212890625,-0.58026123046875,-0.6220703125,0.418212890625,-0.58026123046875,-0.6220703125,0.418212890625,-0.58026123046875,-0.6220703125,0.15136371552944183,-1.5943101644515991,-2.0404412746429443,-0.2215726375579834,0.3675825893878937,-0.8982753753662109
100,-0.16299200057983398,1.0116239786148071,0.018055999651551247,1.3300000429153442,-3.5,-0.699999988079071,0.0,0.0,-17.0,0,False,16.10999870300293,1012.97998046875,1.5980114936828613,0.951171875,0.158203125,0.072265625,0.0,7.628026962280273,0.41949462890625,-0.580322265625,-0.62139892578125,0.41949462890625,-0.580322265625,-0.62139892578125,0.41949462890625,-0.580322265625,-0.62139892578125,0.1530190408229828,-1.5966744422912598,-2.0389022827148438,-0.16194094717502594,0.3800058364868164,-0.8611516952514648
110,-0.16299200057983398,1.0116239786148071,0.018055999651551247,1.3300000429153442,-3.5,-0.699999988079071,0.0,0.0,-17.0,0,False,16.10999870300293,1012.97998046875,1.5980114936828613,0.951171875,0.158203125,0.072265625,0.0,7.628026962280273,0.41949462890625,-0.580322265625,-0.62139892578125,0.41949462890625,-0.580322265625,-0.62139892578125,0.41949462890625,-0.580322265625,-0.62139892578125,0.1530190408229828,-1.5966744422912598,-2.0389022827148438,-0.16194094717502594,0.3800058364868164,-0.8611516952514648
120,-0.16299200057983398,1.0116239786148071,0.018055999651551247,1.3300000429153442,-3.5,-0.699999988079071,0.0,0.0,-17.0,0,False,16.10999870300293,1012.97998046875,1.5980114936828613,0.951171875,0.158203125,0.072265625,0.0,7.628026962280273,0.41949462890625,-0.580322265625,-0.62139892578125,0.41949462890625,-0.580322265625,-0.62139892578125,0.41949462890625,-0.580322265625,-0.62139892578125,0.1530190408229828,-1.5966744422912598,-2.0389022827148438,-0.16194094717502594,0.3800058364868164,-0.8611516952514648
130,-0.16299200057983398,1.0116239786148071,0.018055999651551247,1.3300000429153442,-3.5,-0.699999988079071,0.0,0.0,-17.0,0,False,16.1299991607666,1012.9599609375,1.7651150226593018,0.951171875,0.158203125,0.072265625,0.0,7.628026962280273,0.41949462890625,-0.580322265625,-0.62139892578125,0.41949462890625,-0.580322265625,-0.62139892578125,0.41949462890625,-0.580322265625,-0.62139892578125,0.1530190408229828,-1.5966744422912598,-2.0389022827148438,-0.15390236675739288,0.37752118706703186,-0.8583747148513794
140,-0.16299200057983398,1.0116239786148071,0.018055999651551247,1.3300000429153442,-3.5,-0.699999988079071,0.0,0.0,-17.0,0,False,16.1299991607666,1012.9599609375,1.7651150226593018,0.951171875,0.158203125,0.072265625,0.0,7.628026962280273,0.41949462890625,-0.580322265625,-0.62139892578125,0.41949462890625,-0.580322265625,-0.62139892578125,0.41949462890625,-0.580322265625,-0.62139892578125,0.1530190408229828,-1.5966744422912598,-2.0389022827148438,-0.15390236675739288,0.37752118706703186,-0.8583747148513794
150,-0.15860000252723694,1.0116239786148071,0.016592001542448997,1.6100000143051147,-4.269999980926514,-1.6100000143051147,0.0,0.0,-17.0,0,False,16.1299991607666,1012.9599609375,1.7651150226593018,0.953125,0.150390625,0.080078125,0.0,7.657031059265137,0.41949462890625,-0.58038330078125,-0.62139892578125,0.41949462890625,-0.58038330078125,-0.62139892578125,0.41949462890625,-0.58038330078125,-0.62139892578125,0.1529688537120819,-1.5967440605163574,-2.038942813873291,-0.15390236675739288,0.37752118706703186,-0.8583747148513794
160,-0.15860000252723694,1.0116239786148071,0.016592001542448997,1.6100000143051147,-4.269999980926514,-1.6100000143051147,0.0,0.0,-17.0,0,False,16.1299991607666,1012.9599609375,1.7651150226593018,0.953125,0.150390625,0.080078125,0.0,7.657031059265137,0.41949462890625,-0.58038330078125,-0.62139892578125,0.41949462890625,-0.58038330078125,-0.62139892578125,0.41949462890625,-0.58038330078125,-0.62139892578125,0.1529688537120819,-1.5967440605163574,-2.038942813873291,-0.15390236675739288,0.37752118706703186,-0.8583747148513794
170,-0.15860000252723694,1.0116239786148071,0.016592001542448997,1.6100000143051147,-4.269999980926514,-1.6100000143051147,0.0,0.0,-17.0,0,False,16.1299991607666,1012.9599609375,1.7651150226593018,0.953125,0.150390625,0.080078125,0.0,7.657031059265137,0.41949462890625,-0.58038330078125,-0.62139892578125,0.41949462890625,-0.58038330078125,-0.62139892578125,0.41949462890625,-0.58038330078125,-0.62139892578125,0.1529688537120819,-1.5967440605163574,-2.038942813873291,-0.15390236675739288,0.37752118706703186,-0.8583747148513794
180,-0.17128799855709076,1.0077199935913086,0.017079999670386314,1.4700000286102295,-3.7100000381469727,-2.5899999141693115,0.0,0.0,-17.0,0,False,16.119998931884766,1012.989990234375,1.5143221616744995,0.955078125,0.154296875,0.07421875,0.0,7.744043350219727,0.41949462890625,-0.58038330078125,-0.62139892578125,0.41949462890625,-0.58038330078125,-0.62139892578125,0.41949462890625,-0.58038330078125,-0.62139892578125,0.1529688537120819,-1.5967440605163574,-2.038942813873291,-0.14600993692874908,0.3813212513923645,-0.8431745171546936
190,-0.17128799855709076,1.0077199935913086,0.017079999670386314,1.4700000286102295,-3.7100000381469727,-2.5899999141693115,0.0,0.0,-17.0,0,False,16.119998931884766,1012.989990234375,1.5143221616744995,0.955078125,0.154296875,0.07421875,0.0,7.744043350219727,0.41949462890625,-0.58038330078125,-0.62139892578125,0.41949462890625,-0.58038330078125,-0.62139892578125,0.41949462890625,-0.58038330078125,-0.62139892578125,0.1529688537120819,-1.5967440605163574,-2.038942813873291,-0.14600993692874908,0.3813212513923645,-0.8431745171546936
200,-0.17128799855709076,1.0077199935913086,0.017079999670386314,1.4700000286102295,-3.7100000381469727,-2.5899999141693115,0.0,0.0,-17.0,0,False,16.119998931884766,1012.989990234375,1.5143221616744995,0.955078125,0.154296875,0.07421875,0.0,7.744043350219727,0.41949462890625,-0.58038330078125,-0.62139892578125,0.41949462890625,-0.58038330078125,-0.62139892578125,0.41949462890625,-0.58038330078125,-0.62139892578125,0.1529688537120819,-1.5967440605163574,-2.038942813873291,-0.14600993692874908,0.3813212513923645,-0.8431745171546936
210,-0.17128799855709076,1.0077199935913086,0.017079999670386314,1.4700000286102295,-3.7100000381469727,-2.5899999141693115,0.0,0.0,-17.0,0,False,16.119998931884766,1012.989990234375,1.5143221616744995,0.955078125,0.154296875,0.07421875,0.0,7.744043350219727,0.41949462890625,-0.58038330078125,-0.62139892578125,0.41949462890625,-0.58038330078125,-0.62139892578125,0.41949462890625,-0.58038330078125,-0.62139892578125,0.1529688537120819,-1.5967440605163574,-2.038942813873291,-0.14600993692874908,0.3813212513923645,-0.8431745171546936
220,-0.17128799855709076,1.0077199935913086,0.017079999670386314,1.4700000286102295,-3.7100000381469727,-2.5899999141693115,0.0,0.0,-17.0,0,False,16.119998931884766,1012.989990234375,1.5143221616744995,0.955078125,0.154296875,0.07421875,0.0,7.744043350219727,0.41949462890625,-0.58038330078125,-0.62139892578125,0.41949462890625,-0.58038330078125,-0.62139892578125,0.41949462890625,-0.58038330078125,-0.62139892578125,0.1529688537120819,-1.5967440605163574,-2.038942813873291,-0.14600993692874908,0.3813212513923645,-0.8431745171546936
230,-0.17128799855709076,1.0077199935913086,0.017079999670386314,1.4700000286102295,-3.7100000381469727,-2.5899999141693115,0.0,0.0,-17.0,0,False,16.119998931884766,1012.989990234375,1.5143221616744995,0.955078125,0.154296875,0.07421875,0.0,7.744043350219727,0.41949462890625,-0.58038330078125,-0.62139892578125,0.41949462890625,-0.58038330078125,-0.62139892578125,0.41949462890625,-0.58038330078125,-0.62139892578125,0.1529688537120819,-1.5967440605163574,-2.038942813873291,-0.14600993692874908,0.3813212513923645,-0.8431745171546936
240,-0.17128799855709076,1.0077199935913086,0.017079999670386314,1.4700000286102295,-3.7100000381469727,-2.5899999141693115,0.0,0.0,-17.0,0,False,16.119998931884766,1012.989990234375,1.5143221616744995,0.955078125,0.154296875,0.07421875,0.0,7.744043350219727,0.41949462890625,-0.58038330078125,-0.62139892578125,0.41949462890625,-0.58038330078125,-0.62139892578125,0.41949462890625,-0.58038330078125,-0.62139892578125,0.1529688537120819,-1.5967440605163574,-2.038942813873291,-0.14600993692874908,0.3813212513923645,-0.8431745171546936
250,-0.17128799855709076,1.0077199935913086,0.017079999670386314,1.4700000286102295,-3.7100000381469727,-2.5899999141693115,0.0,0.0,-17.0,0,False,16.119998931884766,1012.989990234375,1.5143221616744995,0.955078125,0.154296875,0.07421875,0.0,7.744043350219727,0.41949462890625,-0.58038330078125,-0.62139892578125,0.41949462890625,-0.58038330078125,-0.62139892578125,0.41949462890625,-0.58038330078125,-0.62139892578125,0.1529688537120819,-1.5967440605163574,-2.038942813873291,-0.14600993692874908,0.3813212513923645,-0.8431745171546936
260,-0.17128799855709076,1.0077199935913086,0.017079999670386314,1.4700000286102295,-3.7100000381469727,-2.5899999141693115,0.0,0.0,-17.0,0,False,16.119998931884766,1012.989990234375,1.5143221616744995,0.955078125,0.154296875,0.07421875,0.0,7.744043350219727,0.41949462890625,-0.58038330078125,-0.62139892578125,0.41949462890625,-0.58038330078125,-0.62139892578125,0.41949462890625,-0.58038330078125,-0.62139892578125,0.1529688537120819,-1.5967440605163574,-2.038942813873291,-0.14600993692874908,0.3813212513923645,-0.8431745171546936
270,-0.18690401315689087,1.0096720457077026,0.011711999773979187,1.3300000429153442,-3.569999933242798,-2.6600000858306885,0.0,0.0,-17.0,0,False,16.139999389648438,1012.9599609375,1.7651758193969727,0.955078125,0.150390625,0.078125,0.0,7.744043350219727,0.41949462890625,-0.58038330078125,-0.62139892578125,0.41949462890625,-0.58038330078125,-0.62139892578125,0.41949462890625,-0.58038330078125,-0.62139892578125,0.1529688537120819,-1.5967440605163574,-2.038942813873291,-0.14776381850242615,0.38439053297042847,-0.8496053814888
280,-0.18690401315689087,1.0096720457077026,0.011711999773979187,1.3300000429153442,-3.569999933242798,-2.6600000858306885,0.0,0.0,-17.0,0,False,16.139999389648438,1012.9599609375,1.7651758193969727,0.955078125,0.150390625,0.078125,0.0,7.744043350219727,0.41949462890625,-0.58038330078125,-0.62139892578125,0.41949462890625,-0.58038330078125,-0.62139892578125,0.41949462890625,-0.58038330078125,-0.62139892578125,0.1529688537120819,-1.5967440605163574,-2.038942813873291,-0.14776381850242615,0.38439053297042847,-0.8496053814888
290,-0.18690401315689087,1.0096720457077026,0.011711999773979187,1.3300000429153442,-3.569999933242798,-2.6600000858306885,0.0,0.0,-17.0,0,False,16.139999389648438,1012.9599609375,1.7651758193969727,0.955078125,0.150390625,0.078125,0.0,7.744043350219727,0.41949462890625,-0.58038330078125,-0.62139892578125,0.41949462890625,-0.58038330078125,-0.62139892578125,0.41949462890625,-0.58038330078125,-0.62139892578125,0.1529688537120819,-1.5967440605163574,-2.038942813873291,-0.14776381850242615,0.38439053297042847,-0.8496053814888
300,-0.17128799855709076,1.00381600856781,0.015128000639379025,1.399999976158142,-3.7799999713897705,-1.6100000143051147,0.0,0.0,-17.0,0,False,16.170000076293945,1012.9599609375,1.7653590440750122,0.95703125,0.154296875,0.072265625,0.0,7.724706649780273,0.4190673828125,-0.58062744140625,-0.62127685546875,0.4190673828125,-0.58062744140625,-0.62127685546875,0.4190673828125,-0.58062744140625,-0.62127685546875,0.15158462524414062,-1.5964998006820679,-2.0389962196350098,-0.14849458634853363,0.38380590081214905,-0.8455129861831665
310,-0.17128799855709076,1.00381600856781,0.015128000639379025,1.399999976158142,-3.7799999713897705,-1.6100000143051147,0.0,0.0,-17.0,0,False,16.170000076293945,1012.9599609375,1.7653590440750122,0.95703125,0.154296875,0.072265625,0.0,7.724706649780273,0.4190673828125,-0.58062744140625,-0.62127685546875,0.4190673828125,-0.58062744140625,-0.62127685546875,0.4190673828125,-0.58062744140625,-0.62127685546875,0.15158462524414062,-1.5964998006820679,-2.0389962196350098,-0.14849458634853363,0.38380590081214905,-0.8455129861831665
320,-0.17128799855709076,1.00381600856781,0.015128000639379025,1.399999976158142,-3.7799999713897705,-1.6100000143051147,0.0,0.0,-17.0,0,False,16.170000076293945,1012.9599609375,1.7653590440750122,0.95703125,0.154296875,0.072265625,0.0,7.724706649780273,0.4190673828125,-0.58062744140625,-0.62127685546875,0.4190673828125,-0.58062744140625,-0.62127685546875,0.4190673828125,-0.58062744140625,-0.62127685546875,0.15158462524414062,-1.5964998006820679,-2.0389962196350098,-0.14849458634853363,0.38380590081214905,-0.8455129861831665
330,-0.17128799855709076,1.00381600856781,0.015128000639379025,1.399999976158142,-3.7799999713897705,-1.6100000143051147,0.0,0.0,-17.0,0,False,16.18000030517578,1012.9400024414062,1.9324450492858887,0.95703125,0.154296875,0.072265625,0.0,7.724706649780273,0.4190673828125,-0.58062744140625,-0.62127685546875,0.4190673828125,-0.58062744140625,-0.62127685546875,0.4190673828125,-0.58062744140625,-0.62127685546875,0.15158462524414062,-1.5964998006820679,-2.0389962196350098,-0.14820228517055511,0.38175973296165466,-0.8580824136734009
340,-0.17665600776672363,1.005768060684204,0.016103999689221382,1.399999976158142,-3.569999933242798,-2.0999999046325684,0.0,0.0,-17.0,0,False,16.18000030517578,1012.9400024414062,1.9324450492858887,0.958984375,0.150390625,0.0703125,0.0,7.734375,0.4190673828125,-0.58056640625,-0.62127685546875,0.4190673828125,-0.58056640625,-0.62127685546875,0.4190673828125,-0.58056640625,-0.62127685546875,0.15163476765155792,-1.5964300632476807,-2.0389556884765625,-0.14820228517055511,0.38175973296165466,-0.8580824136734009
350,-0.17665600776672363,1.005768060684204,0.016103999689221382,1.399999976158142,-3.569999933242798,-2.0999999046325684,0.0,0.0,-17.0,0,False,16.18000030517578,1012.9400024414062,1.9324450492858887,0.958984375,0.150390625,0.0703125,0.0,7.734375,0.4190673828125,-0.58056640625,-0.62127685546875,0.4190673828125,-0.58056640625,-0.62127685546875,0.4190673828125,-0.58056640625,-0.62127685546875,0.15163476765155792,-1.5964300632476807,-2.0389556884765625,-0.14820228517055511,0.38175973296165466,-0.8580824136734009
360,-0.17665600776672363,1.005768060684204,0.016103999689221382,1.399999976158142,-3.569999933242798,-2.0999999046325684,0.0,0.0,-17.0,0,False,16.18000030517578,1012.9400024414062,1.9324450492858887,0.958984375,0.150390625,0.0703125,0.0,7.734375,0.4190673828125,-0.58056640625,-0.62127685546875,0.4190673828125,-0.58056640625,-0.62127685546875,0.4190673828125,-0.58056640625,-0.62127685546875,0.15163476765155792,-1.5964300632476807,-2.0389556884765625,-0.14820228517055511,0.38175973296165466,-0.8580824136734009
370,-0.17714399099349976,1.0086959600448608,0.018055999651551247,1.3300000429153442,-3.8499999046325684,-1.2599999904632568,0.0,0.0,-17.0,0,False,16.19999885559082,1012.9199829101562,2.099618673324585,0.955078125,0.154296875,0.064453125,0.0,7.734375,0.4190673828125,-0.58056640625,-0.62127685546875,0.4190673828125,-0.58056640625,-0.62127685546875,0.4190673828125,-0.58056640625,-0.62127685546875,0.15163476765155792,-1.5964300632476807,-2.0389556884765625,-0.14747150242328644,0.38380590081214905,-0.8449283838272095
380,-0.17714399099349976,1.0086959600448608,0.018055999651551247,1.3300000429153442,-3.8499999046325684,-1.2599999904632568,0.0,0.0,-17.0,0,False,16.19999885559082,1012.9199829101562,2.099618673324585,0.955078125,0.154296875,0.064453125,0.0,7.734375,0.4190673828125,-0.58056640625,-0.62127685546875,0.4190673828125,-0.58056640625,-0.62127685546875,0.4190673828125,-0.58056640625,-0.62127685546875,0.15163476765155792,-1.5964300632476807,-2.0389556884765625,-0.14747150242328644,0.38380590081214905,-0.8449283838272095
390,-0.17714399099349976,1.0086959600448608,0.018055999651551247,1.3300000429153442,-3.8499999046325684,-1.2599999904632568,0.0,0.0,-17.0,0,False,16.19999885559082,1012.9199829101562,2.099618673324585,0.955078125,0.154296875,0.064453125,0.0,7.734375,0.4190673828125,-0.58056640625,-0.62127685546875,0.4190673828125,-0.58056640625,-0.62127685546875,0.4190673828125,-0.58056640625,-0.62127685546875,0.15163476765155792,-1.5964300632476807,-2.0389556884765625,-0.14747150242328644,0.38380590081214905,-0.8449283838272095
400,-0.16787201166152954,1.0086959600448608,0.016103999689221382,1.3300000429153442,-3.7100000381469727,-1.5399999618530273,0.0,0.0,-17.0,0,False,16.219999313354492,1012.969970703125,1.6818889379501343,0.95703125,0.150390625,0.068359375,0.0,7.705370903015137,0.4190673828125,-0.58056640625,-0.62127685546875,0.4190673828125,-0.58056640625,-0.62127685546875,0.4190673828125,-0.58056640625,-0.62127685546875,0.15163476765155792,-1.5964300632476807,-2.0389556884765625,-0.14440222084522247,0.38146740198135376,-0.8516515493392944
410,-0.16787201166152954,1.0086959600448608,0.016103999689221382,1.3300000429153442,-3.7100000381469727,-1.5399999618530273,0.0,0.0,-17.0,0,False,16.219999313354492,1012.969970703125,1.6818889379501343,0.95703125,0.150390625,0.068359375,0.0,7.705370903015137,0.4190673828125,-0.58056640625,-0.62127685546875,0.4190673828125,-0.58056640625,-0.62127685546875,0.4190673828125,-0.58056640625,-0.62127685546875,0.15163476765155792,-1.5964300632476807,-2.0389556884765625,-0.14440222084522247,0.38146740198135376,-0.8516515493392944
420,-0.16787201166152954,1.0086959600448608,0.016103999689221382,1.3300000429153442,-3.7100000381469727,-1.5399999618530273,0.0,0.0,-17.0,0,False,16.239999771118164,1013.0,1.4311718940734863,0.95703125,0.150390625,0.068359375,0.0,7.705370903015137,0.4190673828125,-0.58056640625,-0.62127685546875,0.4190673828125,-0.58056640625,-0.62127685546875,0.4190673828125,-0.58056640625,-0.62127685546875,0.15163476765155792,-1.5964300632476807,-2.0389556884765625,-0.147325336933136,0.38088276982307434,-0.848289966583252
430,-0.1698240041732788,1.0052800178527832,0.01756800152361393,1.399999976158142,-3.5,-2.869999885559082,0.0,0.0,-17.0,0,False,16.239999771118164,1013.0,1.4311718940734863,0.95703125,0.1484375,0.064453125,0.0,7.734375,0.4190673828125,-0.58056640625,-0.62127685546875,0.4190673828125,-0.58056640625,-0.62127685546875,0.4190673828125,-0.58056640625,-0.62127685546875,0.15163476765155792,-1.5964300632476807,-2.0389556884765625,-0.147325336933136,0.38088276982307434,-0.848289966583252
440,-0.1698240041732788,1.0052800178527832,0.01756800152361393,1.399999976158142,-3.5,-2.869999885559082,0.0,0.0,-17.0,0,False,16.239999771118164,1013.0,1.4311718940734863,0.95703125,0.1484375,0.064453125,0.0,7.734375,0.4190673828125,-0.58056640625,-0.62127685546875,0.4190673828125,-0.58056640625,-0.62127685546875,0.4190673828125,-0.58056640625,-0.62127685546875,0.15163476765155792,-1.5964300632476807,-2.0389556884765625,-0.147325336933136,0.38088276982307434,-0.848289966583252
450,-0.17958399653434753,1.0072319507598877,0.017079999670386314,1.4700000286102295,-3.9200000762939453,-2.7300000190734863,0.0,0.0,-17.0,0,False,16.25,1012.9599609375,1.7658472061157227,0.955078125,0.1484375,0.06640625,0.0,7.724706649780273,0.4190673828125,-0.58056640625,-0.62127685546875,0.4190673828125,-0.58056640625,-0.62127685546875,0.4190673828125,-0.58056640625,-0.62127685546875,0.15163476765155792,-1.5964300632476807,-2.0389556884765625,-0.14586378633975983,0.37883660197257996,-0.8504823446273804
460,-0.17958399653434753,1.0072319507598877,0.017079999670386314,1.4700000286102295,-3.9200000762939453,-2.7300000190734863,0.0,0.0,-17.0,0,False,16.25,1012.9599609375,1.7658472061157227,0.955078125,0.1484375,0.06640625,0.0,7.724706649780273,0.4190673828125,-0.58056640625,-0.62127685546875,0.4190673828125,-0.58056640625,-0.62127685546875,0.4190673828125,-0.58056640625,-0.62127685546875,0.15163476765155792,-1.5964300632476807,-2.0389556884765625,-0.14586378633975983,0.37883660197257996,-0.8504823446273804
470,-0.17958399653434753,1.0072319507598877,0.017079999670386314,1.4700000286102295,-3.9200000762939453,-2.7300000190734863,0.0,0.0,-17.0,0,False,16.25,1012.9599609375,1.7658472061157227,0.955078125,0.1484375,0.06640625,0.0,7.724706649780273,0.4190673828125,-0.58056640625,-0.62127685546875,0.4190673828125,-0.58056640625,-0.62127685546875,0.4190673828125,-0.58056640625,-0.62127685546875,0.15163476765155792,-1.5964300632476807,-2.0389556884765625,-0.14586378633975983,0.37883660197257996,-0.8504823446273804
480,-0.17031200230121613,1.0086959600448608,0.017079999670386314,1.3300000429153442,-3.640000104904175,-2.6600000858306885,0.0,0.0,-17.0,0,False,16.270000457763672,1013.0299682617188,1.1809731721878052,0.95703125,0.15625,0.064453125,0.0,7.744043350219727,0.4190673828125,-0.58056640625,-0.62127685546875,0.4190673828125,-0.58056640625,-0.62127685546875,0.4190673828125,-0.58056640625,-0.62127685546875,0.15163476765155792,-1.5964300632476807,-2.0389556884765625,-0.14747150242328644,0.38278281688690186,-0.8501899838447571
490,-0.17031200230121613,1.0086959600448608,0.017079999670386314,1.3300000429153442,-3.640000104904175,-2.6600000858306885,0.0,0.0,-17.0,0,False,16.270000457763672,1013.0299682617188,1.1809731721878052,0.95703125,0.15625,0.064453125,0.0,7.744043350219727,0.4190673828125,-0.58056640625,-0.62127685546875,0.4190673828125,-0.58056640625,-0.62127685546875,0.4190673828125,-0.58056640625,-0.62127685546875,0.15163476765155792,-1.5964300632476807,-2.0389556884765625,-0.14747150242328644,0.38278281688690186,-0.8501899838447571
500,-0.17031200230121613,1.0086959600448608,0.017079999670386314,1.3300000429153442,-3.640000104904175,-2.6600000858306885,0.0,0.0,-17.0,0,False,16.270000457763672,1013.0299682617188,1.1809731721878052,0.95703125,0.15625,0.064453125,0.0,7.744043350219727,0.4190673828125,-0.58056640625,-0.62127685546875,0.4190673828125,-0.58056640625,-0.62127685546875,0.4190673828125,-0.58056640625,-0.62127685546875,0.15163476765155792,-1.5964300632476807,-2.0389556884765625,-0.14747150242328644,0.38278281688690186,-0.8501899838447571
510,-0.17372800409793854,1.0062559843063354,0.016592001542448997,1.6799999475479126,-3.5,-4.199999809265137,0.0,0.0,-17.0,0,False,16.279998779296875,1013.0,1.431369662284851,0.955078125,0.15234375,0.06640625,0.0,7.744043350219727,0.4193115234375,-0.58038330078125,-0.62139892578125,0.4193115234375,-0.58038330078125,-0.62139892578125,0.4193115234375,-0.58038330078125,-0.62139892578125,0.1525292843580246,-1.5964699983596802,-2.0389695167541504,-0.16311019659042358,0.3849751651287079,-0.8475592136383057
520,-0.17372800409793854,1.0062559843063354,0.016592001542448997,1.6799999475479126,-3.5,-4.199999809265137,0.0,0.0,-17.0,0,False,16.279998779296875,1013.0,1.431369662284851,0.955078125,0.15234375,0.06640625,0.0,7.744043350219727,0.4193115234375,-0.58038330078125,-0.62139892578125,0.4193115234375,-0.58038330078125,-0.62139892578125,0.4193115234375,-0.58038330078125,-0.62139892578125,0.1525292843580246,-1.5964699983596802,-2.0389695167541504,-0.16311019659042358,0.3849751651287079,-0.8475592136383057
530,-0.17372800409793854,1.0062559843063354,0.016592001542448997,1.6799999475479126,-3.5,-4.199999809265137,0.0,0.0,-17.0,0,False,16.279998779296875,1013.0,1.431369662284851,0.955078125,0.15234375,0.06640625,0.0,7.744043350219727,0.4193115234375,-0.58038330078125,-0.62139892578125,0.4193115234375,-0.58038330078125,-0.62139892578125,0.4193115234375,-0.58038330078125,-0.62139892578125,0.1525292843580246,-1.5964699983596802,-2.0389695167541504,-0.16311019659042358,0.3849751651287079,-0.8475592136383057
540,-0.18055999279022217,1.0067440271377563,0.014640000648796558,1.4700000286102295,-3.569999933242798,-4.619999885559082,0.0,0.0,-17.0,0,False,16.28999900817871,1013.0399780273438,1.0972651243209839,0.95703125,0.154296875,0.072265625,0.0,7.724706649780273,0.4193115234375,-0.58038330078125,-0.62139892578125,0.4193115234375,-0.58038330078125,-0.62139892578125,0.4193115234375,-0.58038330078125,-0.62139892578125,0.1525292843580246,-1.5964699983596802,-2.0389695167541504,-0.14834843575954437,0.38702133297920227,-0.8529669642448425
550,-0.18055999279022217,1.0067440271377563,0.014640000648796558,1.4700000286102295,-3.569999933242798,-4.619999885559082,0.0,0.0,-17.0,0,False,16.28999900817871,1013.0399780273438,1.0972651243209839,0.95703125,0.154296875,0.072265625,0.0,7.724706649780273,0.4193115234375,-0.58038330078125,-0.62139892578125,0.4193115234375,-0.58038330078125,-0.62139892578125,0.4193115234375,-0.58038330078125,-0.62139892578125,0.1525292843580246,-1.5964699983596802,-2.0389695167541504,-0.14834843575954437,0.38702133297920227,-0.8529669642448425
560,-0.18055999279022217,1.0067440271377563,0.014640000648796558,1.4700000286102295,-3.569999933242798,-4.619999885559082,0.0,0.0,-17.0,0,False,16.28999900817871,1013.0399780273438,1.0972651243209839,0.95703125,0.154296875,0.072265625,0.0,7.724706649780273,0.4193115234375,-0.58038330078125,-0.62139892578125,0.4193115234375,-0.58038330078125,-0.62139892578125,0.4193115234375,-0.58038330078125,-0.62139892578125,0.1525292843580246,-1.5964699983596802,-2.0389695167541504,-0.14834843575954437,0.38702133297920227,-0.8529669642448425
570,-0.18104800581932068,1.0062559843063354,0.01756800152361393,1.6799999475479126,-3.640000104904175,-3.7799999713897705,0.0,0.0,-17.0,0,False,16.299999237060547,1013.0,1.4314686059951782,0.953125,0.16015625,0.076171875,0.0,7.724706649780273,0.4193115234375,-0.58038330078125,-0.62139892578125,0.4193115234375,-0.58038330078125,-0.62139892578125,0.4193115234375,-0.58038330078125,-0.62139892578125,0.1525292843580246,-1.5964699983596802,-2.0389695167541504,-0.14995615184307098,0.3820520341396332,-0.8478515148162842
580,-0.18104800581932068,1.0062559843063354,0.01756800152361393,1.6799999475479126,-3.640000104904175,-3.7799999713897705,0.0,0.0,-17.0,0,False,16.299999237060547,1013.0,1.4314686059951782,0.953125,0.16015625,0.076171875,0.0,7.724706649780273,0.4193115234375,-0.58038330078125,-0.62139892578125,0.4193115234375,-0.58038330078125,-0.62139892578125,0.4193115234375,-0.58038330078125,-0.62139892578125,0.1525292843580246,-1.5964699983596802,-2.0389695167541504,-0.14995615184307098,0.3820520341396332,-0.8478515148162842
590,-0.18104800581932068,1.0062559843063354,0.01756800152361393,1.6799999475479126,-3.640000104904175,-3.7799999713897705,0.0,0.0,-17.0,0,False,16.299999237060547,1013.0,1.4314686059951782,0.953125,0.16015625,0.076171875,0.0,7.724706649780273,0.4193115234375,-0.58038330078125,-0.62139892578125,0.4193115234375,-0.58038330078125,-0.62139892578125,0.4193115234375,-0.58038330078125,-0.62139892578125,0.1525292843580246,-1.5964699983596802,-2.0389695167541504,-0.14995615184307098,0.3820520341396332,-0.8478515148162842
600,-0.18397599458694458,1.004304051399231,0.013664000667631626,1.6100000143051147,-3.7100000381469727,-3.2899999618530273,0.0,0.0,-17.0,0,False,16.309999465942383,1013.0099487304688,1.3482249975204468,0.951171875,0.162109375,0.078125,0.0,7.724706649780273,0.42041015625,-0.57952880859375,-0.62200927734375,0.42041015625,-0.57952880859375,-0.62200927734375,0.42041015625,-0.57952880859375,-0.62200927734375,0.1562705636024475,-1.5963536500930786,-2.0387492179870605,-0.16047939658164978,0.3852674663066864,-0.8512130975723267
610,-0.18397599458694458,1.004304051399231,0.013664000667631626,1.6100000143051147,-3.7100000381469727,-3.2899999618530273,0.0,0.0,-17.0,0,False,16.309999465942383,1013.0099487304688,1.3482249975204468,0.951171875,0.162109375,0.078125,0.0,7.724706649780273,0.42041015625,-0.57952880859375,-0.62200927734375,0.42041015625,-0.57952880859375,-0.62200927734375,0.42041015625,-0.57952880859375,-0.62200927734375,0.1562705636024475,-1.5963536500930786,-2.0387492179870605,-0.16047939658164978,0.3852674663066864,-0.8512130975723267
620,-0.1849519908428192,1.0101600885391235,0.015128000639379025,1.0499999523162842,-3.640000104904175,2.309999942779541,0.0,0.0,-17.0,0,False,16.239999771118164,1013.0099487304688,1.3478988409042358,0.953125,0.1640625,0.076171875,0.0,7.734375,0.420654296875,-0.57940673828125,-0.6220703125,0.420654296875,-0.57940673828125,-0.6220703125,0.420654296875,-0.57940673828125,-0.6220703125,0.1569194495677948,-1.5964609384536743,-2.0386133193969727,-0.15200233459472656,0.3862905502319336,-0.8439052700996399
630,-0.1849519908428192,1.0101600885391235,0.015128000639379025,1.0499999523162842,-3.640000104904175,2.309999942779541,0.0,0.0,-17.0,0,False,16.239999771118164,1013.0099487304688,1.3478988409042358,0.953125,0.1640625,0.076171875,0.0,7.734375,0.420654296875,-0.57940673828125,-0.6220703125,0.420654296875,-0.57940673828125,-0.6220703125,0.420654296875,-0.57940673828125,-0.6220703125,0.1569194495677948,-1.5964609384536743,-2.0386133193969727,-0.15200233459472656,0.3862905502319336,-0.8439052700996399
640,-0.1849519908428192,1.0101600885391235,0.015128000639379025,1.0499999523162842,-3.640000104904175,2.309999942779541,0.0,0.0,-17.0,0,False,16.239999771118164,1013.0099487304688,1.3478988409042358,0.953125,0.1640625,0.076171875,0.0,7.734375,0.420654296875,-0.57940673828125,-0.6220703125,0.420654296875,-0.57940673828125,-0.6220703125,0.420654296875,-0.57940673828125,-0.6220703125,0.1569194495677948,-1.5964609384536743,-2.0386133193969727,-0.15200233459472656,0.3862905502319336,-0.8439052700996399
650,-0.1849519908428192,1.0101600885391235,0.015128000639379025,1.0499999523162842,-3.640000104904175,2.309999942779541,0.0,0.0,-17.0,0,False,16.239999771118164,1013.0099487304688,1.3478988409042358,0.953125,0.1640625,0.076171875,0.0,7.734375,0.420654296875,-0.57940673828125,-0.6220703125,0.420654296875,-0.57940673828125,-0.6220703125,0.420654296875,-0.57940673828125,-0.6220703125,0.1569194495677948,-1.5964609384536743,-2.0386133193969727,-0.15200233459472656,0.3862905502319336,-0.8439052700996399
660,-0.1849519908428192,1.0101600885391235,0.015128000639379025,1.0499999523162842,-3.640000104904175,2.309999942779541,0.0,0.0,-17.0,0,False,16.239999771118164,1013.0099487304688,1.3478988409042358,0.953125,0.1640625,0.076171875,0.0,7.734375,0.420654296875,-0.57940673828125,-0.6220703125,0.420654296875,-0.57940673828125,-0.6220703125,0.420654296875,-0.57940673828125,-0.6220703125,0.1569194495677948,-1.5964609384536743,-2.0386133193969727,-0.15200233459472656,0.3862905502319336,-0.8439052700996399
670,-0.1849519908428192,1.0101600885391235,0.015128000639379025,1.0499999523162842,-3.640000104904175,2.309999942779541,0.0,0.0,-17.0,0,False,16.239999771118164,1013.0099487304688,1.3478988409042358,0.953125,0.1640625,0.076171875,0.0,7.734375,0.420654296875,-0.57940673828125,-0.6220703125,0.420654296875,-0.57940673828125,-0.6220703125,0.420654296875,-0.57940673828125,-0.6220703125,0.1569194495677948,-1.5964609384536743,-2.0386133193969727,-0.15200233459472656,0.3862905502319336,-0.8439052700996399
680,-0.1849519908428192,1.0101600885391235,0.015128000639379025,1.0499999523162842,-3.640000104904175,2.309999942779541,0.0,0.0,-17.0,0,False,16.239999771118164,1013.0099487304688,1.3478988409042358,0.953125,0.1640625,0.076171875,0.0,7.734375,0.420654296875,-0.57940673828125,-0.6220703125,0.420654296875,-0.57940673828125,-0.6220703125,0.420654296875,-0.57940673828125,-0.6220703125,0.1569194495677948,-1.5964609384536743,-2.0386133193969727,-0.15200233459472656,0.3862905502319336,-0.8439052700996399
690,-0.1849519908428192,1.0101600885391235,0.015128000639379025,1.0499999523162842,-3.640000104904175,2.309999942779541,0.0,0.0,-17.0,0,False,16.239999771118164,1013.0099487304688,1.3478988409042358,0.953125,0.1640625,0.076171875,0.0,7.734375,0.420654296875,-0.57940673828125,-0.6220703125,0.420654296875,-0.57940673828125,-0.6220703125,0.420654296875,-0.57940673828125,-0.6220703125,0.1569194495677948,-1.5964609384536743,-2.0386133193969727,-0.15200233459472656,0.3862905502319336,-0.8439052700996399
700,-0.1849519908428192,1.0101600885391235,0.015128000639379025,1.0499999523162842,-3.640000104904175,2.309999942779541,0.0,0.0,-17.0,0,False,16.239999771118164,1013.0099487304688,1.3478988409042358,0.953125,0.1640625,0.076171875,0.0,7.734375,0.420654296875,-0.57940673828125,-0.6220703125,0.420654296875,-0.57940673828125,-0.6220703125,0.420654296875,-0.57940673828125,-0.6220703125,0.1569194495677948,-1.5964609384536743,-2.0386133193969727,-0.15200233459472656,0.3862905502319336,-0.8439052700996399
710,-0.1849519908428192,1.0101600885391235,0.015128000639379025,1.0499999523162842,-3.640000104904175,2.309999942779541,0.0,0.0,-17.0,0,False,16.239999771118164,1013.0099487304688,1.3478988409042358,0.953125,0.1640625,0.076171875,0.0,7.734375,0.420654296875,-0.57940673828125,-0.6220703125,0.420654296875,-0.57940673828125,-0.6220703125,0.420654296875,-0.57940673828125,-0.6220703125,0.1569194495677948,-1.5964609384536743,-2.0386133193969727,-0.15200233459472656,0.3862905502319336,-0.8439052700996399
720,-0.17763200402259827,1.0082080364227295,0.016592001542448997,0.9800000190734863,-3.640000104904175,3.5,0.0,0.0,-17.0,0,False,16.260000228881836,1013.0499877929688,1.013371229171753,0.951171875,0.16015625,0.072265625,0.0,7.724706649780273,0.41937255859375,-0.580322265625,-0.6214599609375,0.41937255859375,-0.580322265625,-0.6214599609375,0.41937255859375,-0.580322265625,-0.6214599609375,0.15268847346305847,-1.5963724851608276,-2.0389010906219482,-0.14586378633975983,0.3862905502319336,-0.8551592826843262
730,-0.17763200402259827,1.0082080364227295,0.016592001542448997,0.9800000190734863,-3.640000104904175,3.5,0.0,0.0,-17.0,0,False,16.260000228881836,1013.0499877929688,1.013371229171753,0.951171875,0.16015625,0.072265625,0.0,7.724706649780273,0.41937255859375,-0.580322265625,-0.6214599609375,0.41937255859375,-0.580322265625,-0.6214599609375,0.41937255859375,-0.580322265625,-0.6214599609375,0.15268847346305847,-1.5963724851608276,-2.0389010906219482,-0.14586378633975983,0.3862905502319336,-0.8551592826843262
740,-0.17763200402259827,1.0082080364227295,0.016592001542448997,0.9800000190734863,-3.640000104904175,3.5,0.0,0.0,-17.0,0,False,16.260000228881836,1013.0499877929688,1.013371229171753,0.951171875,0.16015625,0.072265625,0.0,7.724706649780273,0.41937255859375,-0.580322265625,-0.6214599609375,0.41937255859375,-0.580322265625,-0.6214599609375,0.41937255859375,-0.580322265625,-0.6214599609375,0.15268847346305847,-1.5963724851608276,-2.0389010906219482,-0.14586378633975983,0.3862905502319336,-0.8551592826843262
750,-0.1698240041732788,1.0077199935913086,0.013664000667631626,0.6299999952316284,-4.059999942779541,3.8499999046325684,0.0,0.0,-17.0,0,False,16.270000457763672,1013.0,1.4313201904296875,0.953125,0.158203125,0.07421875,0.0,7.744043350219727,0.41802978515625,-0.58135986328125,-0.6207275390625,0.41802978515625,-0.58135986328125,-0.6207275390625,0.41802978515625,-0.58135986328125,-0.6207275390625,0.14820805191993713,-1.5965311527252197,-2.0392470359802246,-0.14717918634414673,0.37985968589782715,-0.8443437814712524
760,-0.1698240041732788,1.0077199935913086,0.013664000667631626,0.6299999952316284,-4.059999942779541,3.8499999046325684,0.0,0.0,-17.0,0,False,16.270000457763672,1013.0,1.4313201904296875,0.953125,0.158203125,0.07421875,0.0,7.744043350219727,0.41802978515625,-0.58135986328125,-0.6207275390625,0.41802978515625,-0.58135986328125,-0.6207275390625,0.41802978515625,-0.58135986328125,-0.6207275390625,0.14820805191993713,-1.5965311527252197,-2.0392470359802246,-0.14717918634414673,0.37985968589782715,-0.8443437814712524
770,-0.1698240041732788,1.0077199935913086,0.013664000667631626,0.6299999952316284,-4.059999942779541,3.8499999046325684,0.0,0.0,-17.0,0,False,16.270000457763672,1013.0,1.4313201904296875,0.953125,0.158203125,0.07421875,0.0,7.744043350219727,0.41802978515625,-0.58135986328125,-0.6207275390625,0.41802978515625,-0.58135986328125,-0.6207275390625,0.41802978515625,-0.58135986328125,-0.6207275390625,0.14820805191993713,-1.5965311527252197,-2.0392470359802246,-0.14717918634414673,0.37985968589782715,-0.8443437814712524
780,-0.1698240041732788,1.0077199935913086,0.013664000667631626,0.6299999952316284,-4.059999942779541,3.8499999046325684,0.0,0.0,-17.0,0,False,16.270000457763672,1012.989990234375,1.5151073932647705,0.953125,0.158203125,0.07421875,0.0,7.744043350219727,0.41802978515625,-0.58135986328125,-0.6207275390625,0.41802978515625,-0.58135986328125,-0.6207275390625,0.41802978515625,-0.58135986328125,-0.6207275390625,0.14820805191993713,-1.5965311527252197,-2.0392470359802246,-0.1423560380935669,0.38439053297042847,-0.8589593768119812
790,-0.1698240041732788,1.0091840028762817,0.009759999811649323,0.49000000953674316,-3.569999933242798,3.640000104904175,0.0,0.0,-17.0,0,False,16.270000457763672,1012.989990234375,1.5151073932647705,0.955078125,0.154296875,0.080078125,0.0,7.724706649780273,0.41790771484375,-0.5814208984375,-0.62066650390625,0.41790771484375,-0.5814208984375,-0.62066650390625,0.41790771484375,-0.5814208984375,-0.62066650390625,0.14782464504241943,-1.596496820449829,-2.039254665374756,-0.1423560380935669,0.38439053297042847,-0.8589593768119812
800,-0.1698240041732788,1.0091840028762817,0.009759999811649323,0.49000000953674316,-3.569999933242798,3.640000104904175,0.0,0.0,-17.0,0,False,16.270000457763672,1012.989990234375,1.5151073932647705,0.955078125,0.154296875,0.080078125,0.0,7.724706649780273,0.41790771484375,-0.5814208984375,-0.62066650390625,0.41790771484375,-0.5814208984375,-0.62066650390625,0.41790771484375,-0.5814208984375,-0.62066650390625,0.14782464504241943,-1.596496820449829,-2.039254665374756,-0.1423560380935669,0.38439053297042847,-0.8589593768119812
810,-0.1698240041732788,1.0091840028762817,0.009759999811649323,0.49000000953674316,-3.569999933242798,3.640000104904175,0.0,0.0,-17.0,0,False,16.270000457763672,1012.989990234375,1.5151073932647705,0.955078125,0.154296875,0.080078125,0.0,7.724706649780273,0.41790771484375,-0.5814208984375,-0.62066650390625,0.41790771484375,-0.5814208984375,-0.62066650390625,0.41790771484375,-0.5814208984375,-0.62066650390625,0.14782464504241943,-1.596496820449829,-2.039254665374756,-0.1423560380935669,0.38439053297042847,-0.8589593768119812
820,-0.15811200439929962,1.0086959600448608,0.016103999689221382,1.2599999904632568,-3.5,3.1500000953674316,0.0,0.0,-17.0,0,False,16.279998779296875,1012.989990234375,1.5151598453521729,0.955078125,0.15234375,0.080078125,0.0,7.753710746765137,0.41790771484375,-0.5814208984375,-0.62066650390625,0.41790771484375,-0.5814208984375,-0.62066650390625,0.41790771484375,-0.5814208984375,-0.62066650390625,0.14782464504241943,-1.596496820449829,-2.039254665374756,-0.14323297142982483,0.38672903180122375,-0.8648056387901306
830,-0.15811200439929962,1.0086959600448608,0.016103999689221382,1.2599999904632568,-3.5,3.1500000953674316,0.0,0.0,-17.0,0,False,16.279998779296875,1012.989990234375,1.5151598453521729,0.955078125,0.15234375,0.080078125,0.0,7.753710746765137,0.41790771484375,-0.5814208984375,-0.62066650390625,0.41790771484375,-0.5814208984375,-0.62066650390625,0.41790771484375,-0.5814208984375,-0.62066650390625,0.14782464504241943,-1.596496820449829,-2.039254665374756,-0.14323297142982483,0.38672903180122375,-0.8648056387901306
840,-0.15811200439929962,1.0086959600448608,0.016103999689221382,1.2599999904632568,-3.5,3.1500000953674316,0.0,0.0,-17.0,0,False,16.279998779296875,1012.989990234375,1.5151598453521729,0.955078125,0.15234375,0.080078125,0.0,7.753710746765137,0.41790771484375,-0.5814208984375,-0.62066650390625,0.41790771484375,-0.5814208984375,-0.62066650390625,0.41790771484375,-0.5814208984375,-0.62066650390625,0.14782464504241943,-1.596496820449829,-2.039254665374756,-0.14323297142982483,0.38672903180122375,-0.8648056387901306
850,-0.14591200649738312,1.0082080364227295,0.01756800152361393,2.0999999046325684,-3.430000066757202,0.0,0.0,0.0,-17.0,0,False,16.28999900817871,1012.969970703125,1.682295799255371,0.9609375,0.150390625,0.080078125,0.0,7.734375,0.41790771484375,-0.5814208984375,-0.62066650390625,0.41790771484375,-0.5814208984375,-0.62066650390625,0.41790771484375,-0.5814208984375,-0.62066650390625,0.14782464504241943,-1.596496820449829,-2.039254665374756,-0.14206372201442719,0.38439053297042847,-0.8541362285614014
860,-0.14591200649738312,1.0082080364227295,0.01756800152361393,2.0999999046325684,-3.430000066757202,0.0,0.0,0.0,-17.0,0,False,16.28999900817871,1012.969970703125,1.682295799255371,0.9609375,0.150390625,0.080078125,0.0,7.734375,0.41790771484375,-0.5814208984375,-0.62066650390625,0.41790771484375,-0.5814208984375,-0.62066650390625,0.41790771484375,-0.5814208984375,-0.62066650390625,0.14782464504241943,-1.596496820449829,-2.039254665374756,-0.14206372201442719,0.38439053297042847,-0.8541362285614014
870,-0.14591200649738312,1.0082080364227295,0.01756800152361393,2.0999999046325684,-3.430000066757202,0.0,0.0,0.0,-17.0,0,False,16.299999237060547,1012.97998046875,1.599061131477356,0.9609375,0.150390625,0.080078125,0.0,7.734375,0.41790771484375,-0.5814208984375,-0.62066650390625,0.41790771484375,-0.5814208984375,-0.62066650390625,0.41790771484375,-0.5814208984375,-0.62066650390625,0.14782464504241943,-1.596496820449829,-2.039254665374756,-0.14688687026500702,0.38351359963417053,-0.8633440732955933
880,-0.157136008143425,1.0086959600448608,0.015128000639379025,1.2599999904632568,-3.7100000381469727,-3.359999895095825,0.0,0.0,-17.0,0,False,16.299999237060547,1012.97998046875,1.599061131477356,0.96484375,0.140625,0.0703125,0.0,7.744043350219727,0.41790771484375,-0.5814208984375,-0.62066650390625,0.41790771484375,-0.5814208984375,-0.62066650390625,0.41790771484375,-0.5814208984375,-0.62066650390625,0.14782464504241943,-1.596496820449829,-2.039254665374756,-0.14688687026500702,0.38351359963417053,-0.8633440732955933
890,-0.157136008143425,1.0086959600448608,0.015128000639379025,1.2599999904632568,-3.7100000381469727,-3.359999895095825,0.0,0.0,-17.0,0,False,16.299999237060547,1012.97998046875,1.599061131477356,0.96484375,0.140625,0.0703125,0.0,7.744043350219727,0.41790771484375,-0.5814208984375,-0.62066650390625,0.41790771484375,-0.5814208984375,-0.62066650390625,0.41790771484375,-0.5814208984375,-0.62066650390625,0.14782464504241943,-1.596496820449829,-2.039254665374756,-0.14688687026500702,0.38351359963417053,-0.8633440732955933
900,-0.17372800409793854,1.0116239786148071,0.02000799961388111,2.1700000762939453,-3.640000104904175,-2.6600000858306885,0.0,0.0,-17.0,0,False,16.31999969482422,1013.0,1.4315675497055054,0.962890625,0.142578125,0.072265625,0.0,7.734375,0.41790771484375,-0.5814208984375,-0.62066650390625,0.41790771484375,-0.5814208984375,-0.62066650390625,0.41790771484375,-0.5814208984375,-0.62066650390625,0.14782464504241943,-1.596496820449829,-2.039254665374756,-0.14484068751335144,0.381613552570343,-0.8636363744735718
910,-0.17372800409793854,1.0116239786148071,0.02000799961388111,2.1700000762939453,-3.640000104904175,-2.6600000858306885,0.0,0.0,-17.0,0,False,16.31999969482422,1013.0,1.4315675497055054,0.962890625,0.142578125,0.072265625,0.0,7.734375,0.41790771484375,-0.5814208984375,-0.62066650390625,0.41790771484375,-0.5814208984375,-0.62066650390625,0.41790771484375,-0.5814208984375,-0.62066650390625,0.14782464504241943,-1.596496820449829,-2.039254665374756,-0.14484068751335144,0.381613552570343,-0.8636363744735718
920,-0.17372800409793854,1.0116239786148071,0.02000799961388111,2.1700000762939453,-3.640000104904175,-2.6600000858306885,0.0,0.0,-17.0,0,False,16.31999969482422,1013.0,1.4315675497055054,0.962890625,0.142578125,0.072265625,0.0,7.734375,0.41790771484375,-0.5814208984375,-0.62066650390625,0.41790771484375,-0.5814208984375,-0.62066650390625,0.41790771484375,-0.5814208984375,-0.62066650390625,0.14782464504241943,-1.596496820449829,-2.039254665374756,-0.14484068751335144,0.381613552570343,-0.8636363744735718
930,-0.1600639969110489,1.0096720457077026,0.017079999670386314,2.0999999046325684,-3.569999933242798,-2.0999999046325684,0.0,0.0,-17.0,0,False,16.31999969482422,1012.989990234375,1.515369176864624,0.958984375,0.14453125,0.078125,0.0,7.734375,0.41790771484375,-0.5814208984375,-0.62066650390625,0.41790771484375,-0.5814208984375,-0.62066650390625,0.41790771484375,-0.5814208984375,-0.62066650390625,0.14782464504241943,-1.596496820449829,-2.039254665374756,-0.14542531967163086,0.3849751651287079,-0.8626132607460022
940,-0.1600639969110489,1.0096720457077026,0.017079999670386314,2.0999999046325684,-3.569999933242798,-2.0999999046325684,0.0,0.0,-17.0,0,False,16.31999969482422,1012.989990234375,1.515369176864624,0.958984375,0.14453125,0.078125,0.0,7.734375,0.41790771484375,-0.5814208984375,-0.62066650390625,0.41790771484375,-0.5814208984375,-0.62066650390625,0.41790771484375,-0.5814208984375,-0.62066650390625,0.14782464504241943,-1.596496820449829,-2.039254665374756,-0.14542531967163086,0.3849751651287079,-0.8626132607460022
950,-0.1600639969110489,1.0096720457077026,0.017079999670386314,2.0999999046325684,-3.569999933242798,-2.0999999046325684,0.0,0.0,-17.0,0,False,16.31999969482422,1012.989990234375,1.515369176864624,0.958984375,0.14453125,0.078125,0.0,7.734375,0.41790771484375,-0.5814208984375,-0.62066650390625,0.41790771484375,-0.5814208984375,-0.62066650390625,0.41790771484375,-0.5814208984375,-0.62066650390625,0.14782464504241943,-1.596496820449829,-2.039254665374756,-0.14542531967163086,0.3849751651287079,-0.8626132607460022
960,-0.1600639969110489,1.0096720457077026,0.017079999670386314,2.0999999046325684,-3.569999933242798,-2.0999999046325684,0.0,0.0,-17.0,0,False,16.31999969482422,1013.0299682617188,1.1811772584915161,0.958984375,0.14453125,0.078125,0.0,7.734375,0.41790771484375,-0.5814208984375,-0.62066650390625,0.41790771484375,-0.5814208984375,-0.62066650390625,0.41790771484375,-0.5814208984375,-0.62066650390625,0.14782464504241943,-1.596496820449829,-2.039254665374756,-0.1449868530035019,0.3889213800430298,-0.8734288215637207
970,-0.1600639969110489,1.0096720457077026,0.016592001542448997,1.1200000047683716,-3.9200000762939453,-3.5,0.0,0.0,-17.0,0,False,16.31999969482422,1013.0299682617188,1.1811772584915161,0.953125,0.142578125,0.078125,0.0,7.734375,0.41790771484375,-0.5814208984375,-0.62066650390625,0.41790771484375,-0.5814208984375,-0.62066650390625,0.41790771484375,-0.5814208984375,-0.62066650390625,0.14782464504241943,-1.596496820449829,-2.039254665374756,-0.1449868530035019,0.3889213800430298,-0.8734288215637207
980,-0.1600639969110489,1.0096720457077026,0.016592001542448997,1.1200000047683716,-3.9200000762939453,-3.5,0.0,0.0,-17.0,0,False,16.31999969482422,1013.0299682617188,1.1811772584915161,0.953125,0.142578125,0.078125,0.0,7.734375,0.41790771484375,-0.5814208984375,-0.62066650390625,0.41790771484375,-0.5814208984375,-0.62066650390625,0.41790771484375,-0.5814208984375,-0.62066650390625,0.14782464504241943,-1.596496820449829,-2.039254665374756,-0.1449868530035019,0.3889213800430298,-0.8734288215637207
990,-0.17324000597000122,1.0111359357833862,0.01317600067704916,1.1200000047683716,-3.7100000381469727,-3.7100000381469727,0.0,0.0,-17.0,0,False,16.34000015258789,1013.0,1.4316664934158325,0.955078125,0.15234375,0.080078125,0.0,7.734375,0.41790771484375,-0.5814208984375,-0.62066650390625,0.41790771484375,-0.5814208984375,-0.62066650390625,0.41790771484375,-0.5814208984375,-0.62066650390625,0.14782464504241943,-1.596496820449829,-2.039254665374756,-0.14323297142982483,0.3855597674846649,-0.8826366662979126
1000,-0.17324000597000122,1.0111359357833862,0.01317600067704916,1.1200000047683716,-3.7100000381469727,-3.7100000381469727,0.0,0.0,-17.0,0,False,16.34000015258789,1013.0,1.4316664934158325,0.955078125,0.15234375,0.080078125,0.0,7.734375,0.41790771484375,-0.5814208984375,-0.62066650390625,0.41790771484375,-0.5814208984375,-0.62066650390625,0.41790771484375,-0.5814208984375,-0.62066650390625,0.14782464504241943,-1.596496820449829,-2.039254665374756,-0.14323297142982483,0.3855597674846649,-0.8826366662979126
1010,-0.17324000597000122,1.0111359357833862,0.01317600067704916,1.1200000047683716,-3.7100000381469727,-3.7100000381469727,0.0,0.0,-17.0,0,False,16.34000015258789,1013.0,1.4316664934158325,0.955078125,0.15234375,0.080078125,0.0,7.734375,0.41790771484375,-0.5814208984375,-0.62066650390625,0.41790771484375,-0.5814208984375,-0.62066650390625,0.41790771484375,-0.5814208984375,-0.62066650390625,0.14782464504241943,-1.596496820449829,-2.039254665374756,-0.14323297142982483,0.3855597674846649,-0.8826366662979126
1020,-0.1786080002784729,1.0111359357833862,0.01561600062996149,1.0499999523162842,-4.269999980926514,-1.4700000286102295,0.0,0.0,-17.0,0,False,16.34000015258789,1012.969970703125,1.6825863122940063,0.95703125,0.150390625,0.07421875,0.0,7.753710746765137,0.41790771484375,-0.5814208984375,-0.62066650390625,0.41790771484375,-0.5814208984375,-0.62066650390625,0.41790771484375,-0.5814208984375,-0.62066650390625,0.14782464504241943,-1.596496820449829,-2.039254665374756,-0.16062554717063904,0.3918444812297821,-0.8873136639595032
1030,-0.1786080002784729,1.0111359357833862,0.01561600062996149,1.0499999523162842,-4.269999980926514,-1.4700000286102295,0.0,0.0,-17.0,0,False,16.34000015258789,1012.969970703125,1.6825863122940063,0.95703125,0.150390625,0.07421875,0.0,7.753710746765137,0.41790771484375,-0.5814208984375,-0.62066650390625,0.41790771484375,-0.5814208984375,-0.62066650390625,0.41790771484375,-0.5814208984375,-0.62066650390625,0.14782464504241943,-1.596496820449829,-2.039254665374756,-0.16062554717063904,0.3918444812297821,-0.8873136639595032
1040,-0.1786080002784729,1.0111359357833862,0.01561600062996149,1.0499999523162842,-4.269999980926514,-1.4700000286102295,0.0,0.0,-17.0,0,False,16.34000015258789,1012.969970703125,1.6825863122940063,0.95703125,0.150390625,0.07421875,0.0,7.753710746765137,0.41790771484375,-0.5814208984375,-0.62066650390625,0.41790771484375,-0.5814208984375,-0.62066650390625,0.41790771484375,-0.5814208984375,-0.62066650390625,0.14782464504241943,-1.596496820449829,-2.039254665374756,-0.16062554717063904,0.3918444812297821,-0.8873136639595032
1050,-0.16787201166152954,1.0096720457077026,0.017079999670386314,0.9800000190734863,-3.7799999713897705,-0.2800000011920929,0.0,0.0,-17.0,0,False,16.350000381469727,1012.97998046875,1.5993374586105347,0.962890625,0.15234375,0.076171875,0.0,7.724706649780273,0.41790771484375,-0.5814208984375,-0.62066650390625,0.41790771484375,-0.5814208984375,-0.62066650390625,0.41790771484375,-0.5814208984375,-0.62066650390625,0.14782464504241943,-1.596496820449829,-2.039254665374756,-0.14425607025623322,0.3925752639770508,-0.902513861656189
1060,-0.16787201166152954,1.0096720457077026,0.017079999670386314,0.9800000190734863,-3.7799999713897705,-0.2800000011920929,0.0,0.0,-17.0,0,False,16.350000381469727,1012.97998046875,1.5993374586105347,0.962890625,0.15234375,0.076171875,0.0,7.724706649780273,0.41790771484375,-0.5814208984375,-0.62066650390625,0.41790771484375,-0.5814208984375,-0.62066650390625,0.41790771484375,-0.5814208984375,-0.62066650390625,0.14782464504241943,-1.596496820449829,-2.039254665374756,-0.14425607025623322,0.3925752639770508,-0.902513861656189
1070,-0.16787201166152954,1.0096720457077026,0.017079999670386314,0.9800000190734863,-3.7799999713897705,-0.2800000011920929,0.0,0.0,-17.0,0,False,16.279998779296875,1013.0099487304688,1.3480852842330933,0.962890625,0.15234375,0.076171875,0.0,7.724706649780273,0.41790771484375,-0.5814208984375,-0.62066650390625,0.41790771484375,-0.5814208984375,-0.62066650390625,0.41790771484375,-0.5814208984375,-0.62066650390625,0.14782464504241943,-1.596496820449829,-2.039254665374756,-0.13680210709571838,0.3842443823814392,-0.9454838037490845
1080,-0.17324000597000122,1.0106480121612549,0.01561600062996149,1.6100000143051147,-3.7100000381469727,-3.2200000286102295,0.0,0.0,-17.0,0,False,16.279998779296875,1013.0099487304688,1.3480852842330933,0.95703125,0.146484375,0.078125,0.0,7.734375,0.41790771484375,-0.5814208984375,-0.62066650390625,0.41790771484375,-0.5814208984375,-0.62066650390625,0.41790771484375,-0.5814208984375,-0.62066650390625,0.14782464504241943,-1.596496820449829,-2.039254665374756,-0.13680210709571838,0.3842443823814392,-0.9454838037490845
1090,-0.17324000597000122,1.0106480121612549,0.01561600062996149,1.6100000143051147,-3.7100000381469727,-3.2200000286102295,0.0,0.0,-17.0,0,False,16.279998779296875,1013.0099487304688,1.3480852842330933,0.95703125,0.146484375,0.078125,0.0,7.734375,0.41790771484375,-0.5814208984375,-0.62066650390625,0.41790771484375,-0.5814208984375,-0.62066650390625,0.41790771484375,-0.5814208984375,-0.62066650390625,0.14782464504241943,-1.596496820449829,-2.039254665374756,-0.13680210709571838,0.3842443823814392,-0.9454838037490845
1100,-0.17324000597000122,1.0106480121612549,0.01561600062996149,1.6100000143051147,-3.7100000381469727,-3.2200000286102295,0.0,0.0,-17.0,0,False,16.279998779296875,1013.0099487304688,1.3480852842330933,0.95703125,0.146484375,0.078125,0.0,7.734375,0.41790771484375,-0.5814208984375,-0.62066650390625,0.41790771484375,-0.5814208984375,-0.62066650390625,0.41790771484375,-0.5814208984375,-0.62066650390625,0.14782464504241943,-1.596496820449829,-2.039254665374756,-0.13680210709571838,0.3842443823814392,-0.9454838037490845
1110,-0.17324000597000122,1.0106480121612549,0.01561600062996149,1.6100000143051147,-3.7100000381469727,-3.2200000286102295,0.0,0.0,-17.0,0,False,16.279998779296875,1013.0099487304688,1.3480852842330933,0.95703125,0.146484375,0.078125,0.0,7.734375,0.41790771484375,-0.5814208984375,-0.62066650390625,0.41790771484375,-0.5814208984375,-0.62066650390625,0.41790771484375,-0.5814208984375,-0.62066650390625,0.14782464504241943,-1.596496820449829,-2.039254665374756,-0.13680210709571838,0.3842443823814392,-0.9454838037490845
1120,-0.17324000597000122,1.0106480121612549,0.01561600062996149,1.6100000143051147,-3.7100000381469727,-3.2200000286102295,0.0,0.0,-17.0,0,False,16.279998779296875,1013.0099487304688,1.3480852842330933,0.95703125,0.146484375,0.078125,0.0,7.734375,0.41790771484375,-0.5814208984375,-0.62066650390625,0.41790771484375,-0.5814208984375,-0.62066650390625,0.41790771484375,-0.5814208984375,-0.62066650390625,0.14782464504241943,-1.596496820449829,-2.039254665374756,-0.13680210709571838,0.3842443823814392,-0.9454838037490845
1130,-0.17324000597000122,1.0106480121612549,0.01561600062996149,1.6100000143051147,-3.7100000381469727,-3.2200000286102295,0.0,0.0,-17.0,0,False,16.279998779296875,1013.0099487304688,1.3480852842330933,0.95703125,0.146484375,0.078125,0.0,7.734375,0.41790771484375,-0.5814208984375,-0.62066650390625,0.41790771484375,-0.5814208984375,-0.62066650390625,0.41790771484375,-0.5814208984375,-0.62066650390625,0.14782464504241943,-1.596496820449829,-2.039254665374756,-0.13680210709571838,0.3842443823814392,-0.9454838037490845
1140,-0.17324000597000122,1.0106480121612549,0.01561600062996149,1.6100000143051147,-3.7100000381469727,-3.2200000286102295,0.0,0.0,-17.0,0,False,16.279998779296875,1013.0099487304688,1.3480852842330933,0.95703125,0.146484375,0.078125,0.0,7.734375,0.41790771484375,-0.5814208984375,-0.62066650390625,0.41790771484375,-0.5814208984375,-0.62066650390625,0.41790771484375,-0.5814208984375,-0.62066650390625,0.14782464504241943,-1.596496820449829,-2.039254665374756,-0.13680210709571838,0.3842443823814392,-0.9454838037490845
1150,-0.17324000597000122,1.0106480121612549,0.01561600062996149,1.6100000143051147,-3.7100000381469727,-3.2200000286102295,0.0,0.0,-17.0,0,False,16.279998779296875,1013.0099487304688,1.3480852842330933,0.95703125,0.146484375,0.078125,0.0,7.734375,0.41790771484375,-0.5814208984375,-0.62066650390625,0.41790771484375,-0.5814208984375,-0.62066650390625,0.41790771484375,-0.5814208984375,-0.62066650390625,0.14782464504241943,-1.596496820449829,-2.039254665374756,-0.13680210709571838,0.3842443823814392,-0.9454838037490845
