#version,serial,flight,time,state,state_name,acceleration,pressure,altitude,height,speed,temperature,drogue_voltage,main_voltage,battery_voltage,accel_x,accel_y,accel_z,gyro_roll,gyro_pitch,gyro_yaw,mag_x,mag_y,mag_z,tilt,pyro,igniter_a,igniter_b,igniter_c,igniter_d
6, 5581, 2,    -0.30, 3,   boost,   -0.98,  86356.00, 1328.00,    0.28,    0.00, 40.3, 4.18, 4.13, 4.15,   9.58,  -0.54,  -0.91,  -0.06,   0.18,   0.09,   0.44,   0.39,  -0.44,   6.30, 4.13, 0.00, 0.01, 0.00, 0.00
6, 5581, 2,    -0.29, 3,   boost,   -0.00,  86355.00, 1328.10,    0.38,    0.00, 40.3, 4.18, 4.13, 4.15,   9.82,  -0.65,  -0.72,  -0.25,   0.18,  -0.16,   0.45,   0.38,  -0.43,   6.30, 4.13, 0.00, 0.01, 0.00, 0.00
6, 5581, 2,    -0.28, 3,   boost,   -0.98,  86361.00, 1327.53,   -0.19,    0.00, 40.3, 4.18, 4.13, 4.15,   9.77,  -0.56,  -0.98,  -0.19,   0.36,   0.02,   0.44,   0.38,  -0.44,   6.30, 4.13, 0.00, 0.01, 0.00, 0.00
6, 5581, 2,    -0.27, 3,   boost,    0.49,  86360.00, 1327.62,   -0.09,    0.00, 40.3, 4.18, 4.13, 4.15,   9.66,  -0.62,  -1.16,   0.06,   0.18,   0.15,   0.44,   0.39,  -0.43,   6.30, 4.13, 0.00, 0.01, 0.00, 0.00
6, 5581, 2,    -0.26, 3,   boost,   -0.49,  86363.00, 1327.34,   -0.38,    0.00, 40.3, 4.18, 4.13, 4.15,   9.73,  -0.54,   2.81,  -0.06,   0.12,   0.21,   0.44,   0.39,  -0.43,   6.30, 4.13, 0.00, 0.01, 0.00, 0.00
6, 5581, 2,    -0.25, 3,   boost,   -0.49,  86357.00, 1327.91,    0.19,    0.00, 40.3, 4.18, 4.13, 4.15,   9.56,  -0.63,   2.85,   0.73,  -0.00,  -0.10,   0.44,   0.39,  -0.43,   6.30, 4.13, 0.00, 0.01, 0.00, 0.00
6, 5581, 2,    -0.24, 3,   boost,   -0.49,  86359.00, 1327.72,    0.00,    0.00, 40.3, 4.18, 4.13, 4.15,   9.63,  -0.34,   2.20,   0.91,   0.55,   0.51,   0.44,   0.38,  -0.44,   6.30, 4.13, 0.00, 0.01, 0.00, 0.00
6, 5581, 2,    -0.23, 3,   boost,   -0.49,  86363.00, 1327.34,   -0.38,    0.00, 40.3, 4.18, 4.13, 4.15,   9.92,  -0.65,  -1.05,   0.48,   0.18,  -0.04,   0.45,   0.39,  -0.43,   6.30, 4.13, 0.00, 0.01, 0.00, 0.00
6, 5581, 2,    -0.22, 3,   boost,   -0.49,  86360.00, 1327.62,   -0.09,    0.00, 40.3, 4.18, 4.13, 4.15,   9.51,  -0.45,  -1.09,   0.91,  -0.00,   0.15,   0.44,   0.39,  -0.44,   6.30, 4.13, 0.00, 0.01, 0.00, 0.00
6, 5581, 2,    -0.21, 3,   boost,   -0.00,  86358.00, 1327.81,    0.09,    0.00, 40.3, 4.18, 4.13, 4.15,  10.12,  -0.61,  -1.46,   1.58,   0.73,  -0.10,   0.44,   0.39,  -0.43,   6.30, 4.13, 0.00, 0.01, 0.00, 0.00
6, 5581, 2,    -0.20, 3,   boost,   -0.49,  86358.00, 1327.81,    0.09,    0.00, 40.3, 4.18, 4.13, 4.15,   9.80,  -0.64,  -1.49,   0.42,  -0.12,   0.21,   0.43,   0.40,  -0.45,   6.30, 4.13, 0.00, 0.01, 0.00, 0.00
6, 5581, 2,    -0.19, 3,   boost,   -0.00,  86362.00, 1327.43,   -0.28,    0.00, 40.3, 4.18, 4.13, 4.15,   9.56,  -0.72,  -1.05,   0.12,  -0.06,  -0.40,   0.45,   0.38,  -0.44,   6.30, 4.13, 0.00, 0.01, 0.00, 0.00
6, 5581, 2,    -0.18, 3,   boost,   -0.49,  86357.00, 1327.91,    0.19,    0.00, 40.3, 4.18, 4.13, 4.15,   9.80,   0.10,  -0.70,   0.06,  -0.55,   0.33,   0.44,   0.39,  -0.43,   6.30, 4.13, 0.00, 0.01, 0.00, 0.00
6, 5581, 2,    -0.17, 3,   boost,   -0.49,  86358.00, 1327.81,    0.09,    0.00, 40.3, 4.18, 4.13, 4.15,   9.58,  -0.55,  -1.35,  -0.49,  -0.18,   0.51,   0.44,   0.39,  -0.43,   6.30, 4.13, 0.00, 0.01, 0.00, 0.00
6, 5581, 2,    -0.16, 3,   boost,    0.49,  86378.00, 1325.92,   -1.80,    0.00, 40.3, 4.18, 4.13, 4.15,   8.10,  -0.68,  -1.70,   0.73,  -0.12,  -1.20,   0.46,   0.38,  -0.43,   6.30, 4.13, 0.00, 0.01, 0.00, 0.00
6, 5581, 2,    -0.15, 3,   boost,   -0.00,  86363.00, 1327.34,   -0.38,    0.00, 40.3, 4.18, 4.13, 4.15,  11.34,  -0.59,  -1.56,  -1.47,  -0.37,   1.18,   0.44,   0.38,  -0.44,   6.30, 4.13, 0.00, 0.01, 0.00, 0.00
6, 5581, 2,    -0.14, 3,   boost,   -0.00,  86366.00, 1327.05,   -0.66,    0.00, 40.3, 4.18, 4.13, 4.15,   9.64,  -0.47,  -1.95,  -0.68,  -0.31,  -0.04,   0.44,   0.38,  -0.43,   6.30, 4.13, 0.00, 0.01, 0.00, 0.00
6, 5581, 2,    -0.13, 3,   boost,    1.96,  86372.00, 1326.48,   -1.23,    0.00, 40.3, 4.18, 4.13, 4.15,   9.32,  -0.12,  -0.74,  -0.80,  -1.34,  -0.10,   0.44,   0.39,  -0.45,   6.30, 4.13, 0.00, 0.01, 0.00, 0.00
6, 5581, 2,    -0.12, 3,   boost,    0.49,  86359.00, 1327.72,    0.00,    0.00, 40.3, 4.18, 4.13, 4.15,  10.86,  -0.80,   3.03,  -1.29,  -0.00,  -0.22,   0.44,   0.37,  -0.44,   6.30, 4.13, 0.00, 0.01, 0.00, 0.00
6, 5581, 2,    -0.11, 3,   boost,   -1.96,  86359.00, 1327.72,    0.00,    0.01, 40.3, 4.18, 4.13, 4.15,   8.34,   0.63,   2.83,   0.85,  -0.55,   0.39,   0.45,   0.39,  -0.44,   6.30, 4.13, 0.00, 0.01, 0.00, 0.00
6, 5581, 2,    -0.10, 3,   boost,    1.47,  86365.00, 1327.15,   -0.57,    0.03, 40.3, 4.18, 4.13, 4.15,   7.08,  -0.75,   2.67,  -0.74,  -0.18,   0.09,   0.45,   0.38,  -0.43,   6.30, 4.13, 0.00, 0.01, 0.00, 0.00
6, 5581, 2,    -0.09, 3,   boost,    0.49,  86373.00, 1326.39,   -1.33,    0.13, 40.3, 4.18, 4.13, 4.15,  12.71,  -0.70,  -1.25,  -0.55,   0.43,  -0.40,   0.44,   0.39,  -0.44,   6.30, 4.13, 0.00, 0.01, 0.00, 0.00
6, 5581, 2,    -0.08, 3,   boost,    2.45,  86373.00, 1326.39,   -1.33,    0.33, 40.3, 4.18, 4.13, 4.15,  11.77,  -0.41,  -0.51,   0.18,  -0.61,   0.15,   0.44,   0.39,  -0.43,   6.30, 4.13, 0.00, 0.01, 0.00, 0.00
6, 5581, 2,    -0.07, 3,   boost,   52.47,  86386.00, 1325.16,   -2.56,    0.69, 40.3, 4.18, 4.13, 4.15,  13.30,  -0.62,  -0.98,   1.16,  -0.61,   0.76,   0.44,   0.39,  -0.44,   6.30, 4.13, 0.00, 0.01, 0.00, 0.00
6, 5581, 2,    -0.06, 3,   boost,   84.34,  86396.00, 1324.21,   -3.50,    1.23, 40.3, 4.18, 4.13, 4.15,  75.98,  -1.85,  -5.86,   2.99,  -2.81,  -0.83,   0.45,   0.38,  -0.43,   6.30, 4.13, 0.00, 0.01, 0.00, 0.00
6, 5581, 2,    -0.05, 3,   boost,   88.75,  86444.00, 1319.67,   -8.05,    1.92, 40.3, 4.18, 4.13, 4.15,  93.23,   3.59,  -6.76,   8.97, -11.17,   1.31,   0.45,   0.38,  -0.44,   6.30, 4.13, 0.00, 0.01, 0.00, 0.00
6, 5581, 2,    -0.04, 3,   boost,   81.89,  86348.00, 1328.76,    1.04,    2.75, 40.3, 4.18, 4.13, 4.15,  84.19,   0.25,  -1.90,   3.96,  -1.04,  -4.92,   0.45,   0.38,  -0.45,   6.30, 4.13, 0.00, 0.01, 0.00, 0.00
6, 5581, 2,    -0.03, 3,   boost,  100.52,  86321.00, 1331.32,    3.60,    3.67, 40.3, 4.18, 4.13, 4.15,  95.97,  -2.84,  -3.29,   2.93,  -9.65,  -6.08,   0.42,   0.39,  -0.44,   6.30, 4.13, 0.00, 0.01, 0.00, 0.00
6, 5581, 2,    -0.02, 3,   boost,  108.85,  86360.00, 1327.62,   -0.09,    4.66, 40.3, 4.18, 4.13, 4.15, 104.86,  -2.52,  -8.07,   3.35,   7.63,  -1.07,   0.45,   0.39,  -0.43,   6.30, 4.13, 0.00, 0.01, 0.00, 0.00
6, 5581, 2,    -0.01, 3,   boost,  106.40,  86352.00, 1328.38,    0.66,    5.69, 40.3, 4.18, 4.13, 4.15, 120.71,   0.81,  -1.57,  16.66,  -4.76,   5.03,   0.44,   0.37,  -0.43,   6.30, 4.13, 0.00, 0.01, 0.00, 0.00
6, 5581, 2,     0.00, 3,   boost,  111.80,  86332.00, 1330.27,    2.56,    6.74, 40.3, 4.18, 4.13, 4.15, 119.56,  -3.18,  10.34,  15.19,   6.22,  -5.16,   0.45,   0.37,  -0.44,   6.30, 4.13, 0.00, 0.01, 0.00, 0.00
6, 5581, 2,     0.00, 3,   boost,  111.80,  86332.00, 1330.27,    2.56,    6.74, 40.3, 4.18, 4.13, 4.15, 119.56,  -3.18,  10.34,  15.19,   6.22,  -5.16,   0.45,   0.37,  -0.44,   6.30, 4.13, 0.00, 0.01, 0.00, 0.00
6, 5581, 2,     0.00, 3,   boost,  111.80,  86332.00, 1330.27,    2.56,    6.74, 40.3, 4.18, 4.13, 4.15, 119.56,  -3.18,  10.34,  15.19,   6.22,  -5.16,   0.45,   0.37,  -0.44,   6.30, 4.13, 0.00, 0.01, 0.00, 0.00
6, 5581, 2,     0.00, 3,   boost,  111.80,  86332.00, 1330.27,    2.56,    6.74, 40.3, 4.18, 4.13, 4.15, 119.56,  -3.18,  10.34,  15.19,   6.22,  -5.16,   0.45,   0.37,  -0.44,   6.30, 4.13, 0.00, 0.01, 0.00, 0.00
6, 5581, 2,     0.00, 3,   boost,  111.80,  86332.00, 1330.27,    2.56,    6.74, 40.3, 4.18, 4.13, 4.15, 119.56,  -3.18,  10.34,  15.19,   6.22,  -5.16,   0.45,   0.37,  -0.44,   6.31, 4.13, 0.00, 0.01, 0.00, 0.00
6, 5581, 2,     0.00, 3,   boost,  111.80,  86332.00, 1330.27,    2.56,    6.74, 40.3, 4.18, 4.13, 4.15, 119.56,  -3.18,  10.34,  15.19,   6.22,  -5.16,   0.45,   0.37,  -0.44,   6.31, 4.13, 0.00, 0.01, 0.00, 0.00
6, 5581, 2,     0.00, 3,   boost,  111.80,  86332.00, 1330.27,    2.56,    6.74, 40.3, 4.18, 4.13, 4.15, 119.56,  -3.18,  10.34,  15.19,   6.22,  -5.16,   0.45,   0.37,  -0.44,   6.31, 4.13, 0.00, 0.01, 0.00, 0.00
6, 5581, 2,     0.00, 3,   boost,  111.80,  86332.00, 1330.27,    2.56,    6.74, 40.3, 4.18, 4.13, 4.15, 119.56,  -3.18,  10.34,  15.19,   6.22,  -5.16,   0.45,   0.37,  -0.44,   6.31, 4.13, 0.00, 0.01, 0.00, 0.00
6, 5581, 2,     0.00, 3,   boost,  111.80,  86332.00, 1330.27,    2.56,    6.74, 40.3, 4.18, 4.13, 4.15, 119.56,  -3.18,  10.34,  15.19,   6.22,  -5.16,   0.45,   0.37,  -0.44,   6.31, 4.13, 0.00, 0.01, 0.00, 0.00
6, 5581, 2,     0.00, 3,   boost,  111.80,  86332.00, 1330.27,    2.56,    6.74, 40.3, 4.18, 4.13, 4.15, 119.56,  -3.18,  10.34,  15.19,   6.22,  -5.16,   0.45,   0.37,  -0.44,   6.31, 4.13, 0.00, 0.01, 0.00, 0.00
6, 5581, 2,     0.00, 3,   boost,  111.80,  86332.00, 1330.27,    2.56,    6.74, 40.3, 4.18, 4.13, 4.15, 119.56,  -3.18,  10.34,  15.19,   6.22,  -5.16,   0.45,   0.37,  -0.44,   6.31, 4.13, 0.00, 0.01, 0.00, 0.00
6, 5581, 2,     0.00, 3,   boost,  111.80,  86332.00, 1330.27,    2.56,    6.74, 40.3, 4.18, 4.13, 4.15, 119.56,  -3.18,  10.34,  15.19,   6.22,  -5.16,   0.45,   0.37,  -0.44,   6.32, 4.13, 0.00, 0.01, 0.00, 0.00
6, 5581, 2,     0.00, 3,   boost,  111.80,  86332.00, 1330.27,    2.56,    6.74, 40.3, 4.18, 4.13, 4.15, 119.56,  -3.18,  10.34,  15.19,   6.22,  -5.16,   0.45,   0.37,  -0.44,   6.32, 4.13, 0.00, 0.01, 0.00, 0.00
6, 5581, 2,     0.00, 3,   boost,  111.80,  86332.00, 1330.27,    2.56,    6.74, 40.3, 4.18, 4.13, 4.15, 119.56,  -3.18,  10.34,  15.19,   6.22,  -5.16,   0.45,   0.37,  -0.44,   6.32, 4.13, 0.00, 0.01, 0.00, 0.00
6, 5581, 2,     0.00, 3,   boost,  111.80,  86332.00, 1330.27,    2.56,    6.74, 40.3, 4.18, 4.13, 4.15, 119.56,  -3.18,  10.34,  15.19,   6.22,  -5.16,   0.45,   0.37,  -0.44,   6.31, 4.13, 0.00, 0.01, 0.00, 0.00
6, 5581, 2,     0.00, 3,   boost,  111.80,  86332.00, 1330.27,    2.56,    6.74, 40.3, 4.18, 4.13, 4.15, 119.56,  -3.18,  10.34,  15.19,   6.22,  -5.16,   0.45,   0.37,  -0.44,   6.31, 4.13, 0.00, 0.01, 0.00, 0.00
6, 5581, 2,     0.00, 3,   boost,  111.80,  86332.00, 1330.27,    2.56,    6.74, 40.3, 4.18, 4.13, 4.15, 119.56,  -3.18,  10.34,  15.19,   6.22,  -5.16,   0.45,   0.37,  -0.44,   6.31, 4.13, 0.00, 0.01, 0.00, 0.00
6, 5581, 2,     0.00, 3,   boost,  111.80,  86332.00, 1330.27,    2.56,    6.74, 40.3, 4.18, 4.13, 4.15, 119.56,  -3.18,  10.34,  15.19,   6.22,  -5.16,   0.45,   0.37,  -0.44,   6.30, 4.13, 0.00, 0.01, 0.00, 0.00
6, 5581, 2,     0.00, 3,   boost,  111.80,  86332.00, 1330.27,    2.56,    6.74, 40.3, 4.18, 4.13, 4.15, 119.56,  -3.18,  10.34,  15.19,   6.22,  -5.16,   0.45,   0.37,  -0.44,   6.30, 4.13, 0.00, 0.01, 0.00, 0.00
6, 5581, 2,     0.00, 3,   boost,  111.80,  86332.00, 1330.27,    2.56,    6.74, 40.3, 4.18, 4.13, 4.15, 119.56,  -3.18,  10.34,  15.19,   6.22,  -5.16,   0.45,   0.37,  -0.44,   6.29, 4.13, 0.00, 0.01, 0.00, 0.00
6, 5581, 2,     0.00, 3,   boost,  111.80,  86332.00, 1330.27,    2.56,    6.74, 40.3, 4.18, 4.13, 4.15, 119.56,  -3.18,  10.34,  15.19,   6.22,  -5.16,   0.45,   0.37,  -0.44,   6.29, 4.13, 0.00, 0.01, 0.00, 0.00
6, 5581, 2,     0.00, 3,   boost,  111.80,  86332.00, 1330.27,    2.56,    6.74, 40.3, 4.18, 4.13, 4.15, 119.56,  -3.18,  10.34,  15.19,   6.22,  -5.16,   0.45,   0.37,  -0.44,   6.28, 4.13, 0.00, 0.01, 0.00, 0.00
6, 5581, 2,     0.00, 3,   boost,  111.80,  86332.00, 1330.27,    2.56,    6.74, 40.3, 4.18, 4.13, 4.15, 119.56,  -3.18,  10.34,  15.19,   6.22,  -5.16,   0.45,   0.37,  -0.44,   6.28, 4.13, 0.00, 0.01, 0.00, 0.00
6, 5581, 2,     0.00, 3,   boost,  111.80,  86332.00, 1330.27,    2.56,    6.74, 40.3, 4.18, 4.13, 4.15, 119.56,  -3.18,  10.34,  15.19,   6.22,  -5.16,   0.45,   0.37,  -0.44,   6.29, 4.13, 0.00, 0.01, 0.00, 0.00
6, 5581, 2,     0.00, 3,   boost,  111.80,  86332.00, 1330.27,    2.56,    6.74, 40.3, 4.18, 4.13, 4.15, 119.56,  -3.18,  10.34,  15.19,   6.22,  -5.16,   0.45,   0.37,  -0.44,   6.28, 4.13, 0.00, 0.01, 0.00, 0.00
6, 5581, 2,     0.00, 3,   boost,  111.80,  86332.00, 1330.27,    2.56,    6.74, 40.3, 4.18, 4.13, 4.15, 119.56,  -3.18,  10.34,  15.19,   6.22,  -5.16,   0.45,   0.37,  -0.44,   6.27, 4.13, 0.00, 0.01, 0.00, 0.00
6, 5581, 2,     0.00, 3,   boost,  111.80,  86332.00, 1330.27,    2.56,    6.74, 40.3, 4.18, 4.13, 4.15, 119.56,  -3.18,  10.34,  15.19,   6.22,  -5.16,   0.45,   0.37,  -0.44,   6.25, 4.13, 0.00, 0.01, 0.00, 0.00
6, 5581, 2,     0.00, 3,   boost,  111.80,  86332.00, 1330.27,    2.56,    6.74, 40.3, 4.18, 4.13, 4.15, 119.56,  -3.18,  10.34,  15.19,   6.22,  -5.16,   0.45,   0.37,  -0.44,   6.15, 4.13, 0.00, 0.01, 0.00, 0.00
6, 5581, 2,     0.00, 3,   boost,  111.80,  86332.00, 1330.27,    2.56,    6.74, 40.3, 4.18, 4.13, 4.15, 119.56,  -3.18,  10.34,  15.19,   6.22,  -5.16,   0.45,   0.37,  -0.44,   6.16, 4.13, 0.00, 0.01, 0.00, 0.00
6, 5581, 2,     0.00, 3,   boost,  111.80,  86332.00, 1330.27,    2.56,    6.74, 40.3, 4.18, 4.13, 4.15, 119.56,  -3.18,  10.34,  15.19,   6.22,  -5.16,   0.45,   0.37,  -0.44,   6.11, 4.13, 0.00, 0.01, 0.00, 0.00
6, 5581, 2,     0.00, 3,   boost,  111.80,  86332.00, 1330.27,    2.56,    6.74, 40.3, 4.18, 4.13, 4.15, 119.56,  -3.18,  10.34,  15.19,   6.22,  -5.16,   0.45,   0.37,  -0.44,   6.18, 4.13, 0.00, 0.01, 0.00, 0.00
6, 5581, 2,     0.00, 3,   boost,  111.80,  86332.00, 1330.27,    2.56,    6.74, 40.3, 4.18, 4.13, 4.15, 119.56,  -3.18,  10.34,  15.19,   6.22,  -5.16,   0.45,   0.37,  -0.44,   6.11, 4.13, 0.00, 0.01, 0.00, 0.00
6, 5581, 2,     0.00, 3,   boost,  111.80,  86332.00, 1330.27,    2.56,    6.74, 40.3, 4.18, 4.13, 4.15, 119.56,  -3.18,  10.34,  15.19,   6.22,  -5.16,   0.45,   0.37,  -0.44,   6.19, 4.13, 0.00, 0.01, 0.00, 0.00
6, 5581, 2,     0.01, 3,   boost,  108.36,  86326.00, 1330.84,    3.13,    7.81, 40.3, 4.18, 4.13, 4.15, 122.81,  -8.07,  -2.10,  12.63,  15.14,  -4.55,   0.44,   0.39,  -0.45,   6.35, 4.13, 0.00, 0.01, 0.00, 0.00
6, 5581, 2,     0.01, 3,   boost,  108.36,  86326.00, 1330.84,    3.13,    7.81, 40.3, 4.18, 4.13, 4.15, 122.81,  -8.07,  -2.10,  12.63,  15.14,  -4.55,   0.44,   0.39,  -0.45,   6.35, 4.13, 0.00, 0.01, 0.00, 0.00
6, 5581, 2,     0.02, 3,   boost,  103.95,  86324.00, 1331.03,    3.32,    8.87, 40.3, 4.18, 4.14, 4.15, 111.91,  -0.16,  -5.39,  24.41,  10.86,   0.33,   0.44,   0.38,  -0.43,   6.44, 4.14, 0.00, 0.00, 0.00, 0.00
6, 5581, 2,     0.02, 3,   boost,  103.95,  86324.00, 1331.03,    3.32,    8.87, 40.3, 4.18, 4.14, 4.15, 111.91,  -0.16,  -5.39,  24.41,  10.86,   0.33,   0.44,   0.38,  -0.43,   6.44, 4.14, 0.00, 0.00, 0.00, 0.00
6, 5581, 2,     0.03, 3,   boost,  106.89,  86331.00, 1330.37,    2.65,    9.93, 40.3, 4.18, 4.14, 4.15, 114.84,  -0.75,  -6.50,  23.01,   2.01,  -0.10,   0.44,   0.39,  -0.44,   6.46, 4.14, 0.00, 0.00, 0.00, 0.00
6, 5581, 2,     0.04, 3,   boost,  104.93,  86316.00, 1331.79,    4.07,   10.97, 40.3, 4.18, 4.14, 4.15, 115.50,   2.37,   7.00,   0.30, -23.32,  -0.10,   0.45,   0.38,  -0.45,   6.25, 4.14, 0.00, 0.00, 0.00, 0.00
6, 5581, 2,     0.05, 3,   boost,  104.44,  86317.00, 1331.70,    3.98,   12.00, 40.3, 4.18, 4.14, 4.15, 112.58,   0.65,   7.54,  25.14,   6.53,  -9.56,   0.44,   0.39,  -0.45,   6.36, 4.14, 0.00, 0.00, 0.00, 0.00
6, 5581, 2,     0.06, 3,   boost,  105.42,  86324.00, 1331.03,    3.32,   13.03, 40.3, 4.18, 4.14, 4.15, 110.51,  -1.80,  -4.56,  -0.55,   7.81,  -0.46,   0.45,   0.38,  -0.44,   6.43, 4.14, 0.00, 0.00, 0.00, 0.00
6, 5581, 2,     0.07, 3,   boost,   86.79,  86323.00, 1331.13,    3.41,   14.06, 40.3, 4.18, 4.14, 4.15, 116.69,  -0.90,   5.64,   5.18,  -8.24,  -8.64,   0.44,   0.39,  -0.43,   6.40, 4.14, 0.00, 0.00, 0.00, 0.00
6, 5581, 2,     0.08, 3,   boost,  116.70,  86337.00, 1329.80,    2.08,   15.10, 40.3, 4.18, 4.14, 4.15, 156.92,  -6.72,  -1.24,  -2.32,  20.32,  -3.33,   0.45,   0.38,  -0.44,   6.59, 4.14, 0.00, 0.00, 0.00, 0.00
6, 5581, 2,     0.09, 3,   boost,  107.87,  86314.00, 1331.98,    4.26,   16.16, 40.3, 4.18, 4.14, 4.15, 116.62,  -3.17,  -8.13,  -8.92,   4.09,   3.75,   0.43,   0.40,  -0.44,   6.61, 4.14, 0.00, 0.00, 0.00, 0.00
6, 5581, 2,     0.10, 3,   boost,  108.85,  86326.00, 1330.84,    3.13,   17.22, 40.3, 4.18, 4.14, 4.15, 123.33,  -6.97,   5.44, -20.39,   4.88,  -5.71,   0.43,   0.39,  -0.45,   6.68, 4.14, 0.00, 0.00, 0.00, 0.00
6, 5581, 2,     0.11, 3,   boost,  107.87,  86320.00, 1331.41,    3.70,   18.29, 40.3, 4.18, 4.14, 4.15, 120.50,  -3.10,  -9.32,  -5.19,  10.01,  -2.84,   0.45,   0.38,  -0.45,   6.78, 4.14, 0.00, 0.00, 0.00, 0.00
6, 5581, 2,     0.12, 3,   boost,  106.89,  86311.00, 1332.27,    4.55,   19.35, 40.3, 4.18, 4.14, 4.15, 115.01,  -2.89,   0.88, -36.56,  -0.55,   9.18,   0.44,   0.39,  -0.43,   6.73, 4.14, 0.00, 0.00, 0.00, 0.00
6, 5581, 2,     0.13, 3,   boost,  106.89,  86326.00, 1330.84,    3.13,   20.41, 40.3, 4.18, 4.14, 4.15, 117.32,   2.99,  -2.17,  -9.10,  10.68,  -3.33,   0.44,   0.38,  -0.44,   6.84, 4.14, 0.00, 0.00, 0.00, 0.00
6, 5581, 2,     0.14, 3,   boost,  103.95,  86317.00, 1331.70,    3.98,   21.46, 40.3, 4.18, 4.14, 4.15, 112.48,   0.85,  -5.03, -24.05,   9.34,  -3.64,   0.44,   0.39,  -0.44,   6.94, 4.14, 0.00, 0.00, 0.00, 0.00
6, 5581, 2,     0.15, 3,   boost,  104.44,  86313.00, 1332.08,    4.36,   22.52, 40.3, 4.18, 4.14, 4.15, 119.59,   2.14,  -3.08, -27.23,   0.85,   4.97,   0.44,   0.38,  -0.45,   6.92, 4.14, 0.00, 0.00, 0.00, 0.00
6, 5581, 2,     0.16, 3,   boost,  107.38,  86309.00, 1332.45,    4.74,   23.57, 40.3, 4.18, 4.14, 4.15, 112.91,  -0.01,  -7.51, -25.15,   3.78,  -9.31,   0.45,   0.39,  -0.43,   7.00, 4.14, 0.00, 0.00, 0.00, 0.00
6, 5581, 2,     0.17, 3,   boost,  109.34,  86310.00, 1332.36,    4.64,   24.64, 40.3, 4.18, 4.14, 4.15, 118.69,  -1.98,   0.91, -12.70,  -8.79,  -3.33,   0.45,   0.39,  -0.43,   6.94, 4.14, 0.00, 0.00, 0.00, 0.00
6, 5581, 2,     0.18, 3,   boost,  106.89,  86316.00, 1331.79,    4.07,   25.70, 40.3, 4.18, 4.14, 4.15, 116.64,   2.53,   2.06,  -8.24,  -1.77,   4.30,   0.44,   0.40,  -0.44,   6.90, 4.14, 0.00, 0.00, 0.00, 0.00
6, 5581, 2,     0.19, 3,   boost,  107.87,  86285.00, 1334.73,    7.01,   26.76, 40.3, 4.18, 4.14, 4.15, 117.40,   2.99,   2.71,  -4.89,  -4.09,  -2.78,   0.45,   0.38,  -0.45,   6.88, 4.14, 0.00, 0.00, 0.00, 0.00
6, 5581, 2,     0.20, 3,   boost,  106.40,  86327.00, 1330.75,    3.03,   27.83, 40.3, 4.18, 4.14, 4.15, 115.00,   0.78,   5.14,  -8.85,   6.10,  -7.48,   0.45,   0.39,  -0.44,   6.97, 4.14, 0.00, 0.00, 0.00, 0.00
6, 5581, 2,     0.21, 3,   boost,  106.89,  86307.00, 1332.64,    4.93,   28.89, 40.3, 4.18, 4.14, 4.15, 115.43,  -1.35,  -6.65, -26.19,  12.76,  -4.55,   0.44,   0.39,  -0.44,   7.11, 4.14, 0.00, 0.00, 0.00, 0.00
6, 5581, 2,     0.22, 3,   boost,  107.38,  86308.00, 1332.55,    4.83,   29.95, 40.3, 4.18, 4.14, 4.15, 114.05,  -2.90,  -1.31, -19.72,  -0.86, -12.43,   0.44,   0.39,  -0.42,   7.16, 4.14, 0.00, 0.00, 0.00, 0.00
6, 5581, 2,     0.23, 3,   boost,  106.40,  86313.00, 1332.08,    4.36,   31.01, 40.3, 4.18, 4.14, 4.15, 114.75,  -6.75,   0.49, -25.21,  -0.25,  -1.44,   0.44,   0.38,  -0.44,   7.17, 4.14, 0.00, 0.00, 0.00, 0.00
6, 5581, 2,     0.24, 3,   boost,  104.93,  86321.00, 1331.32,    3.60,   32.06, 40.3, 4.18, 4.14, 4.15, 114.10,  -3.73,  -7.85, -48.96,   7.38,  -2.72,   0.44,   0.39,  -0.44,   7.25, 4.14, 0.00, 0.00, 0.00, 0.00
6, 5581, 2,     0.25, 3,   boost,  109.83,  86329.00, 1330.56,    2.84,   33.12, 40.3, 4.18, 4.14, 4.15, 112.11,   2.48,  -0.03, -18.99,   5.00,  -1.56,   0.44,   0.39,  -0.44,   7.30, 4.14, 0.00, 0.00, 0.00, 0.00
6, 5581, 2,     0.26, 3,   boost,  103.95,  86329.00, 1330.56,    2.84,   34.19, 40.3, 4.18, 4.14, 4.15, 122.06,   0.46,   7.04, -36.69, -10.07,  -8.09,   0.44,   0.39,  -0.44,   7.26, 4.14, 0.00, 0.00, 0.00, 0.00
6, 5581, 2,     0.27, 3,   boost,  108.36,  86322.00, 1331.22,    3.51,   35.25, 40.3, 4.18, 4.14, 4.15, 112.29,  -0.19,  -4.89, -22.83,  16.91,   1.55,   0.44,   0.37,  -0.42,   7.39, 4.14, 0.00, 0.00, 0.00, 0.00
6, 5581, 2,     0.28, 3,   boost,  109.34,  86290.00, 1334.26,    6.54,   36.32, 40.3, 4.18, 4.14, 4.15, 119.38,   4.41,   0.19, -31.19,  -9.22,   3.87,   0.45,   0.37,  -0.42,   7.29, 4.14, 0.00, 0.00, 0.00, 0.00
6, 5581, 2,     0.29, 3,   boost,  107.87,  86282.00, 1335.01,    7.30,   37.39, 40.3, 4.18, 4.14, 4.15, 116.12,  -5.32,  -1.57, -33.02,   6.29,  -9.80,   0.43,   0.38,  -0.43,   7.40, 4.14, 0.00, 0.00, 0.00, 0.00
6, 5581, 2,     0.30, 3,   boost,  108.85,  86284.00, 1334.82,    7.11,   38.46, 40.3, 4.18, 4.14, 4.15, 116.57,   5.30,  -0.23, -33.45, -10.07,   1.49,   0.45,   0.38,  -0.43,   7.31, 4.14, 0.00, 0.00, 0.00, 0.00
6, 5581, 2,     0.31, 3,   boost,  106.89,  86294.00, 1333.88,    6.16,   39.53, 40.3, 4.18, 4.14, 4.15, 117.48,  -4.36,   2.83, -40.78,   3.36,  -6.93,   0.45,   0.38,  -0.42,   7.37, 4.14, 0.00, 0.00, 0.00, 0.00
6, 5581, 2,     0.32, 3,   boost,  108.36,  86294.00, 1333.88,    6.16,   40.59, 40.3, 4.18, 4.14, 4.15, 115.76,  -0.50,  -1.64, -31.13,   2.32,   2.16,   0.45,   0.36,  -0.43,   7.38, 4.14, 0.00, 0.00, 0.00, 0.00
6, 5581, 2,     0.33, 3,   boost,  105.91,  86309.00, 1332.45,    4.74,   41.66, 40.3, 4.18, 4.14, 4.15, 117.48,   0.08,   1.69, -40.65,  -1.89,  -4.13,   0.45,   0.37,  -0.43,   7.39, 4.14, 0.00, 0.00, 0.00, 0.00
6, 5581, 2,     0.34, 3,   boost,  107.87,  86305.00, 1332.83,    5.12,   42.72, 40.3, 4.18, 4.14, 4.15, 115.53,  -1.38,  -3.37, -34.00,   5.43,  -0.71,   0.44,   0.38,  -0.43,   7.44, 4.15, 0.00, 0.00, 0.00, 0.00
6, 5581, 2,     0.34, 3,   boost,  107.87,  86305.00, 1332.83,    5.12,   42.72, 40.3, 4.18, 4.14, 4.15, 115.53,  -1.38,  -3.37, -34.00,   5.43,  -0.71,   0.44,   0.38,  -0.43,   7.44, 4.15, 0.00, 0.00, 0.00, 0.00
6, 5581, 2,     0.35, 3,   boost,  106.89,  86290.00, 1334.26,    6.54,   43.79, 40.3, 4.18, 4.14, 4.15, 117.11,  -0.73,  -0.82, -37.66,   0.36,  -1.07,   0.44,   0.39,  -0.42,   7.45, 4.15, 0.00, 0.00, 0.00, 0.00
6, 5581, 2,     0.36, 3,   boost,  107.87,  86274.00, 1335.77,    8.06,   44.85, 40.3, 4.18, 4.14, 4.15, 117.54,  -0.71,  -1.28, -35.59,   1.52,  -0.77,   0.44,   0.39,  -0.42,   7.46, 4.15, 0.00, 0.00, 0.00, 0.00
6, 5581, 2,     0.37, 3,   boost,  107.87,  86286.00, 1334.63,    6.92,   45.92, 40.3, 4.18, 4.14, 4.15, 116.47,   0.41,   0.20, -37.48,  -5.19,  -3.88,   0.44,   0.39,  -0.41,   7.45, 4.15, 0.00, 0.00, 0.00, 0.00
6, 5581, 2,     0.38, 3,   boost,  107.38,  86284.00, 1334.82,    7.11,   46.98, 40.3, 4.18, 4.14, 4.15, 118.69,  -2.63,   0.39, -38.40,  -2.02,  -1.62,   0.44,   0.39,  -0.41,   7.44, 4.15, 0.00, 0.00, 0.00, 0.00
6, 5581, 2,     0.39, 3,   boost,  108.36,  86282.00, 1335.01,    7.30,   48.05, 40.3, 4.18, 4.14, 4.15, 115.75,  -0.08,   0.13, -37.24,  -0.55,   1.18,   0.45,   0.38,  -0.42,   7.43, 4.15, 0.00, 0.00, 0.00, 0.00
6, 5581, 2,     0.40, 3,   boost,  107.38,  86276.00, 1335.58,    7.87,   49.12, 40.3, 4.18, 4.14, 4.15, 117.74,  -1.36,   0.54, -35.95,  -2.93,  -2.54,   0.45,   0.40,  -0.41,   7.42, 4.15, 0.00, 0.00, 0.00, 0.00
6, 5581, 2,     0.41, 3,   boost,  107.87,  86260.00, 1337.10,    9.38,   50.19, 40.3, 4.18, 4.14, 4.15, 116.79,  -0.45,  -1.07, -35.95,  -1.59,   1.06,   0.45,   0.38,  -0.41,   7.40, 4.15, 0.00, 0.00, 0.00, 0.00
6, 5581, 2,     0.42, 3,   boost,  108.36,  86264.00, 1336.72,    9.00,   51.26, 40.3, 4.18, 4.14, 4.15, 118.14,   0.17,  -0.82, -34.31,  -0.92,   0.57,   0.45,   0.38,  -0.41,   7.39, 4.15, 0.00, 0.00, 0.00, 0.00
6, 5581, 2,     0.43, 3,   boost,  108.85,  86250.00, 1338.05,   10.33,   52.34, 40.3, 4.18, 4.14, 4.15, 115.29,  -0.10,  -2.42, -34.25,  -1.04,  -1.56,   0.45,   0.38,  -0.41,   7.39, 4.15, 0.00, 0.00, 0.00, 0.00
6, 5581, 2,     0.44, 3,   boost,  108.85,  86262.00, 1336.91,    9.19,   53.42, 40.3, 4.18, 4.14, 4.15, 115.51,  -1.11,  -1.39, -34.25,  -6.84,  -1.93,   0.45,   0.38,  -0.41,   7.36, 4.15, 0.00, 0.00, 0.00, 0.00
6, 5581, 2,     0.45, 3,   boost,  108.85,  86266.00, 1336.53,    8.81,   54.49, 40.3, 4.18, 4.14, 4.15, 117.15,  -0.11,  -0.20, -33.02,  -4.03,   1.12,   0.44,   0.37,  -0.42,   7.32, 4.15, 0.00, 0.00, 0.00, 0.00
6, 5581, 2,     0.46, 3,   boost,  109.34,  86274.00, 1335.77,    8.06,   55.57, 40.3, 4.18, 4.14, 4.15, 116.97,  -1.99,   0.62, -32.84,  -3.66,  -0.95,   0.45,   0.38,  -0.40,   7.30, 4.15, 0.00, 0.00, 0.00, 0.00
6, 5581, 2,     0.47, 3,   boost,  107.87,  86260.00, 1337.10,    9.38,   56.64, 40.3, 4.18, 4.14, 4.15, 117.48,  -0.59,   0.15, -31.74,  -2.50,   1.49,   0.45,   0.38,  -0.40,   7.27, 4.15, 0.00, 0.00, 0.00, 0.00
6, 5581, 2,     0.48, 3,   boost,  107.38,  86268.00, 1336.34,    8.63,   57.71, 40.3, 4.18, 4.14, 4.15, 116.48,   0.17,  -1.11, -32.11,  -1.71,   0.57,   0.46,   0.38,  -0.41,   7.25, 4.15, 0.00, 0.00, 0.00, 0.00
6, 5581, 2,     0.49, 3,   boost,  107.38,  86281.00, 1335.11,    7.39,   58.78, 40.3, 4.18, 4.14, 4.15, 117.07,  -0.89,  -1.65, -34.67,  -4.21,   0.15,   0.45,   0.36,  -0.40,   7.22, 4.15, 0.00, 0.00, 0.00, 0.00
6, 5581, 2,     0.50, 3,   boost,  107.38,  86268.00, 1336.34,    8.63,   59.85, 40.3, 4.18, 4.14, 4.15, 116.79,  -0.20,  -1.60, -35.28,  -5.80,   0.88,   0.46,   0.39,  -0.41,   7.17, 4.15, 0.00, 0.00, 0.00, 0.00
6, 5581, 2,     0.51, 3,   boost,  108.85,  86250.00, 1338.05,   10.33,   60.92, 40.3, 4.18, 4.14, 4.15, 118.37,  -0.98,  -0.57, -34.18,  -6.29,  -0.40,   0.46,   0.38,  -0.42,   7.13, 4.15, 0.00, 0.00, 0.00, 0.00
6, 5581, 2,     0.52, 3,   boost,  108.36,  86254.00, 1337.67,    9.95,   62.00, 40.3, 4.18, 4.14, 4.15, 116.90,  -0.08,   0.39, -33.09,  -7.57,   1.37,   0.45,   0.38,  -0.40,   7.07, 4.15, 0.00, 0.00, 0.00, 0.00
6, 5581, 2,     0.53, 3,   boost,  109.34,  86214.00, 1341.46,   13.75,   63.07, 40.3, 4.18, 4.14, 4.15, 117.34,  -0.79,  -0.10, -32.96,  -6.90,   0.02,   0.46,   0.38,  -0.41,   7.02, 4.15, 0.00, 0.00, 0.00, 0.00
6, 5581, 2,     0.54, 3,   boost,  107.38,  86252.00, 1337.86,   10.14,   64.15, 40.3, 4.18, 4.14, 4.15, 115.98,  -0.79,  -0.04, -33.09,  -2.69,   1.00,   0.45,   0.37,  -0.40,   7.00, 4.15, 0.00, 0.00, 0.00, 0.00
6, 5581, 2,     0.55, 3,   boost,  108.36,  86248.00, 1338.24,   10.52,   65.22, 40.3, 4.18, 4.14, 4.15, 118.97,  -0.46,  -0.53, -32.66,  -3.30,   2.40,   0.45,   0.38,  -0.39,   6.96, 4.15, 0.00, 0.00, 0.00, 0.00
6, 5581, 2,     0.56, 3,   boost,  109.83,  86240.00, 1339.00,   11.28,   66.30, 40.3, 4.18, 4.14, 4.15, 117.44,  -0.29,  -1.54, -31.74,  -6.47,   1.92,   0.46,   0.38,  -0.40,   6.90, 4.15, 0.00, 0.00, 0.00, 0.00
6, 5581, 2,     0.57, 3,   boost,  106.89,  86231.00, 1339.85,   12.13,   67.37, 40.3, 4.18, 4.14, 4.15, 117.28,  -0.38,  -0.35, -29.36,  -4.34,   1.55,   0.45,   0.38,  -0.41,   6.86, 4.15, 0.00, 0.00, 0.00, 0.00
6, 5581, 2,     0.58, 3,   boost,  107.38,  86234.00, 1339.57,   11.85,   68.44, 40.3, 4.18, 4.14, 4.15, 115.63,  -0.06,  -0.68, -28.39,  -5.13,   2.28,   0.45,   0.38,  -0.40,   6.81, 4.15, 0.00, 0.00, 0.00, 0.00
6, 5581, 2,     0.59, 3,   boost,  107.38,  86225.00, 1340.42,   12.70,   69.51, 40.3, 4.18, 4.14, 4.15, 115.86,  -0.65,   0.79, -25.40,  -6.41,   0.45,   0.45,   0.38,  -0.40,   6.76, 4.15, 0.00, 0.00, 0.00, 0.00
6, 5581, 2,     0.60, 3,   boost,  109.34,  86227.00, 1340.23,   12.51,   70.59, 40.3, 4.18, 4.14, 4.15, 115.61,  -0.80,  -0.37, -22.40,  -4.09,   1.43,   0.45,   0.38,  -0.40,   6.73, 4.15, 0.00, 0.00, 0.00, 0.00
6, 5581, 2,     0.61, 3,   boost,  108.36,  86220.00, 1340.89,   13.18,   71.66, 40.3, 4.18, 4.14, 4.15, 116.54,  -0.73,  -0.35, -22.71,  -4.40,   2.40,   0.46,   0.38,  -0.39,   6.68, 4.15, 0.00, 0.00, 0.00, 0.00
6, 5581, 2,     0.62, 3,   boost,  108.85,  86227.00, 1340.23,   12.51,   72.74, 40.3, 4.18, 4.14, 4.15, 116.54,  -0.96,  -1.09, -21.67,  -4.21,   2.77,   0.46,   0.38,  -0.38,   6.63, 4.15, 0.00, 0.00, 0.00, 0.00
6, 5581, 2,     0.63, 3,   boost,  108.85,  86225.00, 1340.42,   12.70,   73.82, 40.3, 4.18, 4.14, 4.15, 118.76,  -0.47,   0.07, -19.29,  -5.19,   3.26,   0.46,   0.38,  -0.40,   6.57, 4.15, 0.00, 0.00, 0.00, 0.00
6, 5581, 2,     0.64, 3,   boost,  108.85,  86196.00, 1343.17,   15.45,   74.90, 40.3, 4.18, 4.14, 4.15, 115.98,  -0.31,  -0.61, -17.70,  -4.15,   3.93,   0.47,   0.38,  -0.38,   6.52, 4.15, 0.00, 0.00, 0.00, 0.00
6, 5581, 2,     0.65, 3,   boost,  108.36,  86210.00, 1341.84,   14.13,   75.98, 40.3, 4.18, 4.14, 4.15, 117.94,   0.29,  -1.15, -18.19,  -6.04,   4.11,   0.46,   0.37,  -0.39,   6.45, 4.15, 0.00, 0.00, 0.00, 0.00
6, 5581, 2,     0.66, 3,   boost,  108.85,  86198.00, 1342.98,   15.27,   77.06, 40.3, 4.18, 4.14, 4.15, 119.22,  -0.57,   0.59, -17.16,  -5.62,   2.28,   0.45,   0.37,  -0.39,   6.39, 4.18, 0.00, 0.00, 0.00, 0.00
6, 5581, 2,     0.66, 3,   boost,  108.85,  86198.00, 1342.98,   15.27,   77.06, 40.3, 4.18, 4.14, 4.15, 119.22,  -0.57,   0.59, -17.16,  -5.62,   2.28,   0.45,   0.37,  -0.39,   6.39, 4.18, 0.00, 0.00, 0.00, 0.00
6, 5581, 2,     0.67, 3,   boost,  109.83,  86192.00, 1343.55,   15.83,   78.14, 40.3, 4.18, 4.14, 4.15, 116.26,   0.47,   0.83, -13.00,  -5.80,   2.83,   0.47,   0.37,  -0.38,   6.34, 4.18, 0.00, 0.00, 0.00, 0.00
6, 5581, 2,     0.68, 3,   boost,  107.87,  86207.00, 1342.13,   14.41,   79.22, 40.3, 4.18, 4.14, 4.15, 117.93,  -1.66,  -0.97, -11.91,  -3.79,   1.98,   0.47,   0.39,  -0.39,   6.30, 4.18, 0.00, 0.00, 0.00, 0.00
6, 5581, 2,     0.69, 3,   boost,  109.34,  86211.00, 1341.75,   14.03,   80.31, 40.3, 4.18, 4.14, 4.15, 117.45,  -0.85,  -0.48, -11.17,  -3.11,   3.26,   0.47,   0.39,  -0.39,   6.25, 4.18, 0.00, 0.00, 0.00, 0.00
6, 5581, 2,     0.70, 3,   boost,  109.34,  86181.00, 1344.59,   16.88,   81.39, 40.3, 4.18, 4.14, 4.15, 117.50,  -0.79,  -0.76, -12.33,  -3.11,   4.42,   0.48,   0.39,  -0.39,   6.20, 4.18, 0.00, 0.00, 0.00, 0.00
6, 5581, 2,     0.71, 3,   boost,  107.87,  86200.00, 1342.79,   15.08,   82.47, 40.3, 4.18, 4.14, 4.15, 117.61,  -0.51,  -0.41,  -9.22,  -5.62,   4.85,   0.46,   0.37,  -0.39,   6.13, 4.18, 0.00, 0.00, 0.00, 0.00
6, 5581, 2,     0.72, 3,   boost,  109.34,  86187.00, 1344.03,   16.31,   83.55, 40.3, 4.18, 4.14, 4.15, 117.25,   0.36,  -0.71,  -6.47,  -5.43,   5.33,   0.45,   0.38,  -0.38,   6.05, 4.18, 0.00, 0.00, 0.00, 0.00
6, 5581, 2,     0.73, 3,   boost,  108.85,  86205.00, 1342.32,   14.60,   84.63, 40.3, 4.18, 4.14, 4.15, 118.52,   0.23,   0.20,  -2.87,  -5.92,   4.11,   0.46,   0.38,  -0.39,   5.98, 4.18, 0.00, 0.00, 0.00, 0.00
6, 5581, 2,     0.74, 3,   boost,  109.34,  86188.00, 1343.93,   16.21,   85.71, 40.3, 4.18, 4.14, 4.15, 117.84,  -0.11,   1.08,   4.51,  -4.58,   1.67,   0.47,   0.37,  -0.38,   5.94, 4.18, 0.00, 0.00, 0.00, 0.00
6, 5581, 2,     0.75, 3,   boost,  107.38,  86200.00, 1342.79,   15.08,   86.80, 40.3, 4.18, 4.14, 4.15, 118.08,  -1.77,   0.72,   5.12,  -3.66,   1.55,   0.47,   0.38,  -0.39,   5.91, 4.18, 0.00, 0.00, 0.00, 0.00
6, 5581, 2,     0.76, 3,   boost,  109.34,  86185.00, 1344.22,   16.50,   87.88, 40.3, 4.18, 4.14, 4.15, 117.33,  -1.37,  -1.60,   8.42,  -3.48,   5.76,   0.46,   0.40,  -0.39,   5.84, 4.18, 0.00, 0.00, 0.00, 0.00
6, 5581, 2,     0.77, 3,   boost,  108.36,  86203.00, 1342.51,   14.79,   88.96, 40.3, 4.18, 4.14, 4.15, 118.46,  -0.98,  -0.49,   7.56,  -2.81,   5.88,   0.46,   0.37,  -0.37,   5.78, 4.18, 0.00, 0.00, 0.00, 0.00
6, 5581, 2,     0.78, 3,   boost,  109.34,  86197.00, 1343.08,   15.36,   90.05, 40.3, 4.18, 4.14, 4.15, 117.86,   0.29,  -0.70,   9.88,  -2.99,   8.08,   0.48,   0.38,  -0.39,   5.70, 4.18, 0.00, 0.00, 0.00, 0.00
6, 5581, 2,     0.79, 3,   boost,  109.83,  86172.00, 1345.45,   17.73,   91.14, 40.3, 4.18, 4.14, 4.15, 118.99,   0.47,  -0.72,  10.31,  -5.43,   5.52,   0.47,   0.38,  -0.37,   5.62, 4.18, 0.00, 0.00, 0.00, 0.00
6, 5581, 2,     0.80, 3,   boost,  109.83,  86155.00, 1347.06,   19.35,   92.23, 40.3, 4.18, 4.14, 4.15, 116.19,   0.65,  -1.01,   9.95,  -6.11,   5.09,   0.47,   0.38,  -0.37,   5.54, 4.18, 0.00, 0.00, 0.00, 0.00
6, 5581, 2,     0.81, 3,   boost,  111.80,  86149.00, 1347.63,   19.92,   93.32, 40.3, 4.18, 4.14, 4.15, 118.01,   0.11,   0.81,  12.14,  -6.29,   3.69,   0.46,   0.38,  -0.39,   5.48, 4.18, 0.00, 0.00, 0.00, 0.00
6, 5581, 2,     0.82, 3,   boost,  108.36,  86149.00, 1347.63,   19.92,   94.41, 40.3, 4.18, 4.14, 4.15, 116.11,  -1.19,   0.32,  13.36,  -5.25,   4.11,   0.48,   0.39,  -0.38,   5.41, 4.18, 0.00, 0.00, 0.00, 0.00
6, 5581, 2,     0.83, 3,   boost,  109.34,  86161.00, 1346.49,   18.78,   95.50, 40.3, 4.18, 4.14, 4.15, 118.93,  -1.70,  -1.37,  13.24,  -2.69,   5.03,   0.47,   0.37,  -0.38,   5.35, 4.18, 0.00, 0.00, 0.00, 0.00
6, 5581, 2,     0.84, 3,   boost,  108.85,  86142.00, 1348.30,   20.58,   96.59, 40.3, 4.18, 4.14, 4.15, 118.04,  -0.91,  -0.78,  11.17,  -4.64,   9.61,   0.46,   0.37,  -0.39,   5.25, 4.18, 0.00, 0.00, 0.00, 0.00
6, 5581, 2,     0.85, 3,   boost,  109.83,  86127.00, 1349.72,   22.00,   97.68, 40.3, 4.18, 4.14, 4.15, 117.86,  -0.15,  -1.48,  13.42,  -4.52,   6.31,   0.46,   0.37,  -0.38,   5.17, 4.18, 0.00, 0.00, 0.00, 0.00
6, 5581, 2,     0.86, 3,   boost,  107.87,  86125.00, 1349.91,   22.19,   98.76, 40.3, 4.18, 4.14, 4.15, 118.71,  -1.43,   0.08,  12.20,  -6.35,   7.84,   0.48,   0.37,  -0.38,   5.07, 4.18, 0.00, 0.00, 0.00, 0.00
6, 5581, 2,     0.87, 3,   boost,  109.83,  86121.00, 1350.29,   22.57,   99.85, 40.3, 4.18, 4.14, 4.15, 116.17,   1.22,   0.01,  15.19,  -6.29,   9.24,   0.46,   0.38,  -0.39,   4.96, 4.18, 0.00, 0.00, 0.00, 0.00
6, 5581, 2,     0.88, 3,   boost,  109.34,  86124.00, 1350.01,   22.29,  100.94, 40.3, 4.18, 4.14, 4.15, 118.63,  -1.28,   0.21,  14.28,  -5.80,   5.58,   0.47,   0.38,  -0.39,   4.88, 4.18, 0.00, 0.00, 0.00, 0.00
6, 5581, 2,     0.89, 3,   boost,  109.34,  86106.00, 1351.71,   24.00,  102.03, 40.3, 4.18, 4.14, 4.15, 116.66,   0.00,  -1.06,  16.72,  -4.21,   6.43,   0.46,   0.38,  -0.38,   4.80, 4.18, 0.00, 0.00, 0.00, 0.00
6, 5581, 2,     0.90, 3,   boost,  110.32,  86111.00, 1351.24,   23.52,  103.12, 40.3, 4.18, 4.14, 4.15, 118.81,  -1.19,  -0.46,  14.40,  -4.70,   8.20,   0.47,   0.37,  -0.39,   4.71, 4.18, 0.00, 0.00, 0.00, 0.00
6, 5581, 2,     0.91, 3,   boost,  108.85,  86106.00, 1351.71,   24.00,  104.22, 40.3, 4.18, 4.14, 4.15, 118.60,   0.03,  -0.61,  14.03,  -5.25,   9.30,   0.47,   0.38,  -0.38,   4.60, 4.18, 0.00, 0.00, 0.00, 0.00
6, 5581, 2,     0.92, 3,   boost,  110.32,  86107.00, 1351.62,   23.90,  105.31, 40.3, 4.18, 4.14, 4.15, 118.24,   0.00,   0.66,  12.45,  -5.01,   8.81,   0.47,   0.39,  -0.38,   4.50, 4.18, 0.00, 0.00, 0.00, 0.00
6, 5581, 2,     0.93, 3,   boost,  111.31,  86104.00, 1351.90,   24.19,  106.41, 40.3, 4.18, 4.14, 4.15, 117.87,   0.01,  -0.47,  10.62,  -5.37,   8.14,   0.48,   0.38,  -0.39,   4.41, 4.18, 0.00, 0.00, 0.00, 0.00
6, 5581, 2,     0.94, 3,   boost,  111.31,  86103.00, 1352.00,   24.28,  107.52, 40.3, 4.18, 4.14, 4.15, 120.67,   0.62,   0.29,  10.25,  -5.07,   8.51,   0.47,   0.38,  -0.38,   4.31, 4.18, 0.00, 0.00, 0.00, 0.00
6, 5581, 2,     0.95, 3,   boost,  111.31,  86098.00, 1352.47,   24.76,  108.62, 40.3, 4.18, 4.14, 4.15, 121.74,   0.12,  -0.08,   9.58,  -4.46,   6.01,   0.47,   0.38,  -0.38,   4.23, 4.18, 0.00, 0.00, 0.00, 0.00
6, 5581, 2,     0.96, 3,   boost,  107.87,  86097.00, 1352.57,   24.85,  109.72, 40.3, 4.18, 4.14, 4.15, 120.27,  -1.57,   0.68,   9.52,  -3.30,   6.01,   0.48,   0.38,  -0.38,   4.17, 4.18, 0.00, 0.00, 0.00, 0.00
6, 5581, 2,     0.97, 3,   boost,  112.29,  86089.00, 1353.33,   25.61,  110.83, 40.3, 4.18, 4.14, 4.15, 119.06,  -1.76,  -1.73,   9.03,  -2.44,   6.31,   0.47,   0.38,  -0.38,   4.10, 4.18, 0.00, 0.00, 0.00, 0.00
6, 5581, 2,     0.98, 3,   boost,  111.80,  86083.00, 1353.90,   26.18,  111.94, 40.3, 4.18, 4.14, 4.15, 122.66,  -1.41,   0.06,   7.08,  -6.29,   9.67,   0.47,   0.38,  -0.38,   3.99, 4.14, 0.00, 0.00, 0.00, 0.00
6, 5581, 2,     0.98, 3,   boost,  111.80,  86083.00, 1353.90,   26.18,  111.94, 40.3, 4.18, 4.14, 4.15, 122.66,  -1.41,   0.06,   7.08,  -6.29,   9.67,   0.47,   0.38,  -0.38,   3.99, 4.14, 0.00, 0.00, 0.00, 0.00
6, 5581, 2,     0.99, 3,   boost,  110.82,  86075.00, 1354.66,   26.94,  113.05, 40.3, 4.18, 4.14, 4.15, 120.75,   0.86,   0.25,   9.46,  -3.30,   8.81,   0.47,   0.38,  -0.38,   3.90, 4.14, 0.00, 0.00, 0.00, 0.00
6, 5581, 2,     1.00, 3,   boost,  112.29,  86071.00, 1355.04,   27.32,  114.16, 40.3, 4.18, 4.14, 4.15, 123.96,  -0.92,   0.34,   5.18,  -4.27,   8.20,   0.47,   0.38,  -0.39,   3.81, 4.14, 0.00, 0.00, 0.00, 0.00
6, 5581, 2,     1.01, 3,   boost,  110.32,  86065.00, 1355.61,   27.89,  115.26, 40.3, 4.18, 4.14, 4.15, 120.30,   0.24,  -1.06,   7.08,  -5.62,   7.35,   0.47,   0.38,  -0.39,   3.71, 4.14, 0.00, 0.00, 0.00, 0.00
6, 5581, 2,     1.02, 3,   boost,  111.31,  86063.00, 1355.80,   28.08,  116.37, 40.3, 4.18, 4.14, 4.15, 120.75,  -1.70,  -1.03,   5.92,  -6.84,   6.19,   0.47,   0.38,  -0.39,   3.62, 4.14, 0.00, 0.00, 0.00, 0.00
6, 5581, 2,     1.03, 3,   boost,  110.32,  86076.00, 1354.56,   26.85,  117.47, 40.3, 4.18, 4.14, 4.15, 118.76,  -1.00,  -0.40,   6.47,  -3.85,   7.90,   0.47,   0.39,  -0.37,   3.54, 4.14, 0.00, 0.00, 0.00, 0.00
6, 5581, 2,     1.04, 3,   boost,  109.83,  86063.00, 1355.80,   28.08,  118.58, 40.3, 4.18, 4.14, 4.15, 120.80,  -1.16,   0.36,   4.76,  -5.13,   9.55,   0.47,   0.38,  -0.39,   3.43, 4.14, 0.00, 0.00, 0.00, 0.00
6, 5581, 2,     1.05, 3,   boost,  110.32,  86049.00, 1357.13,   29.41,  119.68, 40.3, 4.18, 4.14, 4.15, 118.86,  -1.07,   0.39,   2.13,  -5.62,   9.61,   0.48,   0.37,  -0.39,   3.32, 4.14, 0.00, 0.00, 0.00, 0.00
6, 5581, 2,     1.06, 3,   boost,  108.85,  86060.00, 1356.08,   28.37,  120.78, 40.3, 4.18, 4.14, 4.15, 120.10,  -0.24,   0.80,  -0.31,  -4.15,  10.03,   0.47,   0.38,  -0.39,   3.22, 4.14, 0.00, 0.00, 0.00, 0.00
6, 5581, 2,     1.07, 3,   boost,  110.32,  86043.00, 1357.70,   29.98,  121.88, 40.3, 4.18, 4.14, 4.15, 118.47,   1.49,   0.01,  -3.60,  -4.46,  10.89,   0.47,   0.39,  -0.38,   3.11, 4.14, 0.00, 0.00, 0.00, 0.00
6, 5581, 2,     1.08, 3,   boost,  112.78,  86045.00, 1357.51,   29.79,  122.99, 40.3, 4.18, 4.14, 4.15, 118.31,   2.19,  -0.65,  -4.40,  -2.50,   8.57,   0.47,   0.39,  -0.38,   3.03, 4.14, 0.00, 0.00, 0.00, 0.00
6, 5581, 2,     1.09, 3,   boost,  113.27,  86036.00, 1358.36,   30.65,  124.11, 40.3, 4.18, 4.14, 4.15, 117.93,   0.20,  -0.59,  -7.76,  -3.54,   3.81,   0.48,   0.38,  -0.37,   2.98, 4.14, 0.00, 0.00, 0.00, 0.00
6, 5581, 2,     1.10, 3,   boost,  113.76,  86022.00, 1359.70,   31.98,  125.22, 40.3, 4.18, 4.14, 4.15, 120.43,  -0.59,  -1.00, -10.07,  -3.60,   5.52,   0.48,   0.37,  -0.38,   2.91, 4.14, 0.00, 0.00, 0.00, 0.00
6, 5581, 2,     1.11, 3,   boost,  107.38,  86018.00, 1360.08,   32.36,  126.33, 40.3, 4.18, 4.14, 4.15, 120.74,  -0.98,  -1.26, -10.32,  -2.75,   5.03,   0.48,   0.38,  -0.38,   2.86, 4.14, 0.00, 0.00, 0.00, 0.00
6, 5581, 2,     1.12, 3,   boost,  110.32,  86045.00, 1357.51,   29.79,  127.44, 40.3, 4.18, 4.14, 4.15, 114.15,  -3.86,   0.73, -15.51,  -3.72,   7.29,   0.47,   0.37,  -0.38,   2.78, 4.14, 0.00, 0.00, 0.00, 0.00
6, 5581, 2,     1.13, 3,   boost,  111.80,  86044.00, 1357.60,   29.89,  128.55, 40.3, 4.18, 4.14, 4.15, 116.09,  -2.83,  -1.50, -13.25,  -1.95,   8.33,   0.47,   0.37,  -0.38,   2.71, 4.14, 0.00, 0.00, 0.00, 0.00
6, 5581, 2,     1.14, 3,   boost,  111.80,  86030.00, 1358.93,   31.22,  129.67, 40.3, 4.18, 4.14, 4.15, 120.96,  -0.40,   1.02, -19.29,  -5.68,  13.82,   0.48,   0.38,  -0.38,   2.57, 4.14, 0.00, 0.00, 0.00, 0.00
6, 5581, 2,     1.15, 3,   boost,  113.76,  86029.00, 1359.03,   31.31,  130.79, 40.3, 4.18, 4.14, 4.15, 119.68,   1.79,   0.29, -17.34,  -0.80,  10.71,   0.47,   0.37,  -0.38,   2.49, 4.14, 0.00, 0.00, 0.00, 0.00
6, 5581, 2,     1.16, 3,   boost,  111.31,  86021.00, 1359.79,   32.07,  131.90, 40.3, 4.18, 4.14, 4.15, 122.53,   0.80,   1.53, -23.14,  -3.91,   7.10,   0.48,   0.37,  -0.36,   2.41, 4.14, 0.00, 0.00, 0.00, 0.00
6, 5581, 2,     1.17, 3,   boost,  112.29,  86029.00, 1359.03,   31.31,  133.02, 40.3, 4.18, 4.14, 4.15, 117.61,   2.74,  -0.90, -22.22,   0.55,   8.14,   0.47,   0.39,  -0.37,   2.36, 4.14, 0.00, 0.00, 0.00, 0.00
6, 5581, 2,     1.18, 3,   boost,  111.31,  86018.00, 1360.08,   32.36,  134.14, 40.3, 4.18, 4.14, 4.15, 118.12,   0.33,  -1.01, -25.82,  -1.77,   1.92,   0.47,   0.38,  -0.36,   2.33, 4.14, 0.00, 0.00, 0.00, 0.00
6, 5581, 2,     1.19, 3,   boost,  111.80,  86024.00, 1359.51,   31.79,  135.26, 40.3, 4.18, 4.14, 4.15, 119.74,  -2.02,  -2.32, -27.10,  -1.65,   1.79,   0.47,   0.39,  -0.38,   2.31, 4.14, 0.00, 0.00, 0.00, 0.00
6, 5581, 2,     1.20, 3,   boost,  113.27,  86020.00, 1359.89,   32.17,  136.37, 40.3, 4.18, 4.14, 4.15, 123.07,  -2.76,  -0.31, -30.46,  -2.26,   4.30,   0.48,   0.37,  -0.37,   2.27, 4.14, 0.00, 0.00, 0.00, 0.00
6, 5581, 2,     1.21, 3,   boost,  108.85,  86035.00, 1358.46,   30.74,  137.48, 40.3, 4.18, 4.14, 4.15, 125.38,  -1.70,   1.24, -30.77,  -2.87,   7.72,   0.48,   0.37,  -0.39,   2.19, 4.14, 0.00, 0.00, 0.00, 0.00
6, 5581, 2,     1.22, 3,   boost,  109.83,  86023.00, 1359.60,   31.88,  138.59, 40.3, 4.18, 4.14, 4.15, 115.12,   1.10,   2.38, -33.64,  -1.47,   8.94,   0.50,   0.38,  -0.36,   2.12, 4.14, 0.00, 0.00, 0.00, 0.00
6, 5581, 2,     1.23, 3,   boost,  109.83,  86011.00, 1360.74,   33.02,  139.69, 40.3, 4.18, 4.14, 4.15, 121.29,   1.42,  -0.23, -36.87,  -0.43,   6.80,   0.50,   0.38,  -0.36,   2.08, 4.14, 0.00, 0.00, 0.00, 0.00
6, 5581, 2,     1.24, 3,   boost,  111.80,  86002.00, 1361.60,   33.88,  140.80, 40.3, 4.18, 4.14, 4.15, 122.60,   2.05,  -0.11, -45.35,  23.99,   8.02,   0.49,   0.38,  -0.37,   2.23, 4.14, 0.00, 0.00, 0.00, 0.00
6, 5581, 2,     1.25, 3,   boost,  112.29,  86020.00, 1359.89,   32.17,  141.91, 40.3, 4.18, 4.14, 4.15, 119.99,   1.23,  -0.96, -32.96,  22.64,   1.12,   0.49,   0.39,  -0.37,   2.41, 4.14, 0.00, 0.00, 0.00, 0.00
6, 5581, 2,     1.26, 3,   boost,  110.82,  86009.00, 1360.93,   33.21,  143.02, 40.3, 4.18, 4.14, 4.15, 121.60,  -2.04,  -1.17, -37.11, -36.81,  -3.15,   0.48,   0.38,  -0.37,   2.12, 4.14, 0.00, 0.00, 0.00, 0.00
6, 5581, 2,     1.27, 3,   boost,  110.82,  86001.00, 1361.69,   33.98,  144.13, 40.3, 4.18, 4.14, 4.15, 120.31,  -1.88,  -1.21, -53.04,  -2.02,   3.14,   0.50,   0.38,  -0.37,   2.09, 4.14, 0.00, 0.00, 0.00, 0.00
6, 5581, 2,     1.28, 3,   boost,  111.31,  86007.00, 1361.12,   33.40,  145.24, 40.3, 4.18, 4.14, 4.15, 120.44,  -1.71,   0.99, -51.70,  33.45,   5.82,   0.51,   0.39,  -0.36,   2.33, 4.14, 0.00, 0.00, 0.00, 0.00
6, 5581, 2,     1.29, 3,   boost,  111.31,  85991.00, 1362.64,   34.93,  146.35, 40.3, 4.18, 4.14, 4.15, 120.44,  -0.17,   0.65, -38.03, -15.99,   3.50,   0.49,   0.38,  -0.37,   2.18, 4.14, 0.00, 0.00, 0.00, 0.00
6, 5581, 2,     1.30, 3,   boost,  111.31,  85985.00, 1363.21,   35.50,  147.46, 40.3, 4.18, 4.13, 4.15, 120.96,   0.31,  -0.08, -53.90, -27.35,   4.42,   0.51,   0.37,  -0.36,   1.93, 4.14, 0.00, 0.00, 0.00, 0.00
6, 5581, 2,     1.30, 3,   boost,  111.31,  85985.00, 1363.21,   35.50,  147.46, 40.3, 4.18, 4.13, 4.15, 120.96,   0.31,  -0.08, -53.90, -27.35,   4.42,   0.51,   0.37,  -0.36,   1.93, 4.14, 0.00, 0.00, 0.00, 0.00
6, 5581, 2,     1.31, 3,   boost,  110.32,  85983.00, 1363.40,   35.69,  148.58, 40.3, 4.18, 4.13, 4.15, 119.44,   1.60,   0.18, -62.75,  32.10,   6.86,   0.50,   0.39,  -0.37,   2.16, 4.14, 0.00, 0.00, 0.00, 0.00
6, 5581, 2,     1.32, 3,   boost,  113.27,  85959.00, 1365.68,   37.97,  149.69, 40.3, 4.18, 4.13, 4.15, 120.15,   1.26,  -2.23, -47.55,  18.19,   0.02,   0.50,   0.39,  -0.37,   2.31, 4.14, 0.00, 0.00, 0.00, 0.00
6, 5581, 2,     1.33, 3,   boost,  111.80,  85968.00, 1364.83,   37.11,  150.81, 40.3, 4.18, 4.13, 4.15, 120.92,  -1.16,  -0.72, -53.53, -37.60,  -3.09,   0.51,   0.39,  -0.38,   2.01, 4.14, 0.00, 0.00, 0.00, 0.00
6, 5581, 2,     1.34, 3,   boost,  111.80,  85965.00, 1365.11,   37.40,  151.93, 40.3, 4.18, 4.13, 4.15, 120.57,  -1.45,  -1.50, -70.56,  34.12,   1.92,   0.50,   0.37,  -0.36,   2.29, 4.14, 0.00, 0.00, 0.00, 0.00
6, 5581, 2,     1.35, 3,   boost,  111.31,  85961.00, 1365.49,   37.78,  153.04, 40.3, 4.18, 4.13, 4.15, 119.28,  -1.55,   0.92, -65.86,  33.02,   2.95,   0.50,   0.38,  -0.36,   2.56, 4.14, 0.00, 0.00, 0.00, 0.00
6, 5581, 2,     1.36, 3,   boost,  111.31,  85954.00, 1366.16,   38.44,  154.16, 40.3, 4.18, 4.13, 4.15, 119.82,  -1.67,   0.32, -55.06, -18.86,   0.02,   0.50,   0.39,  -0.36,   2.40, 4.14, 0.00, 0.00, 0.00, 0.00
6, 5581, 2,     1.37, 3,   boost,  111.31,  85955.00, 1366.07,   38.35,  155.27, 40.3, 4.18, 4.13, 4.15, 120.72,  -0.94,  -0.44, -71.54, -19.53,   4.11,   0.50,   0.38,  -0.36,   2.21, 4.14, 0.00, 0.00, 0.00, 0.00
6, 5581, 2,     1.38, 3,   boost,  112.29,  85969.00, 1364.73,   37.02,  156.39, 40.3, 4.18, 4.13, 4.15, 119.83,   0.52,  -0.65, -78.99,  38.27,   6.49,   0.51,   0.38,  -0.36,   2.51, 4.14, 0.00, 0.00, 0.00, 0.00
6, 5581, 2,     1.39, 3,   boost,  112.78,  85946.00, 1366.92,   39.20,  157.52, 40.3, 4.18, 4.13, 4.15, 119.27,   0.34,  -2.76, -64.21,  11.66,  -0.34,   0.51,   0.38,  -0.35,   2.62, 4.14, 0.00, 0.00, 0.00, 0.00
6, 5581, 2,     1.40, 3,   boost,  112.29,  85959.00, 1365.68,   37.97,  158.64, 40.3, 4.18, 4.13, 4.15, 120.67,  -0.07,  -1.51, -72.39, -35.89,  -0.71,   0.52,   0.39,  -0.34,   2.30, 4.14, 0.00, 0.00, 0.00, 0.00
6, 5581, 2,     1.41, 3,   boost,  114.25,  85963.00, 1365.30,   37.59,  159.77, 40.3, 4.18, 4.13, 4.15, 120.02,   0.61,  -0.57, -89.42,  13.67,   1.06,   0.52,   0.39,  -0.34,   2.42, 4.14, 0.00, 0.00, 0.00, 0.00
6, 5581, 2,     1.42, 3,   boost,  112.78,  85958.00, 1365.78,   38.06,  160.90, 40.3, 4.18, 4.13, 4.15, 122.52,  -1.81,   0.51, -81.98,  31.62,  -1.32,   0.51,   0.37,  -0.35,   2.70, 4.14, 0.00, 0.00, 0.00, 0.00
6, 5581, 2,     1.43, 3,   boost,  112.78,  85959.00, 1365.68,   37.97,  162.02, 40.3, 4.18, 4.13, 4.15, 120.73,  -1.70,   1.49, -74.90, -22.52,  -2.17,   0.52,   0.39,  -0.34,   2.51, 4.14, 0.00, 0.00, 0.00, 0.00
6, 5581, 2,     1.44, 3,   boost,  112.78,  85944.00, 1367.11,   39.40,  163.15, 40.3, 4.18, 4.13, 4.15, 120.50,  -0.50,   0.53, -93.76, -11.60,   2.34,   0.52,   0.39,  -0.34,   2.40, 4.14, 0.00, 0.00, 0.00, 0.00
6, 5581, 2,     1.45, 3,   boost,  112.29,  85939.00, 1367.59,   39.87,  164.28, 40.3, 4.18, 4.13, 4.15, 121.32,   0.13,  -2.12, -92.35,   8.67,   0.27,   0.53,   0.38,  -0.34,   2.48, 4.14, 0.00, 0.00, 0.00, 0.00
6, 5581, 2,     1.46, 3,   boost,  112.78,  85920.00, 1369.39,   41.68,  165.41, 40.3, 4.18, 4.13, 4.15, 120.75,   1.12,  -2.50, -93.39,   7.02,  -0.52,   0.53,   0.38,  -0.34,   2.54, 4.14, 0.00, 0.00, 0.00, 0.00
6, 5581, 2,     1.47, 3,   boost,  113.27,  85921.00, 1369.30,   41.58,  166.53, 40.3, 4.18, 4.13, 4.15, 119.62,  -0.14,  -2.29, -97.97,   4.21,  -3.39,   0.53,   0.39,  -0.34,   2.59, 4.14, 0.00, 0.00, 0.00, 0.00
6, 5581, 2,     1.48, 3,   boost,  113.27,  85947.00, 1366.83,   39.11,  167.67, 40.3, 4.18, 4.13, 4.15, 120.17,  -1.61,  -0.55,-100.84,   1.89,  -4.19,   0.53,   0.38,  -0.35,   2.63, 4.14, 0.00, 0.00, 0.00, 0.00
6, 5581, 2,     1.49, 3,   boost,  113.76,  85950.00, 1366.54,   38.82,  168.80, 40.3, 4.18, 4.13, 4.15, 121.37,  -1.33,  -0.04,-102.55,   3.78,  -3.09,   0.53,   0.38,  -0.34,   2.68, 4.14, 0.00, 0.00, 0.00, 0.00
6, 5581, 2,     1.50, 3,   boost,  113.76,  85938.00, 1367.68,   39.97,  169.93, 40.3, 4.18, 4.13, 4.15, 123.05,  -1.59,   2.49,-107.49,   3.17,  -2.42,   0.54,   0.39,  -0.35,   2.72, 4.14, 0.00, 0.00, 0.00, 0.00
6, 5581, 2,     1.51, 3,   boost,  114.74,  85926.00, 1368.82,   41.11,  171.07, 40.3, 4.18, 4.13, 4.15, 123.27,  -0.42,   2.03,-107.73,   8.54,  -0.40,   0.53,   0.39,  -0.35,   2.79, 4.14, 0.00, 0.00, 0.00, 0.00
6, 5581, 2,     1.52, 3,   boost,  112.29,  85906.00, 1370.73,   43.01,  172.20, 40.3, 4.18, 4.13, 4.15, 122.19,   1.38,   1.25,-119.94,  25.33,  -0.77,   0.55,   0.39,  -0.33,   3.00, 4.14, 0.00, 0.00, 0.00, 0.00
6, 5581, 2,     1.53, 3,   boost,  112.78,  85904.00, 1370.92,   43.20,  173.33, 40.3, 4.18, 4.13, 4.15, 123.18,   1.04,  -1.71,-115.30,  37.84,  -3.94,   0.55,   0.39,  -0.34,   3.33, 4.14, 0.00, 0.00, 0.00, 0.00
6, 5581, 2,     1.54, 3,   boost,  113.76,  85887.00, 1372.53,   44.82,  174.46, 40.3, 4.18, 4.13, 4.15, 120.76,   0.42,  -3.79,-112.49, -22.95,  -7.91,   0.55,   0.39,  -0.34,   3.19, 4.14, 0.00, 0.00, 0.00, 0.00
6, 5581, 2,     1.55, 3,   boost,  112.78,  85897.00, 1371.58,   43.87,  175.60, 40.3, 4.18, 4.13, 4.15, 121.98,  -2.20,  -1.80,-135.32, -10.50,  -7.24,   0.55,   0.38,  -0.33,   3.16, 4.14, 0.00, 0.00, 0.00, 0.00
6, 5581, 2,     1.56, 3,   boost,  115.23,  85888.00, 1372.44,   44.72,  176.73, 40.3, 4.18, 4.13, 4.15, 122.23,  -2.20,  -0.14,-129.77,  26.79,  -4.86,   0.57,   0.39,  -0.34,   3.39, 4.14, 0.00, 0.00, 0.00, 0.00
6, 5581, 2,     1.57, 3,   boost,  114.25,  85908.00, 1370.54,   42.82,  177.87, 40.3, 4.18, 4.13, 4.15, 123.68,  -1.95,   2.43,-124.89,  -4.70,  -5.29,   0.57,   0.39,  -0.34,   3.39, 4.14, 0.00, 0.00, 0.00, 0.00
6, 5581, 2,     1.58, 3,   boost,  113.76,  85885.00, 1372.72,   45.01,  179.01, 40.3, 4.18, 4.13, 4.15, 121.74,  -1.48,   1.08,-135.63, -28.81,  -3.21,   0.57,   0.38,  -0.33,   3.21, 4.14, 0.00, 0.00, 0.00, 0.00
6, 5581, 2,     1.59, 3,   boost,  113.76,  85864.00, 1374.72,   47.01,  180.15, 40.3, 4.18, 4.13, 4.15, 122.91,   1.68,   0.66,-142.46,   6.77,  -0.89,   0.58,   0.38,  -0.34,   3.26, 4.14, 0.00, 0.00, 0.00, 0.00
6, 5581, 2,     1.60, 3,   boost,  113.27,  85851.00, 1375.96,   48.24,  181.28, 40.3, 4.18, 4.13, 4.15, 122.84,   0.57,  -1.20,-142.28,   8.91,  -5.96,   0.56,   0.38,  -0.33,   3.37, 4.14, 0.00, 0.00, 0.00, 0.00
6, 5581, 2,     1.61, 3,   boost,  114.25,  85849.00, 1376.15,   48.43,  182.42, 40.3, 4.18, 4.13, 4.15, 123.57,   1.92,  -3.23,-146.19,   5.06,  -5.84,   0.58,   0.39,  -0.34,   3.44, 4.14, 0.00, 0.00, 0.00, 0.00
6, 5581, 2,     1.62, 3,   boost,  114.74,  85861.00, 1375.01,   47.29,  183.56, 40.3, 4.18, 4.14, 4.15, 121.97,  -1.99,  -1.81,-149.91,   2.56, -11.57,   0.59,   0.38,  -0.33,   3.55, 4.14, 0.00, 0.00, 0.00, 0.00
6, 5581, 2,     1.62, 3,   boost,  114.74,  85861.00, 1375.01,   47.29,  183.56, 40.3, 4.18, 4.14, 4.15, 121.97,  -1.99,  -1.81,-149.91,   2.56, -11.57,   0.59,   0.38,  -0.33,   3.55, 4.14, 0.00, 0.00, 0.00, 0.00
6, 5581, 2,     1.63, 3,   boost,  115.23,  85844.00, 1376.63,   48.91,  184.71, 40.3, 4.18, 4.14, 4.15, 125.33,  -3.21,  -1.40,-152.84,  -0.25,  -6.69,   0.58,   0.38,  -0.33,   3.61, 4.14, 0.00, 0.00, 0.00, 0.00
6, 5581, 2,     1.64, 3,   boost,  115.23,  85865.00, 1374.63,   46.91,  185.85, 40.3, 4.18, 4.14, 4.15, 123.98,  -2.58,   2.37,-153.69,  -0.92,  -5.77,   0.58,   0.39,  -0.34,   3.65, 4.14, 0.00, 0.00, 0.00, 0.00
6, 5581, 2,     1.65, 3,   boost,  114.74,  85860.00, 1375.10,   47.39,  187.00, 40.3, 4.18, 4.14, 4.15, 123.81,  -2.32,   1.22,-158.33,   1.10,  -1.50,   0.58,   0.39,  -0.34,   3.67, 4.14, 0.00, 0.00, 0.00, 0.00
6, 5581, 2,     1.66, 3,   boost,  114.74,  85855.00, 1375.58,   47.86,  188.15, 40.3, 4.18, 4.14, 4.15, 123.90,   1.08,   0.21,-153.88, -23.13,  -2.60,   0.59,   0.38,  -0.34,   3.58, 4.14, 0.00, 0.00, 0.00, 0.00
6, 5581, 2,     1.67, 3,   boost,  113.76,  85847.00, 1376.34,   48.63,  189.30, 40.3, 4.18, 4.14, 4.15, 124.08,   2.91,  -1.97,-172.07,  33.45,  -1.44,   0.61,   0.39,  -0.33,   3.75, 4.14, 0.00, 0.00, 0.00, 0.00
6, 5581, 2,     1.68, 3,   boost,  117.19,  85853.00, 1375.77,   48.05,  190.45, 40.3, 4.18, 4.14, 4.15, 122.84,   0.76,  -3.17,-167.31,  42.18,  -4.07,   0.63,   0.38,  -0.33,   3.99, 4.14, 0.00, 0.00, 0.00, 0.00
6, 5581, 2,     1.69, 3,   boost,  115.23,  85841.00, 1376.91,   49.20,  191.60, 40.3, 4.18, 4.14, 4.15, 123.53,  -0.57,  -2.21,-157.36, -16.60, -10.11,   0.62,   0.40,  -0.33,   4.00, 4.14, 0.00, 0.00, 0.00, 0.00
6, 5581, 2,     1.70, 3,   boost,  115.72,  85862.00, 1374.91,   47.20,  192.75, 40.3, 4.18, 4.14, 4.15, 123.93,  -1.78,  -1.85,-172.74, -31.37,  -8.52,   0.61,   0.40,  -0.33,   3.95, 4.14, 0.00, 0.00, 0.00, 0.00
6, 5581, 2,     1.71, 3,   boost,  116.21,  85853.00, 1375.77,   48.05,  193.91, 40.3, 4.18, 4.14, 4.15, 124.69,  -4.33,  -0.02,-183.48,  25.21,  -2.17,   0.62,   0.38,  -0.33,   4.06, 4.14, 0.00, 0.00, 0.00, 0.00
6, 5581, 2,     1.72, 3,   boost,  116.70,  85877.00, 1373.49,   45.77,  195.07, 40.3, 4.18, 4.14, 4.15, 125.26,  -0.65,   3.22,-163.34,  12.51,  -0.83,   0.63,   0.38,  -0.33,   4.12, 4.14, 0.00, 0.00, 0.00, 0.00
6, 5581, 2,     1.73, 3,   boost,  115.72,  85849.00, 1376.15,   48.43,  196.23, 40.3, 4.18, 4.14, 4.15, 125.38,  -0.58,   1.70,-172.31,  -8.30,  -1.50,   0.64,   0.39,  -0.32,   4.10, 4.14, 0.00, 0.00, 0.00, 0.00
6, 5581, 2,     1.74, 3,   boost,  116.21,  85869.00, 1374.25,   46.53,  197.39, 40.3, 4.18, 4.14, 4.15, 124.96,   1.81,   0.52,-177.68,   4.52,   0.63,   0.64,   0.39,  -0.33,   4.11, 4.14, 0.00, 0.00, 0.00, 0.00
6, 5581, 2,     1.75, 3,   boost,  117.68,  85856.00, 1375.48,   47.77,  198.55, 40.3, 4.18, 4.14, 4.15, 124.12,  -0.98,  -1.30,-178.54,   5.74,  -5.59,   0.65,   0.40,  -0.33,   4.18, 4.14, 0.00, 0.00, 0.00, 0.00
6, 5581, 2,     1.76, 3,   boost,  116.70,  85862.00, 1374.91,   47.20,  199.72, 40.3, 4.18, 4.14, 4.15, 126.72,  -0.26,  -0.87,-182.93,   0.91,  -5.84,   0.66,   0.38,  -0.33,   4.24, 4.14, 0.00, 0.00, 0.00, 0.00
6, 5581, 2,     1.77, 3,   boost,  117.19,  85868.00, 1374.34,   46.63,  200.89, 40.3, 4.18, 4.14, 4.15, 126.27,  -1.27,  -0.71,-187.69,   0.73,  -5.35,   0.65,   0.38,  -0.32,   4.29, 4.14, 0.00, 0.00, 0.00, 0.00
6, 5581, 2,     1.78, 3,   boost,  118.66,  85910.00, 1370.35,   42.63,  202.06, 40.3, 4.18, 4.14, 4.15, 126.40,  -2.38,   0.10,-191.84,   0.61,  -6.32,   0.66,   0.38,  -0.33,   4.36, 4.14, 0.00, 0.00, 0.00, 0.00
6, 5581, 2,     1.79, 3,   boost,  116.70,  85916.00, 1369.77,   42.06,  203.23, 40.3, 4.18, 4.14, 4.15, 125.51,  -4.36,   0.95,-196.36,  -0.43,  -3.45,   0.67,   0.38,  -0.34,   4.39, 4.14, 0.00, 0.00, 0.00, 0.00
6, 5581, 2,     1.80, 3,   boost,  117.68,  85913.00, 1370.06,   42.34,  204.40, 40.3, 4.18, 4.14, 4.15, 124.71,   0.94,   2.16,-194.16,  22.95,   2.10,   0.68,   0.40,  -0.34,   4.41, 4.14, 0.00, 0.00, 0.00, 0.00
6, 5581, 2,     1.81, 3,   boost,  117.68,  85935.00, 1367.97,   40.25,  205.58, 40.3, 4.18, 4.14, 4.15, 126.09,  -0.86,  -0.42,-192.70, -24.42,  -3.03,   0.67,   0.39,  -0.33,   4.40, 4.14, 0.00, 0.00, 0.00, 0.00
6, 5581, 2,     1.82, 3,   boost,  117.19,  85925.00, 1368.92,   41.20,  206.75, 40.3, 4.18, 4.14, 4.15, 125.79,   2.06,  -1.10,-214.67, -17.89,   0.15,   0.68,   0.38,  -0.34,   4.39, 4.14, 0.00, 0.00, 0.00, 0.00
6, 5581, 2,     1.83, 3,   boost,  118.66,  85949.00, 1366.64,   38.92,  207.92, 40.3, 4.18, 4.14, 4.15, 127.16,  -0.53,  -1.58,-219.19,  36.50,  -4.80,   0.69,   0.39,  -0.35,   4.45, 4.14, 0.00, 0.00, 0.00, 0.00
6, 5581, 2,     1.84, 3,   boost,  117.68,  85944.00, 1367.11,   39.40,  209.10, 40.3, 4.18, 4.14, 4.15, 124.95,   0.15,   0.37,-209.18,   1.65,  -6.38,   0.70,   0.39,  -0.35,   4.52, 4.14, 0.00, 0.00, 0.00, 0.00
6, 5581, 2,     1.85, 3,   boost,  117.68,  85950.00, 1366.54,   38.82,  210.27, 40.3, 4.18, 4.14, 4.15, 126.20,  -2.71,   0.85,-221.81, -36.32,  -8.40,   0.70,   0.39,  -0.35,   4.62, 4.14, 0.00, 0.00, 0.00, 0.00
6, 5581, 2,     1.86, 3,   boost,  117.68,  85940.00, 1367.49,   39.78,  211.44, 40.3, 4.18, 4.14, 4.15, 127.84,  -2.43,   1.94,-238.41,  15.01,  -2.05,   0.70,   0.39,  -0.35,   4.62, 4.14, 0.00, 0.00, 0.00, 0.00
6, 5581, 2,     1.87, 3,   boost,  117.68,  85956.00, 1365.97,   38.25,  212.62, 40.3, 4.18, 4.14, 4.15, 126.97,  -2.22,   2.50,-234.45,  17.52,  -2.05,   0.70,   0.39,  -0.35,   4.62, 4.14, 0.00, 0.00, 0.00, 0.00
6, 5581, 2,     1.88, 3,   boost,  118.17,  85959.00, 1365.68,   37.97,  213.80, 40.3, 4.18, 4.14, 4.15, 125.38,  -0.18,  -0.52,-238.48,   4.94,   0.39,   0.73,   0.39,  -0.36,   4.61, 4.14, 0.00, 0.00, 0.00, 0.00
6, 5581, 2,     1.89, 3,   boost,  118.17,  85942.00, 1367.30,   39.59,  214.98, 40.3, 4.18, 4.14, 4.15, 126.82,  -0.20,  -2.13,-246.96,   2.93,  -6.20,   0.72,   0.39,  -0.37,   4.67, 4.14, 0.00, 0.00, 0.00, 0.00
6, 5581, 2,     1.90, 3,   boost,  120.13,  85955.00, 1366.07,   38.35,  216.17, 40.3, 4.18, 4.14, 4.15, 127.89,  -1.82,  -2.72,-250.01,   2.01,  -6.75,   0.72,   0.39,  -0.37,   4.73, 4.14, 0.00, 0.00, 0.00, 0.00
6, 5581, 2,     1.91, 3,   boost,  121.11,  85942.00, 1367.30,   39.59,  217.36, 40.3, 4.18, 4.14, 4.15, 127.49,   0.36,   0.30,-258.98,  -2.69,  -2.60,   0.73,   0.39,  -0.37,   4.76, 4.14, 0.00, 0.00, 0.00, 0.00
6, 5581, 2,     1.92, 3,   boost,  120.62,  85950.00, 1366.54,   38.82,  218.55, 40.3, 4.18, 4.14, 4.15, 128.55,  -1.34,   1.17,-263.74,  -1.34,  -9.07,   0.74,   0.39,  -0.39,   4.86, 4.14, 0.00, 0.00, 0.00, 0.00
6, 5581, 2,     1.93, 3,   boost,  118.17,  85957.00, 1365.87,   38.16,  219.74, 40.3, 4.18, 4.14, 4.15, 128.23,  -1.48,   1.73,-270.09,  -2.63,  -3.88,   0.74,   0.39,  -0.39,   4.90, 4.14, 0.00, 0.00, 0.00, 0.00
6, 5581, 2,     1.94, 3,   boost,  118.66,  85963.00, 1365.30,   37.59,  220.93, 40.3, 4.18, 4.14, 4.15, 126.16,  -2.32,   0.90,-272.66,   2.75,  -6.20,   0.74,   0.38,  -0.39,   4.95, 4.14, 0.01, 0.00, 0.00, 0.00
6, 5581, 2,     1.94, 3,   boost,  118.66,  85963.00, 1365.30,   37.59,  220.93, 40.3, 4.18, 4.14, 4.15, 126.16,  -2.32,   0.90,-272.66,   2.75,  -6.20,   0.74,   0.38,  -0.39,   4.95, 4.14, 0.01, 0.00, 0.00, 0.00
6, 5581, 2,     1.95, 3,   boost,  119.64,  85967.00, 1364.92,   37.21,  222.12, 40.3, 4.18, 4.14, 4.15, 127.27,  -1.90,   0.14,-276.20,   1.89,  -3.45,   0.75,   0.40,  -0.40,   4.97, 4.14, 0.01, 0.00, 0.00, 0.00
6, 5581, 2,     1.96, 3,   boost,  119.64,  85984.00, 1363.31,   35.59,  223.31, 40.3, 4.18, 4.14, 4.15, 127.88,  -1.10,  -1.49,-281.02,  -0.92,  -5.35,   0.75,   0.39,  -0.41,   5.02, 4.14, 0.01, 0.00, 0.00, 0.00
6, 5581, 2,     1.97, 3,   boost,  119.64,  86014.00, 1360.46,   32.74,  224.50, 40.3, 4.18, 4.14, 4.15, 127.25,  -2.51,  -1.78,-287.67,   1.95,  -2.17,   0.76,   0.39,  -0.43,   5.03, 4.14, 0.01, 0.00, 0.00, 0.00
6, 5581, 2,     1.98, 3,   boost,  118.66,  85996.00, 1362.17,   34.45,  225.69, 40.3, 4.18, 4.14, 4.15, 127.30,  -0.07,   0.56,-292.92,  -2.93,  -3.03,   0.76,   0.40,  -0.43,   5.08, 4.14, 0.01, 0.00, 0.00, 0.00
6, 5581, 2,     1.99, 3,   boost,  119.64,  85999.00, 1361.88,   34.17,  226.88, 40.3, 4.18, 4.14, 4.15, 128.23,  -1.93,   0.97,-297.01,   1.52,  -4.80,   0.76,   0.39,  -0.44,   5.11, 4.14, 0.01, 0.00, 0.00, 0.00
6, 5581, 2,     2.00, 3,   boost,  120.13,  85997.00, 1362.07,   34.36,  228.07, 40.3, 4.18, 4.14, 4.15, 127.71,  -0.06,   1.26,-306.04,   3.90,  -6.02,   0.77,   0.39,  -0.45,   5.13, 4.14, 0.01, 0.00, 0.00, 0.00
6, 5581, 2,     2.01, 3,   boost,  120.13,  86003.00, 1361.50,   33.78,  229.26, 40.3, 4.18, 4.14, 4.15, 126.73,  -0.97,   0.09,-307.63,   3.97,  -7.67,   0.77,   0.39,  -0.45,   5.17, 4.14, 0.01, 0.00, 0.00, 0.00
6, 5581, 2,     2.02, 3,   boost,  120.13,  86008.00, 1361.03,   33.31,  230.46, 40.3, 4.18, 4.14, 4.15, 129.04,  -1.90,   0.28,-316.42,   0.49,  -7.06,   0.78,   0.39,  -0.46,   5.22, 4.14, 0.01, 0.00, 0.00, 0.00
6, 5581, 2,     2.03, 3,   boost,  120.13,  86017.00, 1360.17,   32.45,  231.65, 40.3, 4.18, 4.14, 4.15, 128.28,  -1.85,  -0.48,-319.90,   2.44,  -6.26,   0.78,   0.39,  -0.48,   5.25, 4.14, 0.01, 0.00, 0.00, 0.00
6, 5581, 2,     2.04, 3,   boost,  119.15,  86030.00, 1358.93,   31.22,  232.84, 40.3, 4.18, 4.14, 4.15, 127.62,  -3.09,   0.30,-327.59,   1.40,  -6.08,   0.78,   0.38,  -0.49,   5.28, 4.14, 0.01, 0.00, 0.00, 0.00
6, 5581, 2,     2.05, 3,   boost,  119.15,  86029.00, 1359.03,   31.31,  234.03, 40.3, 4.18, 4.14, 4.15, 128.27,  -1.84,   0.25,-334.61,   0.79,  -1.50,   0.77,   0.38,  -0.50,   5.28, 4.14, 0.01, 0.00, 0.00, 0.00
6, 5581, 2,     2.06, 3,   boost,  120.13,  86028.00, 1359.13,   31.41,  235.22, 40.3, 4.18, 4.14, 4.15, 127.82,  -1.27,  -0.31,-338.94,   1.46,  -4.13,   0.78,   0.39,  -0.50,   5.30, 4.14, 0.01, 0.00, 0.00, 0.00
6, 5581, 2,     2.07, 3,   boost,  118.66,  86038.00, 1358.17,   30.46,  236.42, 40.3, 4.18, 4.14, 4.15, 129.50,   0.04,   1.10,-346.45,  -1.53,  -2.11,   0.78,   0.37,  -0.52,   5.32, 4.14, 0.01, 0.00, 0.00, 0.00
6, 5581, 2,     2.08, 3,   boost,  121.11,  86062.00, 1355.89,   28.18,  237.61, 40.3, 4.18, 4.14, 4.15, 127.70,  -0.57,  -1.42,-350.60,   0.30,  -7.18,   0.78,   0.37,  -0.52,   5.36, 4.14, 0.01, 0.00, 0.00, 0.00
