#version,serial,flight,call,time,rssi,lqi,state,state_name,acceleration,pressure,altitude,height,speed,temperature,drogue_voltage,main_voltage,battery_voltage,accel_x,accel_y,accel_z,gyro_roll,gyro_pitch,gyro_yaw,mag_x,mag_y,mag_z,tilt,pyro,igniter_a,igniter_b,igniter_c,igniter_d,connected,locked,nsat,latitude,longitude,altitude,year,month,day,hour,minute,second,pad_dist,pad_range,pad_az,pad_el,pdop,hdop,vdop,sat01,sat02,sat03,sat04,sat05,sat06,sat07,sat08,sat09,sat10,sat11,sat12,sat13,sat14,sat15,sat16,sat17,sat18,sat19,sat20,sat21,sat22,sat23,sat24,sat25,sat26,sat27,sat28,sat29,sat30,sat31,sat32
6, 10978, 2,KD9TQD,    -1.97, -71,   6, 3,   boost,   -0.00,  99320.00,  168.25,   -0.17,    0.00, 18.4, 8.28, 0.00, 4.14,   9.84,   0.39,  -0.93,  -0.55,  -0.55,   0.92,   0.80,   0.36,  -0.03,   4.00, 8.33, 8.28, 0.00, 0.00, 0.00, 1, 1, 11,  41.4880300, -89.4986003,   232.0, 2023, 11, 18, 17, 18, 48,        0,        0, 315,   0,   1.5,   0.8,   1.2,  0, 36, 38,  0,  0,  0,  0,  0,  0, 28,  0, 30,  0,  0,  0,  0,  0,  0,  0,  0, 34,  0,  0,  0, 34, 22,  0, 27,  0,  0, 36, 33
6, 10978, 2,KD9TQD,    -1.97, -71,  12, 3,   boost,   -0.00,  99320.00,  168.25,   -0.17,    0.00, 18.4, 8.28, 0.00, 4.14,   9.84,   0.39,  -0.93,  -0.55,  -0.55,   0.92,   0.80,   0.36,  -0.03,   4.00, 8.33, 8.28, 0.00, 0.00, 0.00, 1, 1, 11,  41.4880300, -89.4986003,   232.0, 2023, 11, 18, 17, 18, 48,        0,        0, 315,   0,   1.5,   0.8,   1.2,  0, 36, 38,  0,  0,  0,  0,  0,  0, 28,  0, 30,  0,  0,  0,  0,  0,  0,  0,  0, 34,  0,  0,  0, 34, 22,  0, 27,  0,  0, 36, 33
6, 10978, 2,KD9TQD,    -1.64, -71,   7, 3,   boost,   -0.00,  99320.00,  168.25,   -0.17,    0.00, 18.4, 8.28, 0.00, 4.14,   9.84,   0.39,  -0.93,  -0.55,  -0.55,   0.92,   0.80,   0.36,  -0.03,   4.00, 8.33, 8.28, 0.00, 0.00, 0.00, 1, 1, 11,  41.4880300, -89.4986003,   232.0, 2023, 11, 18, 17, 18, 48,        0,        0, 315,   0,   1.5,   0.8,   1.2,  0, 36, 38,  0,  0,  0,  0,  0,  0, 28,  0, 30,  0,  0,  0,  0,  0,  0,  0,  0, 34,  0,  0,  0, 34, 22,  0, 27,  0,  0, 36, 33
6, 10978, 2,KD9TQD,    -1.61, -71,   5, 3,   boost,   -0.00,  99320.00,  168.25,   -0.17,    0.00, 18.4, 8.28, 0.00, 4.14,   9.84,   0.39,  -0.93,  -0.55,  -0.55,   0.92,   0.80,   0.36,  -0.03,   4.00, 8.33, 8.28, 0.00, 0.00, 0.00, 1, 1, 11,  41.4880300, -89.4986003,   232.0, 2023, 11, 18, 17, 18, 48,        0,        0, 315,   0,   1.5,   0.8,   1.2,  0, 36, 38,  0,  0,  0,  0,  0,  0, 28,  0, 30,  0,  0,  0,  0,  0,  0,  0,  0, 34,  0,  0,  0, 34, 22,  0, 27,  0,  0, 36, 33
6, 10978, 2,KD9TQD,    -0.97, -71,   5, 3,   boost,   -0.00,  99320.00,  168.25,   -0.17,    0.00, 18.4, 8.28, 0.00, 4.14,   9.84,   0.39,  -0.93,  -0.55,  -0.55,   0.92,   0.80,   0.36,  -0.03,   4.00, 8.33, 8.28, 0.00, 0.00, 0.00, 1, 1, 11,  41.4880297, -89.4985999,   232.0, 2023, 11, 18, 17, 18, 49,        0,        0,   0,   0,   1.5,   0.8,   1.2,  0, 36, 38,  0,  0,  0,  0,  0,  0, 28,  0, 31,  0,  0,  0,  0,  0,  0,  0,  0, 33,  0,  0,  0, 34, 22,  0, 27,  0,  0, 36, 33
6, 10978, 2,KD9TQD,    -0.97, -71,   7, 3,   boost,   -0.00,  99320.00,  168.25,   -0.17,    0.00, 18.4, 8.28, 0.00, 4.14,   9.84,   0.39,  -0.93,  -0.55,  -0.55,   0.92,   0.80,   0.36,  -0.03,   4.00, 8.33, 8.28, 0.00, 0.00, 0.00, 1, 1, 11,  41.4880297, -89.4985999,   232.0, 2023, 11, 18, 17, 18, 49,        0,        0,   0,   0,   1.5,   0.8,   1.2,  0, 36, 38,  0,  0,  0,  0,  0,  0, 28,  0, 31,  0,  0,  0,  0,  0,  0,  0,  0, 33,  0,  0,  0, 34, 22,  0, 27,  0,  0, 36, 33
6, 10978, 2,KD9TQD,    -0.97, -62,   6, 3,   boost,   -0.00,  99320.00,  168.25,   -0.17,    0.00, 18.4, 8.28, 0.00, 4.14,   9.84,   0.39,  -0.93,  -0.55,  -0.55,   0.92,   0.80,   0.36,  -0.03,   4.00, 8.33, 8.28, 0.00, 0.00, 0.00, 1, 1, 11,  41.4880297, -89.4985999,   232.0, 2023, 11, 18, 17, 18, 49,        0,        0,   0,   0,   1.5,   0.8,   1.2,  0, 36, 38,  0,  0,  0,  0,  0,  0, 28,  0, 31,  0,  0,  0,  0,  0,  0,  0,  0, 33,  0,  0,  0, 34, 22,  0, 27,  0,  0, 36, 33
6, 10978, 2,KD9TQD,    -0.63, -71,   7, 3,   boost,    2.01,  99322.00,  168.08,   -0.34,    0.99, 18.4, 8.28, 0.00, 4.14,   9.86,  -0.04,  -0.88,   0.00,  -0.67,   0.55,   0.80,   0.36,  -0.03,   4.00, 8.33, 8.28, 0.00, 0.00, 0.00, 1, 1, 11,  41.4880297, -89.4985999,   232.0, 2023, 11, 18, 17, 18, 49,        0,        0,   0,   0,   1.5,   0.8,   1.2,  0, 36, 38,  0,  0,  0,  0,  0,  0, 28,  0, 31,  0,  0,  0,  0,  0,  0,  0,  0, 33,  0,  0,  0, 34, 22,  0, 27,  0,  0, 36, 33
6, 10978, 2,KD9TQD,    -0.60, -71,   8, 3,   boost,    2.01,  99322.00,  168.08,   -0.34,    0.99, 18.4, 8.28, 0.00, 4.14,   9.86,  -0.04,  -0.88,   0.00,  -0.67,   0.55,   0.80,   0.36,  -0.03,   4.00, 8.33, 8.28, 0.00, 0.00, 0.00, 1, 1, 11,  41.4880297, -89.4985999,   232.0, 2023, 11, 18, 17, 18, 49,        0,        0,   0,   0,   1.5,   0.8,   1.2,  0, 36, 38,  0,  0,  0,  0,  0,  0, 28,  0, 31,  0,  0,  0,  0,  0,  0,  0,  0, 33,  0,  0,  0, 34, 22,  0, 27,  0,  0, 36, 33
6, 10978, 2,KD9TQD,    -0.03, -71,   6, 3,   boost,   67.89,  99297.00,  170.20,    1.78,   21.89, 18.4, 8.28, 0.00, 4.14,  75.21,  -1.33,  -5.82, -14.65,  16.30,  14.53,   0.80,   0.34,  -0.04,   4.00, 8.33, 8.28, 0.00, 0.00, 0.00, 1, 1, 11,  41.4880297, -89.4985999,   232.0, 2023, 11, 18, 17, 18, 49,        0,        0,   0,   0,   1.5,   0.8,   1.2,  0, 36, 38,  0,  0,  0,  0,  0,  0, 28,  0, 31,  0,  0,  0,  0,  0,  0,  0,  0, 33,  0,  0,  0, 34, 22,  0, 27,  0,  0, 36, 33
6, 10978, 2,KD9TQD,     0.00, -73,  10, 3,   boost,   67.89,  99297.00,  170.20,    1.78,   21.89, 18.4, 8.28, 0.00, 4.14,  75.21,  -1.33,  -5.82, -14.65,  16.30,  14.53,   0.80,   0.34,  -0.04,   4.00, 8.33, 8.28, 0.00, 0.00, 0.00, 1, 1, 11,  41.4880297, -89.4985999,   232.0, 2023, 11, 18, 17, 18, 49,        0,        0,   0,   0,   1.5,   0.8,   1.2,  0, 36, 38,  0,  0,  0,  0,  0,  0, 28,  0, 31,  0,  0,  0,  0,  0,  0,  0,  0, 33,  0,  0,  0, 34, 22,  0, 27,  0,  0, 36, 33
6, 10978, 2,KD9TQD,     0.03, -63,   8, 3,   boost,   67.89,  99297.00,  170.20,    1.78,   21.89, 18.4, 8.28, 0.00, 4.14,  75.21,  -1.33,  -5.82, -14.65,  16.30,  14.53,   0.80,   0.34,  -0.04,   4.00, 8.33, 8.28, 0.00, 0.00, 0.00, 1, 1, 11,  41.4880298, -89.4985985,   231.0, 2023, 11, 18, 17, 18, 50,        0,        1,  85, -83,   1.5,   0.8,   1.2,  0, 36, 37,  0,  0,  0,  0,  0,  0, 28,  0, 30,  0,  0,  0,  0,  0,  0,  0,  0, 33,  0,  0,  0, 34, 21,  0, 27,  0,  0, 36, 32
6, 10978, 2,KD9TQD,     0.07, -66,   8, 3,   boost,   72.42,  99272.00,  172.32,    3.89,   28.90, 18.4, 8.28, 0.00, 4.14,  80.59,   2.35,  -0.79,-135.62,   0.79,   3.17,   0.80,   0.36,  -0.02,   3.00, 8.33, 8.28, 0.00, 0.00, 0.00, 1, 1, 11,  41.4880298, -89.4985985,   231.0, 2023, 11, 18, 17, 18, 50,        0,        1,  85, -83,   1.5,   0.8,   1.2,  0, 36, 37,  0,  0,  0,  0,  0,  0, 28,  0, 30,  0,  0,  0,  0,  0,  0,  0,  0, 33,  0,  0,  0, 34, 21,  0, 27,  0,  0, 36, 32
6, 10978, 2,KD9TQD,     0.10, -65,   6, 3,   boost,   72.42,  99272.00,  172.32,    3.89,   28.90, 18.4, 8.28, 0.00, 4.15,  80.59,   2.35,  -0.79,-135.62,   0.79,   3.17,   0.80,   0.36,  -0.02,   3.00, 8.31, 8.28, 0.00, 0.00, 0.00, 1, 1, 11,  41.4880298, -89.4985985,   231.0, 2023, 11, 18, 17, 18, 50,        0,        1,  85, -83,   1.5,   0.8,   1.2,  0, 36, 37,  0,  0,  0,  0,  0,  0, 28,  0, 30,  0,  0,  0,  0,  0,  0,  0,  0, 33,  0,  0,  0, 34, 21,  0, 27,  0,  0, 36, 32
6, 10978, 2,KD9TQD,     0.18, -63,   4, 3,   boost,   72.42,  99250.00,  174.18,    5.75,   36.85, 18.4, 8.28, 0.00, 4.15,  83.60,   2.08,  -1.65, -77.33,   9.58,  -4.21,   0.80,   0.39,   0.02,   3.00, 8.31, 8.28, 0.00, 0.00, 0.00, 1, 1, 11,  41.4880298, -89.4985985,   231.0, 2023, 11, 18, 17, 18, 50,        0,        1,  85, -83,   1.5,   0.8,   1.2,  0, 36, 37,  0,  0,  0,  0,  0,  0, 28,  0, 30,  0,  0,  0,  0,  0,  0,  0,  0, 33,  0,  0,  0, 34, 21,  0, 27,  0,  0, 36, 32
6, 10978, 2,KD9TQD,     0.21, -62,   6, 3,   boost,   72.42,  99250.00,  174.18,    5.75,   36.85, 18.4, 8.28, 0.00, 4.14,  83.60,   2.08,  -1.65, -77.33,   9.58,  -4.21,   0.80,   0.39,   0.02,   3.00, 8.32, 8.28, 0.00, 0.00, 0.00, 1, 1, 11,  41.4880298, -89.4985985,   231.0, 2023, 11, 18, 17, 18, 50,        0,        1,  85, -83,   1.5,   0.8,   1.2,  0, 36, 37,  0,  0,  0,  0,  0,  0, 28,  0, 30,  0,  0,  0,  0,  0,  0,  0,  0, 33,  0,  0,  0, 34, 21,  0, 27,  0,  0, 36, 32
6, 10978, 2,KD9TQD,     0.29, -61,   9, 3,   boost,   75.94,  99193.00,  179.00,   10.58,   45.00, 18.4, 8.28, 0.00, 4.14,  85.23,   1.34,   0.00, -51.33,   2.20,  -3.42,   0.80,   0.40,   0.04,   3.00, 8.32, 8.28, 0.00, 0.00, 0.00, 1, 1, 11,  41.4880298, -89.4985985,   231.0, 2023, 11, 18, 17, 18, 50,        0,        1,  85, -83,   1.5,   0.8,   1.2,  0, 36, 37,  0,  0,  0,  0,  0,  0, 28,  0, 30,  0,  0,  0,  0,  0,  0,  0,  0, 33,  0,  0,  0, 34, 21,  0, 27,  0,  0, 36, 32
6, 10978, 2,KD9TQD,     0.32, -61,   6, 3,   boost,   75.94,  99193.00,  179.00,   10.58,   45.00, 18.4, 8.28, 0.00, 4.14,  85.23,   1.34,   0.00, -51.33,   2.20,  -3.42,   0.80,   0.40,   0.04,   3.00, 8.33, 8.28, 0.00, 0.00, 0.00, 1, 1, 11,  41.4880298, -89.4985985,   231.0, 2023, 11, 18, 17, 18, 50,        0,        1,  85, -83,   1.5,   0.8,   1.2,  0, 36, 37,  0,  0,  0,  0,  0,  0, 28,  0, 30,  0,  0,  0,  0,  0,  0,  0,  0, 33,  0,  0,  0, 34, 21,  0, 27,  0,  0, 36, 32
6, 10978, 2,KD9TQD,     0.32, -60,   8, 3,   boost,   75.94,  99193.00,  179.00,   10.58,   45.00, 18.4, 8.28, 0.00, 4.14,  85.23,   1.34,   0.00, -51.33,   2.20,  -3.42,   0.80,   0.40,   0.04,   3.00, 8.33, 8.28, 0.00, 0.00, 0.00, 1, 1, 11,  41.4880298, -89.4985985,   231.0, 2023, 11, 18, 17, 18, 50,        0,        1,  85, -83,   1.5,   0.8,   1.2,  0, 36, 37,  0,  0,  0,  0,  0,  0, 28,  0, 30,  0,  0,  0,  0,  0,  0,  0,  0, 33,  0,  0,  0, 34, 21,  0, 27,  0,  0, 36, 32
6, 10978, 2,KD9TQD,     0.40, -60,  10, 3,   boost,   77.95,  99106.00,  186.37,   17.95,   53.44, 18.4, 8.28, 0.00, 4.14,  85.88,   1.35,   1.26, -95.52,   2.20,  -1.22,   0.80,   0.41,   0.06,   4.00, 8.33, 8.28, 0.00, 0.00, 0.00, 1, 1, 11,  41.4880298, -89.4985985,   231.0, 2023, 11, 18, 17, 18, 50,        0,        1,  85, -83,   1.5,   0.8,   1.2,  0, 36, 37,  0,  0,  0,  0,  0,  0, 28,  0, 30,  0,  0,  0,  0,  0,  0,  0,  0, 33,  0,  0,  0, 34, 21,  0, 27,  0,  0, 36, 32
6, 10978, 2,KD9TQD,     0.43, -60,  12, 3,   boost,   77.95,  99106.00,  186.37,   17.95,   53.44, 18.4, 8.28, 0.00, 4.14,  85.88,   1.35,   1.26, -95.52,   2.20,  -1.22,   0.80,   0.41,   0.06,   4.00, 8.31, 8.28, 0.00, 0.00, 0.00, 1, 1, 11,  41.4880298, -89.4985985,   231.0, 2023, 11, 18, 17, 18, 50,        0,        1,  85, -83,   1.5,   0.8,   1.2,  0, 36, 37,  0,  0,  0,  0,  0,  0, 28,  0, 30,  0,  0,  0,  0,  0,  0,  0,  0, 33,  0,  0,  0, 34, 21,  0, 27,  0,  0, 36, 32
6, 10978, 2,KD9TQD,     0.43, -61,   7, 3,   boost,   77.95,  99106.00,  186.37,   17.95,   53.44, 18.4, 8.28, 0.00, 4.14,  85.88,   1.35,   1.26, -95.52,   2.20,  -1.22,   0.80,   0.41,   0.06,   4.00, 8.31, 8.28, 0.00, 0.00, 0.00, 1, 1, 11,  41.4880298, -89.4985985,   231.0, 2023, 11, 18, 17, 18, 50,        0,        1,  85, -83,   1.5,   0.8,   1.2,  0, 36, 37,  0,  0,  0,  0,  0,  0, 28,  0, 30,  0,  0,  0,  0,  0,  0,  0,  0, 33,  0,  0,  0, 34, 21,  0, 27,  0,  0, 36, 32
6, 10978, 2,KD9TQD,     0.51, -60,   5, 3,   boost,   76.44,  98982.00,  196.89,   28.47,   61.91, 18.4, 8.28, 0.00, 4.14,  85.68,   1.82,   1.23,-207.09,  -0.92,   9.52,   0.81,   0.42,   0.13,   4.00, 8.31, 8.28, 0.00, 0.00, 0.00, 1, 1, 11,  41.4880298, -89.4985985,   231.0, 2023, 11, 18, 17, 18, 50,        0,        1,  85, -83,   1.5,   0.8,   1.2,  0, 36, 37,  0,  0,  0,  0,  0,  0, 28,  0, 30,  0,  0,  0,  0,  0,  0,  0,  0, 33,  0,  0,  0, 34, 21,  0, 27,  0,  0, 36, 32
6, 10978, 2,KD9TQD,     0.54, -61,   8, 3,   boost,   76.44,  98982.00,  196.89,   28.47,   61.91, 18.4, 8.28, 0.00, 4.14,  85.68,   1.82,   1.23,-207.09,  -0.92,   9.52,   0.81,   0.42,   0.13,   4.00, 8.31, 8.28, 0.00, 0.00, 0.00, 1, 1, 11,  41.4880298, -89.4985985,   231.0, 2023, 11, 18, 17, 18, 50,        0,        1,  85, -83,   1.5,   0.8,   1.2,  0, 36, 37,  0,  0,  0,  0,  0,  0, 28,  0, 30,  0,  0,  0,  0,  0,  0,  0,  0, 33,  0,  0,  0, 34, 21,  0, 27,  0,  0, 36, 32
6, 10978, 2,KD9TQD,     0.62, -63,  16, 3,   boost,   77.45,  98843.00,  208.69,   40.26,   70.36, 18.4, 8.28, 0.00, 4.14,  85.54,   1.40,   1.01,-274.41,   3.72,  19.17,   0.81,   0.38,   0.23,   3.00, 8.31, 8.28, 0.00, 0.00, 0.00, 1, 1, 11,  41.4880298, -89.4985985,   231.0, 2023, 11, 18, 17, 18, 50,        0,        1,  85, -83,   1.5,   0.8,   1.2,  0, 36, 37,  0,  0,  0,  0,  0,  0, 28,  0, 30,  0,  0,  0,  0,  0,  0,  0,  0, 33,  0,  0,  0, 34, 21,  0, 27,  0,  0, 36, 32
6, 10978, 2,KD9TQD,     0.65, -64,  11, 3,   boost,   77.45,  98843.00,  208.69,   40.26,   70.36, 18.4, 8.28, 0.00, 4.14,  85.54,   1.40,   1.01,-274.41,   3.72,  19.17,   0.81,   0.38,   0.23,   3.00, 8.32, 8.28, 0.00, 0.00, 0.00, 1, 1, 11,  41.4880298, -89.4985985,   231.0, 2023, 11, 18, 17, 18, 50,        0,        1,  85, -83,   1.5,   0.8,   1.2,  0, 36, 37,  0,  0,  0,  0,  0,  0, 28,  0, 30,  0,  0,  0,  0,  0,  0,  0,  0, 33,  0,  0,  0, 34, 21,  0, 27,  0,  0, 36, 32
6, 10978, 2,KD9TQD,     0.73, -67,   7, 3,   boost,   76.44,  98621.00,  227.56,   59.14,   78.81, 18.4, 8.28, 0.00, 4.14,  84.78,   0.80,   0.42,-265.08,  13.67,  21.61,   0.82,   0.29,   0.29,   3.00, 8.32, 8.28, 0.00, 0.00, 0.00, 1, 1, 11,  41.4880298, -89.4985985,   231.0, 2023, 11, 18, 17, 18, 50,        0,        1,  85, -83,   1.5,   0.8,   1.2,  0, 36, 37,  0,  0,  0,  0,  0,  0, 28,  0, 30,  0,  0,  0,  0,  0,  0,  0,  0, 33,  0,  0,  0, 34, 21,  0, 27,  0,  0, 36, 32
6, 10978, 2,KD9TQD,     0.76, -67,   6, 3,   boost,   76.44,  98621.00,  227.56,   59.14,   78.81, 18.4, 8.28, 0.00, 4.14,  84.78,   0.80,   0.42,-265.08,  13.67,  21.61,   0.82,   0.29,   0.29,   3.00, 8.33, 8.28, 0.00, 0.00, 0.00, 1, 1, 11,  41.4880298, -89.4985985,   231.0, 2023, 11, 18, 17, 18, 50,        0,        1,  85, -83,   1.5,   0.8,   1.2,  0, 36, 37,  0,  0,  0,  0,  0,  0, 28,  0, 30,  0,  0,  0,  0,  0,  0,  0,  0, 33,  0,  0,  0, 34, 21,  0, 27,  0,  0, 36, 32
6, 10978, 2,KD9TQD,     0.84, -68,   5, 3,   boost,   73.93,  98486.00,  239.05,   70.63,   87.06, 18.4, 8.28, 0.00, 4.14,  83.94,   0.46,   0.97,-212.59,  20.51,  23.07,   0.83,   0.19,   0.29,   4.00, 8.33, 8.28, 0.00, 0.00, 0.00, 1, 1, 11,  41.4880298, -89.4985985,   231.0, 2023, 11, 18, 17, 18, 50,        0,        1,  85, -83,   1.5,   0.8,   1.2,  0, 36, 37,  0,  0,  0,  0,  0,  0, 28,  0, 30,  0,  0,  0,  0,  0,  0,  0,  0, 33,  0,  0,  0, 34, 21,  0, 27,  0,  0, 36, 32
6, 10978, 2,KD9TQD,     0.87, -68,   7, 3,   boost,   73.93,  98486.00,  239.05,   70.63,   87.06, 18.4, 8.28, 0.00, 4.14,  83.94,   0.46,   0.97,-212.59,  20.51,  23.07,   0.83,   0.19,   0.29,   4.00, 8.31, 8.28, 0.00, 0.00, 0.00, 1, 1, 11,  41.4880298, -89.4985985,   231.0, 2023, 11, 18, 17, 18, 50,        0,        1,  85, -83,   1.5,   0.8,   1.2,  0, 36, 37,  0,  0,  0,  0,  0,  0, 28,  0, 30,  0,  0,  0,  0,  0,  0,  0,  0, 33,  0,  0,  0, 34, 21,  0, 27,  0,  0, 36, 32
6, 10978, 2,KD9TQD,     0.95, -66,   8, 3,   boost,   74.43,  98276.00,  256.95,   88.53,   95.17, 18.4, 8.28, 0.00, 4.14,  82.22,   0.66,   2.76,-184.14,  21.48,  17.46,   0.83,   0.12,   0.25,   7.00, 8.31, 8.28, 0.00, 0.00, 0.00, 1, 1, 11,  41.4880298, -89.4985985,   231.0, 2023, 11, 18, 17, 18, 50,        0,        1,  85, -83,   1.5,   0.8,   1.2,  0, 36, 37,  0,  0,  0,  0,  0,  0, 28,  0, 30,  0,  0,  0,  0,  0,  0,  0,  0, 33,  0,  0,  0, 34, 21,  0, 27,  0,  0, 36, 32
6, 10978, 2,KD9TQD,     0.98, -66,   6, 3,   boost,   74.43,  98276.00,  256.95,   88.53,   95.17, 18.4, 8.28, 0.00, 4.15,  82.22,   0.66,   2.76,-184.14,  21.48,  17.46,   0.83,   0.12,   0.25,   7.00, 8.34, 8.28, 0.00, 0.00, 0.00, 1, 1, 11,  41.4880298, -89.4985985,   231.0, 2023, 11, 18, 17, 18, 50,        0,        1,  85, -83,   1.5,   0.8,   1.2,  0, 36, 37,  0,  0,  0,  0,  0,  0, 28,  0, 30,  0,  0,  0,  0,  0,  0,  0,  0, 33,  0,  0,  0, 34, 21,  0, 27,  0,  0, 36, 32
6, 10978, 2,KD9TQD,     1.06, -66,   8, 3,   boost,   71.41,  98111.00,  271.04,  102.62,  103.12, 18.4, 8.28, 0.00, 4.15,  80.18,   2.60,   3.67,-200.01,  10.68,  14.53,   0.83,   0.07,   0.19,   8.00, 8.34, 8.28, 0.00, 0.00, 0.00, 1, 1, 11,  41.4880298, -89.4985985,   231.0, 2023, 11, 18, 17, 18, 50,        0,        1,  85, -83,   1.5,   0.8,   1.2,  0, 36, 37,  0,  0,  0,  0,  0,  0, 28,  0, 30,  0,  0,  0,  0,  0,  0,  0,  0, 33,  0,  0,  0, 34, 21,  0, 27,  0,  0, 36, 32
6, 10978, 2,KD9TQD,     1.09, -66,   6, 3,   boost,   71.41,  98111.00,  271.04,  102.62,  103.12, 18.4, 8.28, 0.00, 4.14,  80.18,   2.60,   3.67,-200.01,  10.68,  14.53,   0.83,   0.07,   0.19,   8.00, 8.31, 8.28, 0.00, 0.00, 0.00, 1, 1, 11,  41.4880298, -89.4985985,   231.0, 2023, 11, 18, 17, 18, 50,        0,        1,  85, -83,   1.5,   0.8,   1.2,  0, 36, 37,  0,  0,  0,  0,  0,  0, 28,  0, 30,  0,  0,  0,  0,  0,  0,  0,  0, 33,  0,  0,  0, 34, 21,  0, 27,  0,  0, 36, 32
6, 10978, 2,KD9TQD,     1.17, -64,   6, 3,   boost,   68.90,  97752.00,  301.76,  133.34,  110.74, 18.4, 8.28, 0.00, 4.14,  77.69,   2.59,   4.45,-233.89,   6.41,  17.70,   0.82,   0.05,   0.12,   9.00, 8.31, 8.28, 0.00, 0.00, 0.00, 1, 1, 11,  41.4880298, -89.4985985,   231.0, 2023, 11, 18, 17, 18, 50,        0,        1,  85, -83,   1.5,   0.8,   1.2,  0, 36, 37,  0,  0,  0,  0,  0,  0, 28,  0, 30,  0,  0,  0,  0,  0,  0,  0,  0, 33,  0,  0,  0, 34, 21,  0, 27,  0,  0, 36, 32
6, 10978, 2,KD9TQD,     1.20, -64,   8, 3,   boost,   68.90,  97752.00,  301.76,  133.34,  110.74, 18.4, 8.28, 0.00, 4.14,  77.69,   2.59,   4.45,-233.89,   6.41,  17.70,   0.82,   0.05,   0.12,   9.00, 8.32, 8.28, 0.00, 0.00, 0.00, 1, 1, 11,  41.4880298, -89.4985985,   231.0, 2023, 11, 18, 17, 18, 50,        0,        1,  85, -83,   1.5,   0.8,   1.2,  0, 36, 37,  0,  0,  0,  0,  0,  0, 28,  0, 30,  0,  0,  0,  0,  0,  0,  0,  0, 33,  0,  0,  0, 34, 21,  0, 27,  0,  0, 36, 32
6, 10978, 2,KD9TQD,     1.28, -63,   6, 3,   boost,   65.38,  97477.00,  325.36,  156.93,  118.03, 18.3, 8.28, 0.00, 4.14,  75.03,   2.12,   3.91,-207.09,   1.95,  14.95,   0.81,   0.05,   0.05,   8.00, 8.32, 8.28, 0.00, 0.00, 0.00, 1, 1, 11,  41.4880298, -89.4985985,   231.0, 2023, 11, 18, 17, 18, 50,        0,        1,  85, -83,   1.5,   0.8,   1.2,  0, 36, 37,  0,  0,  0,  0,  0,  0, 28,  0, 30,  0,  0,  0,  0,  0,  0,  0,  0, 33,  0,  0,  0, 34, 21,  0, 27,  0,  0, 36, 32
6, 10978, 2,KD9TQD,     1.31, -63,   5, 3,   boost,   65.38,  97477.00,  325.36,  156.93,  118.03, 18.3, 8.28, 0.00, 4.14,  75.03,   2.12,   3.91,-207.09,   1.95,  14.95,   0.81,   0.05,   0.05,   8.00, 8.32, 8.28, 0.00, 0.00, 0.00, 1, 1, 11,  41.4880298, -89.4985985,   231.0, 2023, 11, 18, 17, 18, 50,        0,        1,  85, -83,   1.5,   0.8,   1.2,  0, 36, 37,  0,  0,  0,  0,  0,  0, 28,  0, 30,  0,  0,  0,  0,  0,  0,  0,  0, 33,  0,  0,  0, 34, 21,  0, 27,  0,  0, 36, 32
6, 10978, 2,KD9TQD,     1.39, -63,   6, 3,   boost,   61.86,  97085.00,  359.08,  190.66,  124.96, 18.4, 8.28, 0.00, 4.14,  72.52,   1.88,   3.07,-143.43,   0.49,  11.41,   0.81,   0.07,  -0.00,   7.00, 8.32, 8.28, 0.00, 0.00, 0.00, 1, 1, 11,  41.4880298, -89.4985985,   231.0, 2023, 11, 18, 17, 18, 50,        0,        1,  85, -83,   1.5,   0.8,   1.2,  0, 36, 37,  0,  0,  0,  0,  0,  0, 28,  0, 30,  0,  0,  0,  0,  0,  0,  0,  0, 33,  0,  0,  0, 34, 21,  0, 27,  0,  0, 36, 32
6, 10978, 2,KD9TQD,     1.42, -63,   5, 3,   boost,   61.86,  97085.00,  359.08,  190.66,  124.96, 18.4, 8.28, 0.00, 4.14,  72.52,   1.88,   3.07,-143.43,   0.49,  11.41,   0.81,   0.07,  -0.00,   7.00, 8.33, 8.28, 0.00, 0.00, 0.00, 1, 1, 11,  41.4880298, -89.4985985,   231.0, 2023, 11, 18, 17, 18, 50,        0,        1,  85, -83,   1.5,   0.8,   1.2,  0, 19, 29,  0,  0,  0,  0,  0,  0, 13,  0, 34,  0,  0,  0,  0,  0,  0,  0,  0, 25,  0,  0,  0, 33, 24,  0, 22,  0,  0, 25, 26
6, 10978, 2,KD9TQD,     1.42, -62,   9, 3,   boost,   61.86,  97085.00,  359.08,  190.66,  124.96, 18.4, 8.28, 0.00, 4.14,  72.52,   1.88,   3.07,-143.43,   0.49,  11.41,   0.81,   0.07,  -0.00,   7.00, 8.33, 8.28, 0.00, 0.00, 0.00, 1, 1, 11,  41.4880298, -89.4985985,   231.0, 2023, 11, 18, 17, 18, 50,        0,        1,  85, -83,   1.5,   0.8,   1.2,  0, 19, 29,  0,  0,  0,  0,  0,  0, 13,  0, 34,  0,  0,  0,  0,  0,  0,  0,  0, 25,  0,  0,  0, 33, 24,  0, 22,  0,  0, 25, 26
6, 10978, 2,KD9TQD,     1.50, -63,   6, 3,   boost,   61.35,  96806.00,  383.15,  214.73,  131.67, 18.3, 8.28, 0.00, 4.14,  71.25,   2.44,   2.64, -59.33,  -0.31,   1.89,   0.81,   0.09,  -0.02,   7.00, 8.33, 8.28, 0.00, 0.00, 0.00, 1, 1, 11,  41.4880298, -89.4985985,   231.0, 2023, 11, 18, 17, 18, 50,        0,        1,  85, -83,   1.5,   0.8,   1.2,  0, 19, 29,  0,  0,  0,  0,  0,  0, 13,  0, 34,  0,  0,  0,  0,  0,  0,  0,  0, 25,  0,  0,  0, 33, 24,  0, 22,  0,  0, 25, 26
6, 10978, 2,KD9TQD,     1.53, -63,   6, 3,   boost,   61.35,  96806.00,  383.15,  214.73,  131.67, 18.3, 8.28, 0.00, 4.14,  71.25,   2.44,   2.64, -59.33,  -0.31,   1.89,   0.81,   0.09,  -0.02,   7.00, 8.31, 8.28, 0.00, 0.00, 0.00, 1, 1, 11,  41.4880298, -89.4985985,   231.0, 2023, 11, 18, 17, 18, 50,        0,        1,  85, -83,   1.5,   0.8,   1.2,  0, 19, 29,  0,  0,  0,  0,  0,  0, 13,  0, 34,  0,  0,  0,  0,  0,  0,  0,  0, 25,  0,  0,  0, 33, 24,  0, 22,  0,  0, 25, 26
6, 10978, 2,KD9TQD,     1.61, -63,   6, 3,   boost,   22.63,  96541.00,  406.07,  237.64,  136.25, 18.4, 8.28, 0.00, 4.14,  40.05,   4.07,   3.07,   4.21,  -0.43,  -9.40,   0.81,   0.10,  -0.03,   7.00, 8.31, 8.28, 0.00, 0.00, 0.00, 1, 1, 11,  41.4880298, -89.4985985,   231.0, 2023, 11, 18, 17, 18, 50,        0,        1,  85, -83,   1.5,   0.8,   1.2,  0, 19, 29,  0,  0,  0,  0,  0,  0, 13,  0, 34,  0,  0,  0,  0,  0,  0,  0,  0, 25,  0,  0,  0, 33, 24,  0, 22,  0,  0, 25, 26
6, 10978, 2,KD9TQD,     1.64, -63,   5, 3,   boost,   22.63,  96541.00,  406.07,  237.64,  136.25, 18.4, 8.28, 0.00, 4.14,  40.05,   4.07,   3.07,   4.21,  -0.43,  -9.40,   0.81,   0.10,  -0.03,   7.00, 8.33, 8.28, 0.00, 0.00, 0.00, 1, 1, 11,  41.4880298, -89.4985985,   231.0, 2023, 11, 18, 17, 18, 50,        0,        1,  85, -83,   1.5,   0.8,   1.2,  0, 19, 29,  0,  0,  0,  0,  0,  0, 13,  0, 34,  0,  0,  0,  0,  0,  0,  0,  0, 25,  0,  0,  0, 33, 24,  0, 22,  0,  0, 25, 26
6, 10978, 2,KD9TQD,     1.72, -63,   9, 3,   boost,  -16.60,  96341.00,  423.40,  254.97,  136.57, 18.4, 8.28, 0.00, 4.14,  -6.81,   7.09,   2.46,  31.98,  -6.90, -29.11,   0.81,   0.11,  -0.02,   9.00, 8.33, 8.28, 0.00, 0.00, 0.00, 1, 1, 11,  41.4880298, -89.4985985,   231.0, 2023, 11, 18, 17, 18, 50,        0,        1,  85, -83,   1.5,   0.8,   1.2,  0, 19, 29,  0,  0,  0,  0,  0,  0, 13,  0, 34,  0,  0,  0,  0,  0,  0,  0,  0, 25,  0,  0,  0, 33, 24,  0, 22,  0,  0, 25, 26
6, 10978, 2,KD9TQD,     1.75, -64,   6, 3,   boost,  -16.60,  96341.00,  423.40,  254.97,  136.57, 18.4, 8.28, 0.00, 4.14,  -6.81,   7.09,   2.46,  31.98,  -6.90, -29.11,   0.81,   0.11,  -0.02,   9.00, 8.32, 8.28, 0.00, 0.00, 0.00, 1, 1, 11,  41.4880298, -89.4985985,   231.0, 2023, 11, 18, 17, 18, 50,        0,        1,  85, -83,   1.5,   0.8,   1.2,  0, 19, 29,  0,  0,  0,  0,  0,  0, 13,  0, 34,  0,  0,  0,  0,  0,  0,  0,  0, 25,  0,  0,  0, 33, 24,  0, 22,  0,  0, 25, 26
6, 10978, 2,KD9TQD,     1.83, -64,   6, 3,   boost,  -17.10,  96129.00,  441.79,  273.37,  134.73, 18.3, 8.28, 0.00, 4.14,  -6.97,   9.99,   0.56, -19.29, -11.96, -18.37,   0.82,   0.13,  -0.01,  11.00, 8.32, 8.28, 0.00, 0.00, 0.00, 1, 1, 11,  41.4880298, -89.4985985,   231.0, 2023, 11, 18, 17, 18, 50,        0,        1,  85, -83,   1.5,   0.8,   1.2,  0, 19, 29,  0,  0,  0,  0,  0,  0, 13,  0, 34,  0,  0,  0,  0,  0,  0,  0,  0, 25,  0,  0,  0, 33, 24,  0, 22,  0,  0, 25, 26
6, 10978, 2,KD9TQD,     1.86, -64,   8, 5,   coast,  -17.10,  96129.00,  441.79,  273.37,  134.73, 18.3, 8.22, 0.00, 4.14,  -6.97,   9.99,   0.56, -19.29, -11.96, -18.37,   0.82,   0.13,  -0.01,  11.00, 8.28, 0.00, 0.00, 0.00, 0.00, 1, 1, 11,  41.4880298, -89.4985985,   231.0, 2023, 11, 18, 17, 18, 50,        0,        1,  85, -83,   1.5,   0.8,   1.2,  0, 19, 29,  0,  0,  0,  0,  0,  0, 13,  0, 34,  0,  0,  0,  0,  0,  0,  0,  0, 25,  0,  0,  0, 33, 24,  0, 22,  0,  0, 25, 26
6, 10978, 2,KD9TQD,     1.94, -65,   8, 5,   coast,  -17.60,  96058.00,  447.96,  279.54,  132.84, 18.3, 8.22, 0.00, 4.14,  -6.66,   9.84,  -2.16, -26.49,  -4.76,  -2.38,   0.82,   0.14,  -0.00,  11.00, 8.28, 0.00, 0.00, 0.00, 0.00, 1, 1, 11,  41.4880298, -89.4985985,   231.0, 2023, 11, 18, 17, 18, 50,        0,        1,  85, -83,   1.5,   0.8,   1.2,  0, 19, 29,  0,  0,  0,  0,  0,  0, 13,  0, 34,  0,  0,  0,  0,  0,  0,  0,  0, 25,  0,  0,  0, 33, 24,  0, 22,  0,  0, 25, 26
6, 10978, 2,KD9TQD,     1.97, -64,   6, 5,   coast,  -17.60,  96058.00,  447.96,  279.54,  132.84, 18.3, 8.28, 0.00, 4.14,  -6.66,   9.84,  -2.16, -26.49,  -4.76,  -2.38,   0.82,   0.14,  -0.00,  11.00, 8.30, 8.16, 0.00, 0.00, 0.00, 1, 1, 11,  41.4880298, -89.4985985,   231.0, 2023, 11, 18, 17, 18, 50,        0,        1,  85, -83,   1.5,   0.8,   1.2,  0, 19, 29,  0,  0,  0,  0,  0,  0, 13,  0, 34,  0,  0,  0,  0,  0,  0,  0,  0, 25,  0,  0,  0, 33, 24,  0, 22,  0,  0, 25, 26
6, 10978, 2,KD9TQD,     2.03, -67,   9, 5,   coast,  -17.60,  96058.00,  447.96,  279.54,  132.84, 18.3, 8.28, 0.00, 4.14,  -6.66,   9.84,  -2.16, -26.49,  -4.76,  -2.38,   0.82,   0.14,  -0.00,  11.00, 8.30, 8.16, 0.00, 0.00, 0.00, 1, 1, 10,  41.4880918, -89.4985775,   346.0, 2023, 11, 18, 17, 18, 52,        7,      114,  15,  86,   1.8,   1.2,   1.4,  0, 19, 29,  0,  0,  0,  0,  0,  0, 13,  0, 34,  0,  0,  0,  0,  0,  0,  0,  0, 25,  0,  0,  0, 33, 24,  0, 22,  0,  0, 25, 26
6, 10978, 2,KD9TQD,     2.05, -64,   6, 5,   coast,  -15.09,  95969.00,  455.70,  287.28,  131.06, 18.3, 8.28, 0.00, 4.14,  -6.49,   8.53,  -1.36, -11.78,  11.84,   5.68,   0.82,   0.14,  -0.01,  11.00, 8.30, 8.16, 0.00, 0.00, 0.00, 1, 1, 10,  41.4880918, -89.4985775,   346.0, 2023, 11, 18, 17, 18, 52,        7,      114,  15,  86,   1.8,   1.2,   1.4,  0, 19, 29,  0,  0,  0,  0,  0,  0, 13,  0, 34,  0,  0,  0,  0,  0,  0,  0,  0, 25,  0,  0,  0, 33, 24,  0, 22,  0,  0, 25, 26
6, 10978, 2,KD9TQD,     2.08, -64,   4, 5,   coast,  -15.09,  95969.00,  455.70,  287.28,  131.06, 18.3, 8.28, 0.00, 4.14,  -6.49,   8.53,  -1.36, -11.78,  11.84,   5.68,   0.82,   0.14,  -0.01,  11.00, 8.32, 4.69, 0.00, 0.00, 0.00, 1, 1, 10,  41.4880918, -89.4985775,   346.0, 2023, 11, 18, 17, 18, 52,        7,      114,  15,  86,   1.8,   1.2,   1.4,  0, 19, 29,  0,  0,  0,  0,  0,  0, 13,  0, 34,  0,  0,  0,  0,  0,  0,  0,  0, 25,  0,  0,  0, 33, 24,  0, 22,  0,  0, 25, 26
6, 10978, 2,KD9TQD,     2.16, -64,   9, 5,   coast,   55.82,  95995.00,  453.44,  285.02,  133.23, 18.3, 8.28, 0.00, 4.14,  50.81,   6.31,   0.03,  -0.79,  15.26,   9.52,   0.82,   0.14,  -0.03,  11.00, 8.32, 4.69, 0.00, 0.00, 0.00, 1, 1, 10,  41.4880918, -89.4985775,   346.0, 2023, 11, 18, 17, 18, 52,        7,      114,  15,  86,   1.8,   1.2,   1.4,  0, 19, 29,  0,  0,  0,  0,  0,  0, 13,  0, 34,  0,  0,  0,  0,  0,  0,  0,  0, 25,  0,  0,  0, 33, 24,  0, 22,  0,  0, 25, 26
6, 10978, 2,KD9TQD,     2.19, -64,   7, 5,   coast,   55.82,  95995.00,  453.44,  285.02,  133.23, 18.3, 8.28, 0.00, 4.15,  50.81,   6.31,   0.03,  -0.79,  15.26,   9.52,   0.82,   0.14,  -0.03,  11.00, 8.32, 0.36, 0.00, 0.00, 0.00, 1, 1, 10,  41.4880918, -89.4985775,   346.0, 2023, 11, 18, 17, 18, 52,        7,      114,  15,  86,   1.8,   1.2,   1.4,  0, 19, 29,  0,  0,  0,  0,  0,  0, 13,  0, 34,  0,  0,  0,  0,  0,  0,  0,  0, 25,  0,  0,  0, 33, 24,  0, 22,  0,  0, 25, 26
6, 10978, 2,KD9TQD,     2.27, -65,   6, 5,   coast,   43.25,  95427.00,  502.96,  334.53,  138.60, 18.3, 8.28, 0.00, 4.15,  52.55,  -0.68,  -5.20,  94.97, -23.19,  26.79,   0.81,   0.10,   0.01,   7.00, 8.32, 0.36, 0.00, 0.00, 0.00, 1, 1, 10,  41.4880918, -89.4985775,   346.0, 2023, 11, 18, 17, 18, 52,        7,      114,  15,  86,   1.8,   1.2,   1.4,  0, 19, 29,  0,  0,  0,  0,  0,  0, 13,  0, 34,  0,  0,  0,  0,  0,  0,  0,  0, 25,  0,  0,  0, 33, 24,  0, 22,  0,  0, 25, 26
6, 10978, 2,KD9TQD,     2.30, -66,   9, 5,   coast,   43.25,  95427.00,  502.96,  334.53,  138.60, 18.3, 8.28, 0.00, 4.14,  52.55,  -0.68,  -5.20,  94.97, -23.19,  26.79,   0.81,   0.10,   0.01,   7.00, 8.32, 4.50, 0.00, 0.00, 0.00, 1, 1, 10,  41.4880918, -89.4985775,   346.0, 2023, 11, 18, 17, 18, 52,        7,      114,  15,  86,   1.8,   1.2,   1.4,  0, 19, 29,  0,  0,  0,  0,  0,  0, 13,  0, 34,  0,  0,  0,  0,  0,  0,  0,  0, 25,  0,  0,  0, 33, 24,  0, 22,  0,  0, 25, 26
6, 10978, 2,KD9TQD,     2.38, -67,   6, 5,   coast,   44.76,  95293.00,  514.67,  346.25,  143.39, 18.3, 8.28, 0.00, 4.14,  54.23,  -1.15,  -1.06, 236.39,  36.99, -10.62,   0.81,   0.07,   0.04,   7.00, 8.32, 4.50, 0.00, 0.00, 0.00, 1, 1, 10,  41.4880918, -89.4985775,   346.0, 2023, 11, 18, 17, 18, 52,        7,      114,  15,  86,   1.8,   1.2,   1.4,  0, 19, 29,  0,  0,  0,  0,  0,  0, 13,  0, 34,  0,  0,  0,  0,  0,  0,  0,  0, 25,  0,  0,  0, 33, 24,  0, 22,  0,  0, 25, 26
6, 10978, 2,KD9TQD,     2.41, -67,   6, 5,   coast,   44.76,  95293.00,  514.67,  346.25,  143.39, 18.3, 8.28, 0.00, 4.14,  54.23,  -1.15,  -1.06, 236.39,  36.99, -10.62,   0.81,   0.07,   0.04,   7.00, 8.31, 8.28, 0.00, 0.00, 0.00, 1, 1, 10,  41.4880918, -89.4985775,   346.0, 2023, 11, 18, 17, 18, 52,        7,      114,  15,  86,   1.8,   1.2,   1.4,  0, 19, 29,  0,  0,  0,  0,  0,  0, 13,  0, 34,  0,  0,  0,  0,  0,  0,  0,  0, 25,  0,  0,  0, 33, 24,  0, 22,  0,  0, 25, 26
6, 10978, 2,KD9TQD,     2.49, -69,   7, 5,   coast,   47.27,  95149.00,  527.28,  358.85,  148.37, 18.3, 8.28, 0.00, 4.14,  55.12,   1.21,   3.40, 227.78,  11.11, -18.80,   0.82,   0.05,   0.08,  11.00, 8.31, 8.28, 0.00, 0.00, 0.00, 1, 1, 10,  41.4880918, -89.4985775,   346.0, 2023, 11, 18, 17, 18, 52,        7,      114,  15,  86,   1.8,   1.2,   1.4,  0, 19, 29,  0,  0,  0,  0,  0,  0, 13,  0, 34,  0,  0,  0,  0,  0,  0,  0,  0, 25,  0,  0,  0, 33, 24,  0, 22,  0,  0, 25, 26
6, 10978, 2,KD9TQD,     2.52, -70,  12, 3,   boost,   47.27,  95149.00,  527.28,  358.85,  148.37, 18.3, 8.28, 0.00, 4.14,  55.12,   1.21,   3.40, 227.78,  11.11, -18.80,   0.82,   0.05,   0.08,  11.00, 8.32, 8.28, 0.00, 0.00, 0.00, 1, 1, 10,  41.4880918, -89.4985775,   346.0, 2023, 11, 18, 17, 18, 52,        7,      114,  15,  86,   1.8,   1.2,   1.4,  0, 33, 17,  0,  0,  0,  0,  0,  0, 12,  0, 33,  0,  0,  0,  0,  0,  0,  0,  0, 32,  0,  0,  0, 26, 34,  0, 19,  0,  0, 21, 31
6, 10978, 2,KD9TQD,     2.52, -70,   8, 3,   boost,   47.27,  95149.00,  527.28,  358.85,  148.37, 18.3, 8.28, 0.00, 4.14,  55.12,   1.21,   3.40, 227.78,  11.11, -18.80,   0.82,   0.05,   0.08,  11.00, 8.32, 8.28, 0.00, 0.00, 0.00, 1, 1, 10,  41.4880918, -89.4985775,   346.0, 2023, 11, 18, 17, 18, 52,        7,      114,  15,  86,   1.8,   1.2,   1.4,  0, 33, 17,  0,  0,  0,  0,  0,  0, 12,  0, 33,  0,  0,  0,  0,  0,  0,  0,  0, 32,  0,  0,  0, 26, 34,  0, 19,  0,  0, 21, 31
6, 10978, 2,KD9TQD,     2.60, -71,   6, 3,   boost,   48.28,  94747.00,  562.55,  394.13,  153.52, 18.3, 8.28, 0.00, 4.14,  55.48,   3.33,   0.49, 180.36, -23.38, -18.13,   0.82,   0.06,   0.16,  10.00, 8.32, 8.28, 0.00, 0.00, 0.00, 1, 1, 10,  41.4880918, -89.4985775,   346.0, 2023, 11, 18, 17, 18, 52,        7,      114,  15,  86,   1.8,   1.2,   1.4,  0, 33, 17,  0,  0,  0,  0,  0,  0, 12,  0, 33,  0,  0,  0,  0,  0,  0,  0,  0, 32,  0,  0,  0, 26, 34,  0, 19,  0,  0, 21, 31
6, 10978, 2,KD9TQD,     2.63, -72,   6, 3,   boost,   48.28,  94747.00,  562.55,  394.13,  153.52, 18.3, 8.28, 0.00, 4.14,  55.48,   3.33,   0.49, 180.36, -23.38, -18.13,   0.82,   0.06,   0.16,  10.00, 8.32, 8.22, 0.00, 0.00, 0.00, 1, 1, 10,  41.4880918, -89.4985775,   346.0, 2023, 11, 18, 17, 18, 52,        7,      114,  15,  86,   1.8,   1.2,   1.4,  0, 33, 17,  0,  0,  0,  0,  0,  0, 12,  0, 33,  0,  0,  0,  0,  0,  0,  0,  0, 32,  0,  0,  0, 26, 34,  0, 19,  0,  0, 21, 31
6, 10978, 2,KD9TQD,     2.71, -73,   5, 3,   boost,   46.27,  94330.00,  599.27,  430.84,  158.64, 18.3, 8.28, 0.00, 4.14,  55.84,   2.44,  -0.46, 205.20,   0.31,   9.22,   0.82,   0.09,   0.22,   9.00, 8.32, 8.22, 0.00, 0.00, 0.00, 1, 1, 10,  41.4880918, -89.4985775,   346.0, 2023, 11, 18, 17, 18, 52,        7,      114,  15,  86,   1.8,   1.2,   1.4,  0, 33, 17,  0,  0,  0,  0,  0,  0, 12,  0, 33,  0,  0,  0,  0,  0,  0,  0,  0, 32,  0,  0,  0, 26, 34,  0, 19,  0,  0, 21, 31
6, 10978, 2,KD9TQD,     2.74, -76,   7, 3,   boost,   46.27,  94330.00,  599.27,  430.84,  158.64, 18.3, 8.28, 0.00, 4.14,  55.84,   2.44,  -0.46, 205.20,   0.31,   9.22,   0.82,   0.09,   0.22,   9.00, 8.32,13.76, 0.06, 0.00, 0.00, 1, 1, 10,  41.4880918, -89.4985775,   346.0, 2023, 11, 18, 17, 18, 52,        7,      114,  15,  86,   1.8,   1.2,   1.4,  0, 33, 17,  0,  0,  0,  0,  0,  0, 12,  0, 33,  0,  0,  0,  0,  0,  0,  0,  0, 32,  0,  0,  0, 26, 34,  0, 19,  0,  0, 21, 31
6, 10978, 2,KD9TQD,     2.82, -80,   7, 3,   boost,   45.76,  94077.00,  621.61,  453.18,  163.61, 18.3, 8.28, 0.00, 4.14,  56.76,   0.19,   0.63, 240.84,   5.74,  -6.47,   0.82,   0.13,   0.26,  10.00, 8.32,13.76, 0.06, 0.00, 0.00, 1, 1, 10,  41.4880918, -89.4985775,   346.0, 2023, 11, 18, 17, 18, 52,        7,      114,  15,  86,   1.8,   1.2,   1.4,  0, 33, 17,  0,  0,  0,  0,  0,  0, 12,  0, 33,  0,  0,  0,  0,  0,  0,  0,  0, 32,  0,  0,  0, 26, 34,  0, 19,  0,  0, 21, 31
6, 10978, 2,KD9TQD,     2.85, -81,   6, 3,   boost,   45.76,  94077.00,  621.61,  453.18,  163.61, 18.3, 8.28, 0.00, 4.14,  56.76,   0.19,   0.63, 240.84,   5.74,  -6.47,   0.82,   0.13,   0.26,  10.00, 8.33, 6.69, 0.00, 0.00, 0.00, 1, 1, 10,  41.4880918, -89.4985775,   346.0, 2023, 11, 18, 17, 18, 52,        7,      114,  15,  86,   1.8,   1.2,   1.4,  0, 33, 17,  0,  0,  0,  0,  0,  0, 12,  0, 33,  0,  0,  0,  0,  0,  0,  0,  0, 32,  0,  0,  0, 26, 34,  0, 19,  0,  0, 21, 31
6, 10978, 2,KD9TQD,     3.03, -91,   9, 3,   boost,   45.76,  94077.00,  621.61,  453.18,  163.61, 18.3, 8.28, 0.00, 4.14,  56.76,   0.19,   0.63, 240.84,   5.74,  -6.47,   0.82,   0.13,   0.26,  10.00, 8.33, 6.69, 0.00, 0.00, 0.00, 1, 1,  8,  41.4879635, -89.4984998,   459.0, 2023, 11, 18, 17, 18, 53,       11,      227, 131,  87,   3.0,   2.5,   1.5,  0, 33, 17,  0,  0,  0,  0,  0,  0, 12,  0, 33,  0,  0,  0,  0,  0,  0,  0,  0, 32,  0,  0,  0, 26, 34,  0, 19,  0,  0, 21, 31
6, 10978, 2,KD9TQD,     3.04, -85,   6, 3,   boost,   45.76,  93327.00,  688.12,  519.70,  173.53, 18.3, 8.28, 0.00, 4.14,  56.06,   3.19,  -0.77, 217.65, -10.13,   4.39,   0.82,   0.27,   0.27,   8.00, 8.33, 6.69, 0.00, 0.00, 0.00, 1, 1,  8,  41.4879635, -89.4984998,   459.0, 2023, 11, 18, 17, 18, 53,       11,      227, 131,  87,   3.0,   2.5,   1.5,  0, 33, 17,  0,  0,  0,  0,  0,  0, 12,  0, 33,  0,  0,  0,  0,  0,  0,  0,  0, 32,  0,  0,  0, 26, 34,  0, 19,  0,  0, 21, 31
6, 10978, 2,KD9TQD,     3.07, -84,   6, 3,   boost,   45.76,  93327.00,  688.12,  519.70,  173.53, 18.3, 8.28, 0.00, 4.14,  56.06,   3.19,  -0.77, 217.65, -10.13,   4.39,   0.82,   0.27,   0.27,   8.00, 8.32, 0.18, 0.00, 0.00, 0.00, 1, 1,  8,  41.4879635, -89.4984998,   459.0, 2023, 11, 18, 17, 18, 53,       11,      227, 131,  87,   3.0,   2.5,   1.5,  0, 33, 17,  0,  0,  0,  0,  0,  0, 12,  0, 33,  0,  0,  0,  0,  0,  0,  0,  0, 32,  0,  0,  0, 26, 34,  0, 19,  0,  0, 21, 31
6, 10978, 2,KD9TQD,     3.15, -82,   5, 3,   boost,   47.27,  92932.00,  723.33,  554.90,  178.59, 18.3, 8.28, 0.00, 4.14,  55.23,   1.61,   0.72, 253.97,   4.64,  -0.61,   0.82,   0.33,   0.23,   8.00, 8.32, 0.18, 0.00, 0.00, 0.00, 1, 1,  8,  41.4879635, -89.4984998,   459.0, 2023, 11, 18, 17, 18, 53,       11,      227, 131,  87,   3.0,   2.5,   1.5,  0, 33, 17,  0,  0,  0,  0,  0,  0, 12,  0, 33,  0,  0,  0,  0,  0,  0,  0,  0, 32,  0,  0,  0, 26, 34,  0, 19,  0,  0, 21, 31
6, 10978, 2,KD9TQD,     3.18, -81,   7, 3,   boost,   47.27,  92932.00,  723.33,  554.90,  178.59, 18.3, 8.28, 0.00, 4.14,  55.23,   1.61,   0.72, 253.97,   4.64,  -0.61,   0.82,   0.33,   0.23,   8.00, 8.31, 0.00, 0.00, 0.00, 0.00, 1, 1,  8,  41.4879635, -89.4984998,   459.0, 2023, 11, 18, 17, 18, 53,       11,      227, 131,  87,   3.0,   2.5,   1.5,  0, 33, 17,  0,  0,  0,  0,  0,  0, 12,  0, 33,  0,  0,  0,  0,  0,  0,  0,  0, 32,  0,  0,  0, 26, 34,  0, 19,  0,  0, 21, 31
6, 10978, 2,KD9TQD,     3.26, -81,  12, 3,   boost,   44.76,  92590.00,  753.90,  585.48,  183.59, 18.3, 8.28, 0.00, 4.14,  54.59,   1.79,   1.54, 276.92,  -2.56,  -9.70,   0.82,   0.36,   0.16,   8.00, 8.31, 0.00, 0.00, 0.00, 0.00, 1, 1,  8,  41.4879635, -89.4984998,   459.0, 2023, 11, 18, 17, 18, 53,       11,      227, 131,  87,   3.0,   2.5,   1.5,  0, 33, 17,  0,  0,  0,  0,  0,  0, 12,  0, 33,  0,  0,  0,  0,  0,  0,  0,  0, 32,  0,  0,  0, 26, 34,  0, 19,  0,  0, 21, 31
6, 10978, 2,KD9TQD,     3.29, -81,   5, 3,   boost,   44.76,  92590.00,  753.90,  585.48,  183.59, 18.3, 8.28, 0.00, 4.14,  54.59,   1.79,   1.54, 276.92,  -2.56,  -9.70,   0.82,   0.36,   0.16,   8.00, 8.32, 8.28, 0.00, 0.00, 0.00, 1, 1,  8,  41.4879635, -89.4984998,   459.0, 2023, 11, 18, 17, 18, 53,       11,      227, 131,  87,   3.0,   2.5,   1.5,  0, 33, 17,  0,  0,  0,  0,  0,  0, 12,  0, 33,  0,  0,  0,  0,  0,  0,  0,  0, 32,  0,  0,  0, 26, 34,  0, 19,  0,  0, 21, 31
6, 10978, 2,KD9TQD,     3.37, -84,   9, 3,   boost,   45.76,  91976.00,  809.03,  640.61,  188.51, 18.3, 8.28, 0.00, 4.14,  54.96,   1.16,  -0.50, 292.05,  -3.60,  -5.07,   0.82,   0.36,   0.07,   8.00, 8.32, 8.28, 0.00, 0.00, 0.00, 1, 1,  8,  41.4879635, -89.4984998,   459.0, 2023, 11, 18, 17, 18, 53,       11,      227, 131,  87,   3.0,   2.5,   1.5,  0, 33, 17,  0,  0,  0,  0,  0,  0, 12,  0, 33,  0,  0,  0,  0,  0,  0,  0,  0, 32,  0,  0,  0, 26, 34,  0, 19,  0,  0, 21, 31
6, 10978, 2,KD9TQD,     3.40, -87,  11, 3,   boost,   45.76,  91976.00,  809.03,  640.61,  188.51, 18.3, 8.28, 0.00, 4.14,  54.96,   1.16,  -0.50, 292.05,  -3.60,  -5.07,   0.82,   0.36,   0.07,   8.00, 8.31, 1.70, 0.00, 0.00, 0.00, 1, 1,  8,  41.4879635, -89.4984998,   459.0, 2023, 11, 18, 17, 18, 53,       11,      227, 131,  87,   3.0,   2.5,   1.5,  0, 33, 17,  0,  0,  0,  0,  0,  0, 12,  0, 33,  0,  0,  0,  0,  0,  0,  0,  0, 32,  0,  0,  0, 26, 34,  0, 19,  0,  0, 21, 31
6, 10978, 2,KD9TQD,     3.48, -93,  12, 3,   boost,   45.76,  91756.00,  828.86,  660.44,  193.48, 18.3, 8.28, 0.00, 4.14,  54.58,   1.46,   1.07, 315.06,   3.54, -12.70,   0.81,   0.31,  -0.00,   8.00, 8.31, 1.70, 0.00, 0.00, 0.00, 1, 1,  8,  41.4879635, -89.4984998,   459.0, 2023, 11, 18, 17, 18, 53,       11,      227, 131,  87,   3.0,   2.5,   1.5,  0, 33, 17,  0,  0,  0,  0,  0,  0, 12,  0, 33,  0,  0,  0,  0,  0,  0,  0,  0, 32,  0,  0,  0, 26, 34,  0, 19,  0,  0, 21, 31
6, 10978, 2,KD9TQD,     3.51, -96,   8, 3,   boost,   45.76,  91756.00,  828.86,  660.44,  193.48, 18.3, 8.28, 0.00, 4.14,  54.58,   1.46,   1.07, 315.06,   3.54, -12.70,   0.81,   0.31,  -0.00,   8.00, 8.30, 1.28, 0.00, 0.00, 0.00, 1, 1,  8,  41.4879635, -89.4984998,   459.0, 2023, 11, 18, 17, 18, 53,       11,      227, 131,  87,   3.0,   2.5,   1.5,  0, 33, 17,  0,  0,  0,  0,  0,  0, 12,  0, 33,  0,  0,  0,  0,  0,  0,  0,  0, 32,  0,  0,  0, 26, 34,  0, 19,  0,  0, 21, 31
6, 10978, 2,KD9TQD,     3.59, -83,   9, 3,   boost,   46.77,  91261.00,  873.61,  705.19,  198.50, 18.2, 8.28, 0.00, 4.14,  53.87,   1.82,   1.35, 329.10,  -4.15,  -8.24,   0.81,   0.22,  -0.04,   9.00, 8.30, 1.28, 0.00, 0.00, 0.00, 1, 1,  8,  41.4879635, -89.4984998,   459.0, 2023, 11, 18, 17, 18, 53,       11,      227, 131,  87,   3.0,   2.5,   1.5,  0, 33, 17,  0,  0,  0,  0,  0,  0, 12,  0, 33,  0,  0,  0,  0,  0,  0,  0,  0, 32,  0,  0,  0, 26, 34,  0, 19,  0,  0, 21, 31
6, 10978, 2,KD9TQD,     3.62, -81,   5, 3,   boost,   46.77,  91261.00,  873.61,  705.19,  198.50, 18.2, 8.28, 0.00, 4.14,  53.87,   1.82,   1.35, 329.10,  -4.15,  -8.24,   0.81,   0.22,  -0.04,   9.00, 8.34, 8.22, 0.00, 0.00, 0.00, 1, 1,  8,  41.4879635, -89.4984998,   459.0, 2023, 11, 18, 17, 18, 53,       11,      227, 131,  87,   3.0,   2.5,   1.5,  0,  0, 15,  0,  0,  0,  0,  0,  0,  0,  0, 36,  0,  0,  0,  0,  0,  0,  0,  0, 26,  0,  0,  0, 34, 25,  0,  9,  0,  0, 18, 38
6, 10978, 2,KD9TQD,     3.62, -80,   7, 3,   boost,   46.77,  91261.00,  873.61,  705.19,  198.50, 18.2, 8.28, 0.00, 4.14,  53.87,   1.82,   1.35, 329.10,  -4.15,  -8.24,   0.81,   0.22,  -0.04,   9.00, 8.34, 8.22, 0.00, 0.00, 0.00, 1, 1,  8,  41.4879635, -89.4984998,   459.0, 2023, 11, 18, 17, 18, 53,       11,      227, 131,  87,   3.0,   2.5,   1.5,  0,  0, 15,  0,  0,  0,  0,  0,  0,  0,  0, 36,  0,  0,  0,  0,  0,  0,  0,  0, 26,  0,  0,  0, 34, 25,  0,  9,  0,  0, 18, 38
6, 10978, 2,KD9TQD,     3.70, -78,   8, 3,   boost,   47.27,  90856.00,  910.37,  741.94,  203.59, 18.3, 8.28, 0.00, 4.14,  54.31,   2.21,  -0.06, 333.74,   0.73,  -5.55,   0.81,   0.13,  -0.02,  10.00, 8.34, 8.22, 0.00, 0.00, 0.00, 1, 1,  8,  41.4879635, -89.4984998,   459.0, 2023, 11, 18, 17, 18, 53,       11,      227, 131,  87,   3.0,   2.5,   1.5,  0,  0, 15,  0,  0,  0,  0,  0,  0,  0,  0, 36,  0,  0,  0,  0,  0,  0,  0,  0, 26,  0,  0,  0, 34, 25,  0,  9,  0,  0, 18, 38
6, 10978, 2,KD9TQD,     3.73, -76,   6, 3,   boost,   47.27,  90856.00,  910.37,  741.94,  203.59, 18.3, 8.28, 0.00, 4.14,  54.31,   2.21,  -0.06, 333.74,   0.73,  -5.55,   0.81,   0.13,  -0.02,  10.00, 8.33, 1.34, 0.00, 0.00, 0.00, 1, 1,  8,  41.4879635, -89.4984998,   459.0, 2023, 11, 18, 17, 18, 53,       11,      227, 131,  87,   3.0,   2.5,   1.5,  0,  0, 15,  0,  0,  0,  0,  0,  0,  0,  0, 36,  0,  0,  0,  0,  0,  0,  0,  0, 26,  0,  0,  0, 34, 25,  0,  9,  0,  0, 18, 38
6, 10978, 2,KD9TQD,     3.81, -76,   6, 3,   boost,   41.24,  90417.00,  950.36,  781.94,  208.37, 18.3, 8.28, 0.00, 4.14,  53.63,   0.78,   0.73, 357.73,  -4.94, -13.49,   0.81,   0.06,   0.06,  10.00, 8.33, 1.34, 0.00, 0.00, 0.00, 1, 1,  8,  41.4879635, -89.4984998,   459.0, 2023, 11, 18, 17, 18, 53,       11,      227, 131,  87,   3.0,   2.5,   1.5,  0,  0, 15,  0,  0,  0,  0,  0,  0,  0,  0, 36,  0,  0,  0,  0,  0,  0,  0,  0, 26,  0,  0,  0, 34, 25,  0,  9,  0,  0, 18, 38
6, 10978, 2,KD9TQD,     3.84, -77,   7, 3,   boost,   41.24,  90417.00,  950.36,  781.94,  208.37, 18.3, 8.28, 0.00, 4.14,  53.63,   0.78,   0.73, 357.73,  -4.94, -13.49,   0.81,   0.06,   0.06,  10.00, 8.31, 1.22, 0.00, 0.00, 0.00, 1, 1,  8,  41.4879635, -89.4984998,   459.0, 2023, 11, 18, 17, 18, 53,       11,      227, 131,  87,   3.0,   2.5,   1.5,  0,  0, 15,  0,  0,  0,  0,  0,  0,  0,  0, 36,  0,  0,  0,  0,  0,  0,  0,  0, 26,  0,  0,  0, 34, 25,  0,  9,  0,  0, 18, 38
6, 10978, 2,KD9TQD,     3.92, -79,   4, 3,   boost,   41.74,  89940.00,  994.00,  825.58,  212.85, 18.2, 8.28, 0.00, 4.14,  52.62,   1.37,  -0.45, 362.18,  -0.92,  -2.26,   0.82,   0.06,   0.17,  10.00, 8.31, 1.22, 0.00, 0.00, 0.00, 1, 1,  8,  41.4879635, -89.4984998,   459.0, 2023, 11, 18, 17, 18, 53,       11,      227, 131,  87,   3.0,   2.5,   1.5,  0,  0, 15,  0,  0,  0,  0,  0,  0,  0,  0, 36,  0,  0,  0,  0,  0,  0,  0,  0, 26,  0,  0,  0, 34, 25,  0,  9,  0,  0, 18, 38
6, 10978, 2,KD9TQD,     3.95, -80,   6, 3,   boost,   41.74,  89940.00,  994.00,  825.58,  212.85, 18.2, 8.28, 0.00, 4.14,  52.62,   1.37,  -0.45, 362.18,  -0.92,  -2.26,   0.82,   0.06,   0.17,  10.00, 8.33, 0.73, 0.00, 0.00, 0.00, 1, 1,  8,  41.4879635, -89.4984998,   459.0, 2023, 11, 18, 17, 18, 53,       11,      227, 131,  87,   3.0,   2.5,   1.5,  0,  0, 15,  0,  0,  0,  0,  0,  0,  0,  0, 36,  0,  0,  0,  0,  0,  0,  0,  0, 26,  0,  0,  0, 34, 25,  0,  9,  0,  0, 18, 38
6, 10978, 2,KD9TQD,     4.03, -88,   9, 3,   boost,   41.74,  89412.00, 1042.52,  874.10,  217.35, 18.2, 8.28, 0.00, 4.14,  51.81,   1.83,   1.24, 361.57,  -1.59,  -0.31,   0.82,   0.13,   0.26,  10.00, 8.33, 0.73, 0.00, 0.00, 0.00, 1, 1,  7,  41.4876986, -89.4983864,   609.0, 2023, 11, 18, 17, 18, 54,       41,      379, 154,  84,   3.9,   3.1,   2.4,  0,  0, 15,  0,  0,  0,  0,  0,  0,  0,  0, 36,  0,  0,  0,  0,  0,  0,  0,  0, 26,  0,  0,  0, 34, 25,  0,  9,  0,  0, 18, 38
6, 10978, 2,KD9TQD,     4.03, -80,   7, 3,   boost,   41.74,  89412.00, 1042.52,  874.10,  217.35, 18.2, 8.28, 0.00, 4.14,  51.81,   1.83,   1.24, 361.57,  -1.59,  -0.31,   0.82,   0.13,   0.26,  10.00, 8.33, 0.73, 0.00, 0.00, 0.00, 1, 1,  7,  41.4876986, -89.4983864,   609.0, 2023, 11, 18, 17, 18, 54,       41,      379, 154,  84,   3.9,   3.1,   2.4,  0,  0, 15,  0,  0,  0,  0,  0,  0,  0,  0, 36,  0,  0,  0,  0,  0,  0,  0,  0, 26,  0,  0,  0, 34, 25,  0,  9,  0,  0, 18, 38
6, 10978, 2,KD9TQD,     4.06, -94,  19, 3,   boost,   41.74,  89412.00, 1042.52,  874.10,  217.35, 18.2, 8.28, 0.00, 4.14,  51.81,   1.83,   1.24, 361.57,  -1.59,  -0.31,   0.82,   0.13,   0.26,  10.00, 8.31, 8.22, 0.00, 0.00, 0.00, 1, 1,  7,  41.4876986, -89.4983864,   609.0, 2023, 11, 18, 17, 18, 54,       41,      379, 154,  84,   3.9,   3.1,   2.4,  0,  0, 15,  0,  0,  0,  0,  0,  0,  0,  0, 36,  0,  0,  0,  0,  0,  0,  0,  0, 26,  0,  0,  0, 34, 25,  0,  9,  0,  0, 18, 38
6, 10978, 2,KD9TQD,     4.14, -84,   9, 3,   boost,   42.75,  88908.00, 1089.05,  920.63,  221.92, 18.2, 8.28, 0.00, 4.14,  51.20,   1.21,  -0.74, 392.64,   4.03, -12.08,   0.82,   0.24,   0.28,   9.00, 8.31, 8.22, 0.00, 0.00, 0.00, 1, 1,  7,  41.4876986, -89.4983864,   609.0, 2023, 11, 18, 17, 18, 54,       41,      379, 154,  84,   3.9,   3.1,   2.4,  0,  0, 15,  0,  0,  0,  0,  0,  0,  0,  0, 36,  0,  0,  0,  0,  0,  0,  0,  0, 26,  0,  0,  0, 34, 25,  0,  9,  0,  0, 18, 38
6, 10978, 2,KD9TQD,     4.17, -82,   8, 3,   boost,   42.75,  88908.00, 1089.05,  920.63,  221.92, 18.2, 8.28, 0.00, 4.14,  51.20,   1.21,  -0.74, 392.64,   4.03, -12.08,   0.82,   0.24,   0.28,   9.00, 8.31, 8.28, 0.00, 0.00, 0.00, 1, 1,  7,  41.4876986, -89.4983864,   609.0, 2023, 11, 18, 17, 18, 54,       41,      379, 154,  84,   3.9,   3.1,   2.4,  0,  0, 15,  0,  0,  0,  0,  0,  0,  0,  0, 36,  0,  0,  0,  0,  0,  0,  0,  0, 26,  0,  0,  0, 34, 25,  0,  9,  0,  0, 18, 38
6, 10978, 2,KD9TQD,     4.25, -78,   5, 3,   boost,   36.71,  88519.00, 1125.11,  956.69,  226.22, 18.2, 8.28, 0.00, 4.14,  50.21,   1.70,   0.22, 389.65,  -9.95,  -8.91,   0.82,   0.34,   0.22,   9.00, 8.31, 8.28, 0.00, 0.00, 0.00, 1, 1,  7,  41.4876986, -89.4983864,   609.0, 2023, 11, 18, 17, 18, 54,       41,      379, 154,  84,   3.9,   3.1,   2.4,  0,  0, 15,  0,  0,  0,  0,  0,  0,  0,  0, 36,  0,  0,  0,  0,  0,  0,  0,  0, 26,  0,  0,  0, 34, 25,  0,  9,  0,  0, 18, 38
6, 10978, 2,KD9TQD,     4.28, -78,   8, 3,   boost,   36.71,  88519.00, 1125.11,  956.69,  226.22, 18.2, 8.28, 0.00, 4.15,  50.21,   1.70,   0.22, 389.65,  -9.95,  -8.91,   0.82,   0.34,   0.22,   9.00, 8.35, 8.04, 0.00, 0.00, 0.00, 1, 1,  7,  41.4876986, -89.4983864,   609.0, 2023, 11, 18, 17, 18, 54,       41,      379, 154,  84,   3.9,   3.1,   2.4,  0,  0, 15,  0,  0,  0,  0,  0,  0,  0,  0, 36,  0,  0,  0,  0,  0,  0,  0,  0, 26,  0,  0,  0, 34, 25,  0,  9,  0,  0, 18, 38
6, 10978, 2,KD9TQD,     4.36, -79,   7, 3,   boost,   21.62,  88465.00, 1130.13,  961.71,  229.38, 18.3, 8.28, 0.00, 4.15,  51.84,   0.57,  -0.85, 422.42,  14.16,  -5.07,   0.82,   0.37,   0.10,   9.00, 8.35, 8.04, 0.00, 0.00, 0.00, 1, 1,  7,  41.4876986, -89.4983864,   609.0, 2023, 11, 18, 17, 18, 54,       41,      379, 154,  84,   3.9,   3.1,   2.4,  0,  0, 15,  0,  0,  0,  0,  0,  0,  0,  0, 36,  0,  0,  0,  0,  0,  0,  0,  0, 26,  0,  0,  0, 34, 25,  0,  9,  0,  0, 18, 38
6, 10978, 2,KD9TQD,     4.39, -81,   5, 3,   boost,   21.62,  88465.00, 1130.13,  961.71,  229.38, 18.3, 8.28, 0.00, 4.14,  51.84,   0.57,  -0.85, 422.42,  14.16,  -5.07,   0.82,   0.37,   0.10,   9.00, 8.32, 2.62, 0.00, 0.00, 0.00, 1, 1,  7,  41.4876986, -89.4983864,   609.0, 2023, 11, 18, 17, 18, 54,       41,      379, 154,  84,   3.9,   3.1,   2.4,  0,  0, 15,  0,  0,  0,  0,  0,  0,  0,  0, 36,  0,  0,  0,  0,  0,  0,  0,  0, 26,  0,  0,  0, 34, 25,  0,  9,  0,  0, 18, 38
6, 10978, 2,KD9TQD,     4.47, -88,   7, 3,   boost,    8.55,  88429.00, 1133.47,  965.05,  231.00, 18.2, 8.28, 0.00, 4.14,  49.63,  -0.46,   2.53, 417.85,  18.55, -17.88,   0.81,   0.30,  -0.02,   9.00, 8.32, 2.62, 0.00, 0.00, 0.00, 1, 1,  7,  41.4876986, -89.4983864,   609.0, 2023, 11, 18, 17, 18, 54,       41,      379, 154,  84,   3.9,   3.1,   2.4,  0,  0, 15,  0,  0,  0,  0,  0,  0,  0,  0, 36,  0,  0,  0,  0,  0,  0,  0,  0, 26,  0,  0,  0, 34, 25,  0,  9,  0,  0, 18, 38
6, 10978, 2,KD9TQD,     4.58, -84,   7, 3,   boost,   55.32,  88131.00, 1161.21,  992.79,  234.44, 18.2, 8.28, 0.00, 4.14,  47.35,   1.73,  -0.24, 522.71, -49.19,  -5.19,   0.81,   0.17,  -0.05,  11.00, 8.32, 2.62, 0.00, 0.00, 0.00, 1, 1,  7,  41.4876986, -89.4983864,   609.0, 2023, 11, 18, 17, 18, 54,       41,      379, 154,  84,   3.9,   3.1,   2.4,  0,  0, 15,  0,  0,  0,  0,  0,  0,  0,  0, 36,  0,  0,  0,  0,  0,  0,  0,  0, 26,  0,  0,  0, 34, 25,  0,  9,  0,  0, 18, 38
6, 10978, 2,KD9TQD,     4.61, -81,   7, 3,   boost,   55.32,  88131.00, 1161.21,  992.79,  234.44, 18.2, 8.28, 0.00, 4.14,  47.35,   1.73,  -0.24, 522.71, -49.19,  -5.19,   0.81,   0.17,  -0.05,  11.00, 8.31, 0.79, 0.00, 0.00, 0.00, 1, 1,  7,  41.4876986, -89.4983864,   609.0, 2023, 11, 18, 17, 18, 54,       41,      379, 154,  84,   3.9,   3.1,   2.4,  0,  0, 15,  0,  0,  0,  0,  0,  0,  0,  0, 36,  0,  0,  0,  0,  0,  0,  0,  0, 26,  0,  0,  0, 34, 25,  0,  9,  0,  0, 18, 38
6, 10978, 2,KD9TQD,     4.69, -78,  16, 3,   boost,   62.36,  87717.00, 1199.87, 1031.44,  240.73, 18.3, 8.28, 0.00, 4.14,  54.06,   2.00,  -0.79, 352.05,  11.66, -12.82,   0.81,   0.06,   0.05,  14.00, 8.31, 0.79, 0.00, 0.00, 0.00, 1, 1,  7,  41.4876986, -89.4983864,   609.0, 2023, 11, 18, 17, 18, 54,       41,      379, 154,  84,   3.9,   3.1,   2.4,  0,  0, 15,  0,  0,  0,  0,  0,  0,  0,  0, 36,  0,  0,  0,  0,  0,  0,  0,  0, 26,  0,  0,  0, 34, 25,  0,  9,  0,  0, 18, 38
6, 10978, 2,KD9TQD,     4.72, -79,   6, 3,   boost,   62.36,  87717.00, 1199.87, 1031.44,  240.73, 18.3, 8.28, 0.00, 4.14,  54.06,   2.00,  -0.79, 352.05,  11.66, -12.82,   0.81,   0.06,   0.05,  14.00, 8.31, 0.18, 0.00, 0.00, 0.00, 1, 1,  7,  41.4876986, -89.4983864,   609.0, 2023, 11, 18, 17, 18, 54,       41,      379, 154,  84,   3.9,   3.1,   2.4,  0, 28, 12,  0,  0,  0,  0,  0,  0, 28,  0, 39,  0,  0,  0,  0,  0,  0,  0,  0, 32,  0,  0,  0, 34, 31,  0,  0,  0,  0, 12, 37
6, 10978, 2,KD9TQD,     4.72, -79,   7, 3,   boost,   62.36,  87717.00, 1199.87, 1031.44,  240.73, 18.3, 8.28, 0.00, 4.14,  54.06,   2.00,  -0.79, 352.05,  11.66, -12.82,   0.81,   0.06,   0.05,  14.00, 8.31, 0.18, 0.00, 0.00, 0.00, 1, 1,  7,  41.4876986, -89.4983864,   609.0, 2023, 11, 18, 17, 18, 54,       41,      379, 154,  84,   3.9,   3.1,   2.4,  0, 28, 12,  0,  0,  0,  0,  0,  0, 28,  0, 39,  0,  0,  0,  0,  0,  0,  0,  0, 32,  0,  0,  0, 34, 31,  0,  0,  0,  0, 12, 37
6, 10978, 2,KD9TQD,     4.80, -81,  14, 3,   boost,  -19.11,  87413.00, 1228.35, 1059.92,  243.01, 18.3, 8.28, 0.00, 4.14,  53.40,   5.72,  -7.79, 392.15, -87.52, -12.08,   0.82,   0.07,   0.19,  16.00, 8.31, 0.18, 0.00, 0.00, 0.00, 1, 1,  7,  41.4876986, -89.4983864,   609.0, 2023, 11, 18, 17, 18, 54,       41,      379, 154,  84,   3.9,   3.1,   2.4,  0, 28, 12,  0,  0,  0,  0,  0,  0, 28,  0, 39,  0,  0,  0,  0,  0,  0,  0,  0, 32,  0,  0,  0, 34, 31,  0,  0,  0,  0, 12, 37
6, 10978, 2,KD9TQD,     4.83, -85,   5, 3,   boost,  -19.11,  87413.00, 1228.35, 1059.92,  243.01, 18.3, 8.28, 0.00, 4.14,  53.40,   5.72,  -7.79, 392.15, -87.52, -12.08,   0.82,   0.07,   0.19,  16.00, 8.33, 7.55, 0.00, 0.00, 0.00, 1, 1,  7,  41.4876986, -89.4983864,   609.0, 2023, 11, 18, 17, 18, 54,       41,      379, 154,  84,   3.9,   3.1,   2.4,  0, 28, 12,  0,  0,  0,  0,  0,  0, 28,  0, 39,  0,  0,  0,  0,  0,  0,  0,  0, 32,  0,  0,  0, 34, 31,  0,  0,  0,  0, 12, 37
6, 10978, 2,KD9TQD,     4.91, -86,  16, 3,   boost,    2.51,  86543.00, 1310.30, 1141.88,  242.09, 18.3, 8.28, 0.00, 4.14,  53.52,   3.98, -10.38, 415.22,  10.56, -32.59,   0.83,   0.18,   0.28,  15.00, 8.33, 7.55, 0.00, 0.00, 0.00, 1, 1,  7,  41.4876986, -89.4983864,   609.0, 2023, 11, 18, 17, 18, 54,       41,      379, 154,  84,   3.9,   3.1,   2.4,  0, 28, 12,  0,  0,  0,  0,  0,  0, 28,  0, 39,  0,  0,  0,  0,  0,  0,  0,  0, 32,  0,  0,  0, 34, 31,  0,  0,  0,  0, 12, 37
6, 10978, 2,KD9TQD,     4.94, -87,   8, 3,   boost,    2.51,  86543.00, 1310.30, 1141.88,  242.09, 18.3, 8.28, 0.00, 4.15,  53.52,   3.98, -10.38, 415.22,  10.56, -32.59,   0.83,   0.18,   0.28,  15.00, 8.32, 0.55, 0.00, 0.00, 0.00, 1, 1,  7,  41.4876986, -89.4983864,   609.0, 2023, 11, 18, 17, 18, 54,       41,      379, 154,  84,   3.9,   3.1,   2.4,  0, 28, 12,  0,  0,  0,  0,  0,  0, 28,  0, 39,  0,  0,  0,  0,  0,  0,  0,  0, 32,  0,  0,  0, 34, 31,  0,  0,  0,  0, 12, 37
6, 10978, 2,KD9TQD,     5.02, -80,  10, 3,   boost,   64.87,  86028.00, 1359.13, 1190.70,  245.65, 18.3, 8.28, 0.00, 4.15,  44.54,   3.87,  -3.15, 454.16, -14.16,   6.90,   0.83,   0.32,   0.24,  14.00, 8.32, 0.55, 0.00, 0.00, 0.00, 1, 1,  7,  41.4876986, -89.4983864,   609.0, 2023, 11, 18, 17, 18, 54,       41,      379, 154,  84,   3.9,   3.1,   2.4,  0, 28, 12,  0,  0,  0,  0,  0,  0, 28,  0, 39,  0,  0,  0,  0,  0,  0,  0,  0, 32,  0,  0,  0, 34, 31,  0,  0,  0,  0, 12, 37
6, 10978, 2,KD9TQD,     5.03, -81,   6, 3,   boost,   64.87,  86028.00, 1359.13, 1190.70,  245.65, 18.3, 8.28, 0.00, 4.15,  44.54,   3.87,  -3.15, 454.16, -14.16,   6.90,   0.83,   0.32,   0.24,  14.00, 8.32, 0.55, 0.00, 0.00, 0.00, 1, 1,  7,  41.4874843, -89.4984664,   811.0, 2023, 11, 18, 17, 18, 55,       62,      582, 170,  84,   1.9,   1.2,   1.5,  0, 28, 12,  0,  0,  0,  0,  0,  0, 28,  0, 39,  0,  0,  0,  0,  0,  0,  0,  0, 32,  0,  0,  0, 34, 31,  0,  0,  0,  0, 12, 37
6, 10978, 2,KD9TQD,     5.05, -79,   9, 3,   boost,   64.87,  86028.00, 1359.13, 1190.70,  245.65, 18.3, 8.28, 0.00, 4.15,  44.54,   3.87,  -3.15, 454.16, -14.16,   6.90,   0.83,   0.32,   0.24,  14.00, 8.34, 8.16, 0.00, 0.00, 0.00, 1, 1,  7,  41.4874843, -89.4984664,   811.0, 2023, 11, 18, 17, 18, 55,       62,      582, 170,  84,   1.9,   1.2,   1.5,  0, 28, 12,  0,  0,  0,  0,  0,  0, 28,  0, 39,  0,  0,  0,  0,  0,  0,  0,  0, 32,  0,  0,  0, 34, 31,  0,  0,  0,  0, 12, 37
6, 10978, 2,KD9TQD,     5.13, -81,  13, 3,   boost,    3.02,  85313.00, 1427.31, 1258.88,  249.25, 18.3, 8.28, 0.00, 4.15,  28.78,  -0.09,   8.51, 383.48,  78.00, -26.79,   0.82,   0.37,   0.09,  13.00, 8.34, 8.16, 0.00, 0.00, 0.00, 1, 1,  7,  41.4874843, -89.4984664,   811.0, 2023, 11, 18, 17, 18, 55,       62,      582, 170,  84,   1.9,   1.2,   1.5,  0, 28, 12,  0,  0,  0,  0,  0,  0, 28,  0, 39,  0,  0,  0,  0,  0,  0,  0,  0, 32,  0,  0,  0, 34, 31,  0,  0,  0,  0, 12, 37
6, 10978, 2,KD9TQD,     5.16, -83,  10, 3,   boost,    3.02,  85313.00, 1427.31, 1258.88,  249.25, 18.3, 8.28, 0.00, 4.14,  28.78,  -0.09,   8.51, 383.48,  78.00, -26.79,   0.82,   0.37,   0.09,  13.00, 8.32, 0.49, 0.00, 0.00, 0.00, 1, 1,  7,  41.4874843, -89.4984664,   811.0, 2023, 11, 18, 17, 18, 55,       62,      582, 170,  84,   1.9,   1.2,   1.5,  0, 28, 12,  0,  0,  0,  0,  0,  0, 28,  0, 39,  0,  0,  0,  0,  0,  0,  0,  0, 32,  0,  0,  0, 34, 31,  0,  0,  0,  0, 12, 37
6, 10978, 2,KD9TQD,     5.27, -88,  12, 3,   boost,    3.02,  85313.00, 1427.31, 1258.88,  249.25, 18.3, 8.28, 0.00, 4.14,  28.78,  -0.09,   8.51, 383.48,  78.00, -26.79,   0.82,   0.37,   0.09,  13.00, 8.32, 1.95, 0.00, 0.00, 0.00, 1, 1,  7,  41.4874843, -89.4984664,   811.0, 2023, 11, 18, 17, 18, 55,       62,      582, 170,  84,   1.9,   1.2,   1.5,  0, 28, 12,  0,  0,  0,  0,  0,  0, 28,  0, 39,  0,  0,  0,  0,  0,  0,  0,  0, 32,  0,  0,  0, 34, 31,  0,  0,  0,  0, 12, 37
6, 10978, 2,KD9TQD,     5.35, -80,   8, 3,   boost,   54.31,  84319.00, 1522.87, 1354.44,  255.17, 18.3, 8.28, 0.00, 4.14,  30.45,  -0.41,  24.10, 534.00,   7.63,  -0.98,   0.82,   0.10,  -0.00,  18.00, 8.32, 1.95, 0.00, 0.00, 0.00, 1, 1,  7,  41.4874843, -89.4984664,   811.0, 2023, 11, 18, 17, 18, 55,       62,      582, 170,  84,   1.9,   1.2,   1.5,  0, 28, 12,  0,  0,  0,  0,  0,  0, 28,  0, 39,  0,  0,  0,  0,  0,  0,  0,  0, 32,  0,  0,  0, 34, 31,  0,  0,  0,  0, 12, 37
6, 10978, 2,KD9TQD,     5.38, -79,   6, 3,   boost,   54.31,  84319.00, 1522.87, 1354.44,  255.17, 18.3, 8.28, 0.00, 4.14,  30.45,  -0.41,  24.10, 534.00,   7.63,  -0.98,   0.82,   0.10,  -0.00,  18.00, 8.32, 7.55, 0.00, 0.00, 0.00, 1, 1,  7,  41.4874843, -89.4984664,   811.0, 2023, 11, 18, 17, 18, 55,       62,      582, 170,  84,   1.9,   1.2,   1.5,  0, 28, 12,  0,  0,  0,  0,  0,  0, 28,  0, 39,  0,  0,  0,  0,  0,  0,  0,  0, 32,  0,  0,  0, 34, 31,  0,  0,  0,  0, 12, 37
6, 10978, 2,KD9TQD,     5.46, -82,   7, 3,   boost,  104.60,  84030.00, 1550.82, 1382.40,  263.40, 18.3, 8.28, 0.00, 4.14,  33.73,   0.93,  -2.63, 446.35,  23.25, -15.87,   0.82,   0.06,   0.16,  19.00, 8.32, 7.55, 0.00, 0.00, 0.00, 1, 1,  7,  41.4874843, -89.4984664,   811.0, 2023, 11, 18, 17, 18, 55,       62,      582, 170,  84,   1.9,   1.2,   1.5,  0, 28, 12,  0,  0,  0,  0,  0,  0, 28,  0, 39,  0,  0,  0,  0,  0,  0,  0,  0, 32,  0,  0,  0, 34, 31,  0,  0,  0,  0, 12, 37
6, 10978, 2,KD9TQD,     5.49, -84,  14, 3,   boost,  104.60,  84030.00, 1550.82, 1382.40,  263.40, 18.3, 8.28, 0.00, 4.14,  33.73,   0.93,  -2.63, 446.35,  23.25, -15.87,   0.82,   0.06,   0.16,  19.00, 8.31, 7.30, 0.00, 0.00, 0.00, 1, 1,  7,  41.4874843, -89.4984664,   811.0, 2023, 11, 18, 17, 18, 55,       62,      582, 170,  84,   1.9,   1.2,   1.5,  0, 28, 12,  0,  0,  0,  0,  0,  0, 28,  0, 39,  0,  0,  0,  0,  0,  0,  0,  0, 32,  0,  0,  0, 34, 31,  0,  0,  0,  0, 12, 37
6, 10978, 2,KD9TQD,     5.57, -91,  12, 3,   boost,   33.19,  83618.00, 1590.81, 1422.39,  270.52, 18.3, 8.28, 0.00, 4.14,  31.80,  -1.18,  14.37, 531.56, -42.48,  -9.09,   0.83,   0.19,   0.29,  18.00, 8.31, 7.30, 0.00, 0.00, 0.00, 1, 1,  7,  41.4874843, -89.4984664,   811.0, 2023, 11, 18, 17, 18, 55,       62,      582, 170,  84,   1.9,   1.2,   1.5,  0, 28, 12,  0,  0,  0,  0,  0,  0, 28,  0, 39,  0,  0,  0,  0,  0,  0,  0,  0, 32,  0,  0,  0, 34, 31,  0,  0,  0,  0, 12, 37
6, 10978, 2,KD9TQD,     5.60, -87,   7, 3,   boost,   33.19,  83618.00, 1590.81, 1422.39,  270.52, 18.3, 8.28, 0.00, 4.14,  31.80,  -1.18,  14.37, 531.56, -42.48,  -9.09,   0.83,   0.19,   0.29,  18.00, 8.32, 6.27, 0.00, 0.00, 0.00, 1, 1,  7,  41.4874843, -89.4984664,   811.0, 2023, 11, 18, 17, 18, 55,       62,      582, 170,  84,   1.9,   1.2,   1.5,  0, 28, 12,  0,  0,  0,  0,  0,  0, 28,  0, 39,  0,  0,  0,  0,  0,  0,  0,  0, 32,  0,  0,  0, 34, 31,  0,  0,  0,  0, 12, 37
6, 10978, 2,KD9TQD,     5.68, -81,  11, 3,   boost,   31.68,  83304.00, 1621.39, 1452.97,  273.88, 18.3, 8.28, 0.00, 4.14,  29.74,   3.18,   4.50, 548.40, -26.43, -13.92,   0.82,   0.35,   0.22,  16.00, 8.32, 6.27, 0.00, 0.00, 0.00, 1, 1,  7,  41.4874843, -89.4984664,   811.0, 2023, 11, 18, 17, 18, 55,       62,      582, 170,  84,   1.9,   1.2,   1.5,  0, 28, 12,  0,  0,  0,  0,  0,  0, 28,  0, 39,  0,  0,  0,  0,  0,  0,  0,  0, 32,  0,  0,  0, 34, 31,  0,  0,  0,  0, 12, 37
6, 10978, 2,KD9TQD,     5.71, -81,  11, 3,   boost,   31.68,  83304.00, 1621.39, 1452.97,  273.88, 18.3, 8.28, 0.00, 4.15,  29.74,   3.18,   4.50, 548.40, -26.43, -13.92,   0.82,   0.35,   0.22,  16.00, 8.31, 0.85, 0.00, 0.00, 0.00, 1, 1,  7,  41.4874843, -89.4984664,   811.0, 2023, 11, 18, 17, 18, 55,       62,      582, 170,  84,   1.9,   1.2,   1.5,  0, 28, 12,  0,  0,  0,  0,  0,  0, 28,  0, 39,  0,  0,  0,  0,  0,  0,  0,  0, 32,  0,  0,  0, 34, 31,  0,  0,  0,  0, 12, 37
6, 10978, 2,KD9TQD,     5.79, -85,   7, 3,   boost,   34.20,  82868.00, 1664.01, 1495.59,  277.33, 18.3, 8.28, 0.00, 4.15,  27.34,   0.42,   6.51, 520.69, -50.72,  22.34,   0.82,   0.35,   0.03,  15.00, 8.31, 0.85, 0.00, 0.00, 0.00, 1, 1,  7,  41.4874843, -89.4984664,   811.0, 2023, 11, 18, 17, 18, 55,       62,      582, 170,  84,   1.9,   1.2,   1.5,  0, 28, 12,  0,  0,  0,  0,  0,  0, 28,  0, 39,  0,  0,  0,  0,  0,  0,  0,  0, 32,  0,  0,  0, 34, 31,  0,  0,  0,  0, 12, 37
