Time,gps_lat,gps_long,gps_alt,TEMP,KX_IMU_ax,KX_IMU_ay,KX_IMU_az,STE_ALT,STE_VEL,STE_ACC,STE_APO,BNO_YAW,BNO_PITCH,BNO_ROLL,IMU_gx,IMU_gy,IMU_gz,IMU_mx,IMU_my,IMU_mz,FSM_state,sign,RSSI,Voltage,frequency,flap_extension,pressure,Continuity1,Continuity2,Continuity3,Continuity4,TelemLatency,Pyro1,Pyro2,Pyro3,Pyro4,Pyro1Firing,Pyro2Firing,Pyro3Firing,Pyro4Firing,is_booster,sense_pyro
2024-3-23--13-41-38-830,0,0,0,16.71875,1.02734,0.00391,-0.04687,,,,,0,0,0,1.5,-2.5,-0.625,-0.85388,1.25854,-2.10767,0,KD9ZMJ,-100,8.0625,,,0,0,5.54687,0.70312,0,508,0,0,0,0,0,0,0,0,0,0
2024-3-23--13-41-38-896,0,0,0,16.71875,1.02344,0.01953,-0.03125,,,,,0,0,0,1.5,-2.5,-0.625,-0.85388,1.25854,-2.10767,0,KD9ZMJ,-100,8.0625,,,1002.25,0,5.54687,0.70312,0,508,0,0,0,0,0,0,0,0,0,0
2024-3-23--13-41-38-958,0,0,0,16.71875,1.03125,0.00391,-0.03516,,,,,0,0,0,1.5,-2.5,-0.625,-0.85388,1.25854,-2.10767,0,KD9ZMJ,-100,8.0625,,,1002.25,0,5.54687,0.70312,0,508,0,0,0,0,0,0,0,0,0,0
2024-3-23--13-41-39-153,0,0,100,16.85938,1.03516,0.04297,-0.05859,,,,,1.54736,1.24292,-1.24341,1.125,-2.625,-0.625,-0.84863,1.26086,-2.1134,0,KD9ZMJ,-102,8.3125,,,1002.3125,0,5.46875,0.78125,0,260,0,0,0,0,0,0,0,0,0,0
2024-3-23--13-41-39-220,0,0,100,16.85938,1.02734,-0.00391,-0.04297,,,,,1.54736,1.24292,-1.24341,1.125,-2.625,-0.625,-0.84863,1.26086,-2.1134,0,KD9ZMJ,-102,8.3125,,,1002.3125,0,5.46875,0.78125,0,260,0,0,0,0,0,0,0,0,0,0
2024-3-23--13-41-39-25,0,0,0,16.71875,1.03125,0.01172,-0.02734,,,,,0,0,0,1.5,-2.5,-0.625,-0.85388,1.25854,-2.10767,0,KD9ZMJ,-100,8.0625,,,1002.1875,0,5.54687,0.70312,0,508,0,0,0,0,0,0,0,0,0,0
2024-3-23--13-41-39-285,0,0,100,16.85938,1.02344,-0.00781,-0.07422,,,,,1.54736,1.24292,-1.24341,1.125,-2.625,-0.625,-0.84863,1.26086,-2.1134,0,KD9ZMJ,-102,8.3125,,,1002.25,0,5.46875,0.78125,0,260,0,0,0,0,0,0,0,0,0,0
2024-3-23--13-41-39-350,0,0,100,16.91797,1.04688,0.00391,-0.01953,,,,,1.54736,1.24292,-1.24341,1.25,-2.25,-0.75,-0.85498,1.25354,-2.11084,0,KD9ZMJ,-101,8.1875,,,1002.375,0,5.3125,0.78125,0,260,0,0,0,0,0,0,0,0,0,0
2024-3-23--13-41-39-413,0,0,100,16.91797,1.04297,-0.00391,-0.03906,,,,,1.54736,1.24292,-1.24341,1.25,-2.25,-0.75,-0.85498,1.25354,-2.11084,0,KD9ZMJ,-101,8.1875,,,1002.3125,0,5.3125,0.78125,0,260,0,0,0,0,0,0,0,0,0,0
2024-3-23--13-41-39-478,0,0,100,16.91797,1.03516,0.02734,-0.04297,,,,,1.54736,1.24292,-1.24341,1.25,-2.25,-0.75,-0.85498,1.25354,-2.11084,0,KD9ZMJ,-101,8.1875,,,1002.375,0,5.3125,0.78125,0,260,0,0,0,0,0,0,0,0,0,0
2024-3-23--13-41-39-545,0,0,100,16.91797,1.03906,0.02344,-0.03516,,,,,1.54736,1.24292,-1.24341,1.25,-2.25,-0.75,-0.85498,1.25354,-2.11084,0,KD9ZMJ,-101,8.1875,,,1002.3125,0,5.3125,0.78125,0,260,0,0,0,0,0,0,0,0,0,0
2024-3-23--13-41-39-610,0,0,100,16.94922,1.03125,0.00391,-0.07422,,,,,1.54736,1.24292,-1.24341,1.25,-1.875,-0.875,-0.86108,1.26025,-2.10474,0,KD9ZMJ,-100,8.3125,,,1002.375,0,5.23437,0.78125,0,260,0,0,0,0,0,0,0,0,0,0
2024-3-23--13-41-39-674,0,0,100,16.94922,1.04688,0.03125,-0.05078,,,,,1.54736,1.24292,-1.24341,1.25,-1.875,-0.875,-0.86108,1.26025,-2.10474,0,KD9ZMJ,-100,8.3125,,,1002.375,0,5.23437,0.78125,0,260,0,0,0,0,0,0,0,0,0,0
2024-3-23--13-41-39-740,0,0,100,16.94922,1.01953,0.01563,-0.00781,,,,,1.54736,1.24292,-1.24341,1.25,-1.875,-0.875,-0.86108,1.26025,-2.10474,0,KD9ZMJ,-100,8.3125,,,1002.3125,0,5.23437,0.78125,0,260,0,0,0,0,0,0,0,0,0,0
2024-3-23--13-41-39-806,0,0,100,16.94922,1.00781,0.01953,-0.00781,,,,,1.54736,1.24292,-1.24341,1.25,-1.875,-0.875,-0.86108,1.26025,-2.10474,0,KD9ZMJ,-100,8.3125,,,1002.25,0,5.23437,0.78125,0,260,0,0,0,0,0,0,0,0,0,0
2024-3-23--13-41-39-871,0,0,100,16.96875,1.01563,0.01172,0,,,,,1.54736,1.24292,-1.24341,1.375,-1.5,-0.75,-0.85059,1.26233,-2.1123,0,KD9ZMJ,-100,8.1875,,,1002.25,0,5.15625,0.78125,0,260,0,0,0,0,0,0,0,0,0,0
2024-3-23--13-41-39-90,0,0,100,16.85938,1.03516,0.01563,-0.05078,,,,,0,0,0,1.125,-2.625,-0.625,-0.84863,1.26086,-2.1134,0,KD9ZMJ,-102,8.3125,,,1002.3125,0,5.46875,0.78125,0,260,0,0,0,0,0,0,0,0,0,0
2024-3-23--13-41-39-935,0,0,100,16.96875,1.03125,-0.01172,-0.00781,,,,,1.54736,1.24292,-1.24341,1.375,-1.5,-0.75,-0.85059,1.26233,-2.1123,0,KD9ZMJ,-100,8.1875,,,1002.25,0,5.15625,0.78125,0,260,0,0,0,0,0,0,0,0,0,0
2024-3-23--13-41-40-0,0,0,100,16.96875,1.01172,0.01563,-0.04687,,,,,1.54736,1.24292,-1.24341,1.375,-1.5,-0.75,-0.85059,1.26233,-2.1123,0,KD9ZMJ,-100,8.1875,,,1002.25,0,5.15625,0.78125,0,260,0,0,0,0,0,0,0,0,0,0
2024-3-23--13-41-40-132,0,0,100,16.96875,1.01953,0,-0.07422,,,,,1.54736,1.24292,-1.24341,1.375,0.625,-0.625,-0.85608,1.26099,-2.10352,0,KD9ZMJ,-103,8.375,,,1002.375,0,5.07812,0.78125,0,260,0,0,0,0,0,0,0,0,0,0
2024-3-23--13-41-40-196,0,0,100,16.96875,1.03906,0.05078,-0.05859,,,,,1.54736,1.24292,-1.24341,1.375,0.625,-0.625,-0.85608,1.26099,-2.10352,0,KD9ZMJ,-103,8.375,,,1002.375,0,5.07812,0.78125,0,260,0,0,0,0,0,0,0,0,0,0
2024-3-23--13-41-40-261,0,0,100,16.96875,1.05078,0.02344,-0.04297,,,,,1.54736,1.24292,-1.24341,1.375,0.625,-0.625,-0.85608,1.26099,-2.10352,0,KD9ZMJ,-103,8.375,,,1002.4375,0,5.07812,0.78125,0,260,0,0,0,0,0,0,0,0,0,0
2024-3-23--13-41-40-328,0,0,100,16.96875,1.05078,-0.00391,-0.03125,,,,,1.54736,1.24292,-1.24341,1.375,0.625,-0.625,-0.85608,1.26099,-2.10352,0,KD9ZMJ,-103,8.375,,,1002.3125,0,5.07812,0.78125,0,260,0,0,0,0,0,0,0,0,0,0
2024-3-23--13-41-40-393,0,0,100,17,1.04297,-0.02734,-0.05078,,,,,1.53552,0.84875,-0.8468,1.25,-3.875,-0.75,-0.85852,1.25537,-2.09802,0,KD9ZMJ,-106,8.375,,,1002.375,0,5,0.78125,0,260,0,0,0,0,0,0,0,0,0,0
2024-3-23--13-41-40-456,0,0,100,17,1.04297,0.03125,-0.05078,,,,,1.53552,0.84875,-0.8468,1.25,-3.875,-0.75,-0.85852,1.25537,-2.09802,0,KD9ZMJ,-106,8.375,,,1002.4375,0,5,0.78125,0,260,0,0,0,0,0,0,0,0,0,0
2024-3-23--13-41-40-522,0,0,100,17,1.02734,0,-0.01953,,,,,1.53552,0.84875,-0.8468,1.25,-3.875,-0.75,-0.85852,1.25537,-2.09802,0,KD9ZMJ,-106,8.375,,,1002.375,0,5,0.78125,0,260,0,0,0,0,0,0,0,0,0,0
2024-3-23--13-41-40-588,0,0,100,17,1.03516,0.03906,-0.05859,,,,,1.53552,0.84875,-0.8468,1.25,-3.875,-0.75,-0.85852,1.25537,-2.09802,0,KD9ZMJ,-106,8.375,,,1002.375,0,5,0.78125,0,260,0,0,0,0,0,0,0,0,0,0
2024-3-23--13-41-40-653,0,0,100,17.01953,1.03125,0,-0.05859,,,,,1.53552,0.84875,-0.8468,1.125,1,-0.25,-0.8446,1.25171,-2.10107,0,KD9ZMJ,-104,8.25,,,1002.25,0,4.92187,0.78125,0,260,0,0,0,0,0,0,0,0,0,0
2024-3-23--13-41-40-67,0,0,100,16.96875,1.01172,0.03516,-0.0625,,,,,1.54736,1.24292,-1.24341,1.375,-1.5,-0.75,-0.85059,1.26233,-2.1123,0,KD9ZMJ,-100,8.1875,,,1002.4375,0,5.15625,0.78125,0,260,0,0,0,0,0,0,0,0,0,0
2024-3-23--13-41-40-717,0,0,100,17.01953,1.02344,-0.01172,0.01563,,,,,1.53552,0.84875,-0.8468,1.125,1,-0.25,-0.8446,1.25171,-2.10107,0,KD9ZMJ,-104,8.25,,,1002.3125,0,4.92187,0.78125,0,260,0,0,0,0,0,0,0,0,0,0
2024-3-23--13-41-40-782,0,0,100,17.01953,1.02734,0.00781,-0.01563,,,,,1.53552,0.84875,-0.8468,1.125,1,-0.25,-0.8446,1.25171,-2.10107,0,KD9ZMJ,-104,8.25,,,1002.375,0,4.92187,0.78125,0,260,0,0,0,0,0,0,0,0,0,0
2024-3-23--13-41-40-849,0,0,100,17.01953,1.01563,0.03516,0,,,,,1.53552,0.84875,-0.8468,1.125,1,-0.25,-0.8446,1.25171,-2.10107,0,KD9ZMJ,-104,8.25,,,1002.4375,0,4.92187,0.78125,0,260,0,0,0,0,0,0,0,0,0,0
2024-3-23--13-41-40-914,0,0,100,17.01953,1.03125,-0.00391,-0.03906,,,,,1.53552,0.84875,-0.8468,1.375,-4.75,-0.5,-0.85376,1.24915,-2.09387,0,KD9ZMJ,-107,8.375,,,1002.5,0,4.84375,0.85937,0,260,0,0,0,0,0,0,0,0,0,0
2024-3-23--13-41-40-978,0,0,100,17.01953,1.03516,0.00781,-0.0625,,,,,1.53552,0.84875,-0.8468,1.375,-4.75,-0.5,-0.85376,1.24915,-2.09387,0,KD9ZMJ,-107,8.375,,,1002.3125,0,4.84375,0.85937,0,260,0,0,0,0,0,0,0,0,0,0
2024-3-23--13-41-41-108,0,0,100,17.01953,1.02344,0.00391,-0.03906,,,,,1.53552,0.84875,-0.8468,1.375,-4.75,-0.5,-0.85376,1.24915,-2.09387,0,KD9ZMJ,-107,8.375,,,1002.3125,0,4.84375,0.85937,0,260,0,0,0,0,0,0,0,0,0,0
2024-3-23--13-41-41-43,0,0,100,17.01953,1.03125,0.00391,-0.05469,,,,,1.53552,0.84875,-0.8468,1.375,-4.75,-0.5,-0.85376,1.24915,-2.09387,0,KD9ZMJ,-107,8.375,,,1002.375,0,4.84375,0.85937,0,260,0,0,0,0,0,0,0,0,0,0
2024-3-23--13-41-41-689,0,0,100,17.03906,1.03906,0.00781,-0.04297,,,,,1.53552,0.84875,-0.8468,1.5,-4.75,-0.375,-0.85144,1.25012,-2.10034,0,KD9ZMJ,-108,8.3125,,,1002.3125,0,4.53125,0.78125,0,260,0,0,0,0,0,0,0,0,0,0
2024-3-23--13-41-41-753,0,0,100,17.03906,1.02344,0.03125,-0.08203,,,,,1.53552,0.84875,-0.8468,1.5,-4.75,-0.375,-0.85144,1.25012,-2.10034,0,KD9ZMJ,-108,8.3125,,,1002.25,0,4.53125,0.78125,0,260,0,0,0,0,0,0,0,0,0,0
2024-3-23--13-41-41-818,0,0,100,17.03906,1.03906,0.01563,-0.04687,,,,,1.53552,0.84875,-0.8468,1.5,-4.75,-0.375,-0.85144,1.25012,-2.10034,0,KD9ZMJ,-108,8.3125,,,1002.3125,0,4.53125,0.78125,0,260,0,0,0,0,0,0,0,0,0,0
2024-3-23--13-41-41-883,0,0,100,17.03906,1.07813,-0.02734,-0.02734,,,,,1.53552,0.84875,-0.8468,1.5,-4.75,-0.375,-0.85144,1.25012,-2.10034,0,KD9ZMJ,-108,8.3125,,,1002.3125,0,4.53125,0.78125,0,260,0,0,0,0,0,0,0,0,0,0
2024-3-23--13-41-43-509,0,0,100,17.07813,1.03906,0.00781,0.04297,,,,,1.53308,1.02771,-1.00781,1.75,-3.375,0,-0.85962,1.25488,-2.09863,0,KD9ZMJ,-108,8,,,1002.3125,0,4.14062,0.78125,0,260,0,0,0,0,0,0,0,0,0,0
2024-3-23--13-41-43-573,0,0,100,17.07813,1.00781,-0.02734,-0.10156,,,,,1.53308,1.02771,-1.00781,1.75,-3.375,0,-0.85962,1.25488,-2.09863,0,KD9ZMJ,-108,8,,,1002.3125,0,4.14062,0.78125,0,260,0,0,0,0,0,0,0,0,0,0
2024-3-23--13-41-43-638,0,0,100,17.07813,1.02344,-0.00781,-0.01953,,,,,1.53308,1.02771,-1.00781,1.75,-3.375,0,-0.85962,1.25488,-2.09863,0,KD9ZMJ,-108,8,,,1002.4375,0,4.14062,0.78125,0,260,0,0,0,0,0,0,0,0,0,0
2024-3-23--13-41-43-705,0,0,100,17.07813,1.05469,0.02344,-0.0625,,,,,1.53308,1.02771,-1.00781,1.75,-3.375,0,-0.85962,1.25488,-2.09863,0,KD9ZMJ,-108,8,,,1002.25,0,4.14062,0.78125,0,260,0,0,0,0,0,0,0,0,0,0
2024-3-23--13-41-43-769,0,0,100,17.08984,1.01953,-0.04297,-0.08594,,,,,1.53308,1.02771,-1.00781,1.25,-4.625,-0.625,-0.85962,1.2522,-2.09485,0,KD9ZMJ,-105,8.25,,,1002.375,0,4.0625,0.78125,0,260,0,0,0,0,0,0,0,0,0,0
2024-3-23--13-41-43-833,0,0,100,17.08984,1.00391,-0.00781,-0.09766,,,,,1.53308,1.02771,-1.00781,1.25,-4.625,-0.625,-0.85962,1.2522,-2.09485,0,KD9ZMJ,-105,8.25,,,1002.3125,0,4.0625,0.78125,0,260,0,0,0,0,0,0,0,0,0,0
2024-3-23--13-41-43-898,0,0,100,17.08984,1.02344,-0.01172,-0.01172,,,,,1.53308,1.02771,-1.00781,1.25,-4.625,-0.625,-0.85962,1.2522,-2.09485,0,KD9ZMJ,-105,8.25,,,1002.4375,0,4.0625,0.78125,0,260,0,0,0,0,0,0,0,0,0,0
2024-3-23--13-41-43-965,0,0,100,17.08984,1.03125,-0.00391,-0.03125,,,,,1.53308,1.02771,-1.00781,1.25,-4.625,-0.625,-0.85962,1.2522,-2.09485,0,KD9ZMJ,-105,8.25,,,1002.375,0,4.0625,0.78125,0,260,0,0,0,0,0,0,0,0,0,0
2024-3-23--13-41-44-158,0,0,100,17.09766,1.03516,0.00391,-0.04297,,,,,1.53308,1.02771,-1.00781,1.25,-1.875,-0.75,-0.85571,1.2522,-2.09521,0,KD9ZMJ,-104,8.25,,,1002.4375,0,3.98437,0.78125,0,260,0,0,0,0,0,0,0,0,0,0
2024-3-23--13-41-44-225,0,0,100,17.09766,1.03906,0.00391,-0.04297,,,,,1.53308,1.02771,-1.00781,1.25,-1.875,-0.75,-0.85571,1.2522,-2.09521,0,KD9ZMJ,-104,8.25,,,1002.4375,0,3.98437,0.78125,0,260,0,0,0,0,0,0,0,0,0,0
2024-3-23--13-41-44-290,0,0,100,17.10938,1.02344,0,-0.01563,,,,,1.53308,1.02771,-1.00781,1.125,-3.5,-0.75,-0.85596,1.2406,-2.09778,0,KD9ZMJ,-106,8.1875,,,1002.375,0,3.90625,0.78125,0,260,0,0,0,0,0,0,0,0,0,0
2024-3-23--13-41-44-30,0,0,100,17.09766,1.0625,0.02734,-0.02344,,,,,1.53308,1.02771,-1.00781,1.25,-1.875,-0.75,-0.85571,1.2522,-2.09521,0,KD9ZMJ,-104,8.25,,,1002.25,0,3.98437,0.78125,0,260,0,0,0,0,0,0,0,0,0,0
2024-3-23--13-41-44-353,0,0,100,17.10938,1.01953,0.00391,0,,,,,1.53308,1.02771,-1.00781,1.125,-3.5,-0.75,-0.85596,1.2406,-2.09778,0,KD9ZMJ,-106,8.1875,,,1002.25,0,3.90625,0.78125,0,260,0,0,0,0,0,0,0,0,0,0
2024-3-23--13-41-44-418,0,0,100,17.10938,1.03516,-0.02734,-0.07031,,,,,1.53247,1.13953,-1.12708,1.125,-3.5,-0.75,-0.85596,1.2406,-2.09778,0,KD9ZMJ,-106,8.1875,,,1002.4375,0,3.90625,0.78125,0,260,0,0,0,0,0,0,0,0,0,0
2024-3-23--13-41-44-484,0,0,100,17.10938,1.01953,-0.01172,-0.11328,,,,,1.53247,1.13953,-1.12708,1.125,-3.5,-0.75,-0.85596,1.2406,-2.09778,0,KD9ZMJ,-106,8.1875,,,1002.375,0,3.90625,0.78125,0,260,0,0,0,0,0,0,0,0,0,0
2024-3-23--13-41-44-550,0,0,100,17.07813,1.05078,-0.03125,-0.04687,,,,,1.53247,1.13953,-1.12708,1.5,-3,-0.625,-0.85339,1.24841,-2.09753,0,KD9ZMJ,-107,8.375,,,1002.4375,0,3.90625,0.78125,0,260,0,0,0,0,0,0,0,0,0,0
2024-3-23--13-41-44-613,0,0,100,17.07813,1.03906,0.01563,-0.01953,,,,,1.53247,1.13953,-1.12708,1.5,-3,-0.625,-0.85339,1.24841,-2.09753,0,KD9ZMJ,-107,8.375,,,1002.3125,0,3.90625,0.78125,0,260,0,0,0,0,0,0,0,0,0,0
2024-3-23--13-41-44-677,0,0,100,17.07813,1.03906,0.04297,-0.01563,,,,,1.53247,1.13953,-1.12708,1.5,-3,-0.625,-0.85339,1.24841,-2.09753,0,KD9ZMJ,-107,8.375,,,1002.4375,0,3.90625,0.78125,0,260,0,0,0,0,0,0,0,0,0,0
2024-3-23--13-41-44-743,0,0,100,17.07813,1.05078,0.01563,-0.07813,,,,,1.53247,1.13953,-1.12708,1.5,-3,-0.625,-0.85339,1.24841,-2.09753,0,KD9ZMJ,-107,8.375,,,1002.3125,0,3.90625,0.78125,0,260,0,0,0,0,0,0,0,0,0,0
2024-3-23--13-41-44-93,0,0,100,17.09766,1.05469,0.01172,-0.04297,,,,,1.53308,1.02771,-1.00781,1.25,-1.875,-0.75,-0.85571,1.2522,-2.09521,0,KD9ZMJ,-104,8.25,,,1002.375,0,3.98437,0.78125,0,260,0,0,0,0,0,0,0,0,0,0
2024-3-23--13-41-47-669,0,0,100,17.1875,1.03516,-0.00391,-0.08594,,,,,1.52942,1.22253,-1.21606,1.375,-3.375,-0.5,-0.85901,1.25049,-2.10132,0,KD9ZMJ,-107,8.1875,,,1002.3125,0,3.28125,0.625,0,260,0,0,0,0,0,0,0,0,0,0
2024-3-23--13-41-47-732,0,0,100,17.1875,1.02734,-0.00781,-0.05859,,,,,1.52942,1.22253,-1.21606,1.375,-3.375,-0.5,-0.85901,1.25049,-2.10132,0,KD9ZMJ,-107,8.1875,,,1002.3125,0,3.28125,0.625,0,260,0,0,0,0,0,0,0,0,0,0
2024-3-23--13-41-47-797,0,0,100,17.1875,1.02344,0.03125,-0.02734,,,,,1.52942,1.22253,-1.21606,1.375,-3.375,-0.5,-0.85901,1.25049,-2.10132,0,KD9ZMJ,-107,8.1875,,,1002.3125,0,3.28125,0.625,0,260,0,0,0,0,0,0,0,0,0,0
2024-3-23--13-41-47-864,0,0,100,17.1875,1.05469,-0.00391,-0.02734,,,,,1.52942,1.22253,-1.21606,1.375,-3.375,-0.5,-0.85901,1.25049,-2.10132,0,KD9ZMJ,-107,8.1875,,,1002.3125,0,3.28125,0.625,0,260,0,0,0,0,0,0,0,0,0,0
2024-3-23--13-41-47-929,0,0,100,17.19922,1.03516,0.00391,-0.00781,,,,,1.52942,1.22253,-1.21606,1.375,-2,-0.625,-0.8623,1.25366,-2.08948,0,KD9ZMJ,-106,8.375,,,1002.4375,0,3.28125,0.625,0,260,0,0,0,0,0,0,0,0,0,0
2024-3-23--13-41-47-992,0,0,100,17.19922,1.02734,-0.00781,-0.08594,,,,,1.52942,1.22253,-1.21606,1.375,-2,-0.625,-0.8623,1.25366,-2.08948,0,KD9ZMJ,-106,8.375,,,1002.125,0,3.28125,0.625,0,260,0,0,0,0,0,0,0,0,0,0
2024-3-23--13-41-48-122,0,0,100,17.19922,1.02344,-0.00391,-0.03906,,,,,1.52942,1.22253,-1.21606,1.375,-2,-0.625,-0.8623,1.25366,-2.08948,0,KD9ZMJ,-106,8.375,,,1002.5,0,3.28125,0.625,0,260,0,0,0,0,0,0,0,0,0,0
2024-3-23--13-41-48-57,0,0,100,17.19922,1.00391,0.00781,-0.05078,,,,,1.52942,1.22253,-1.21606,1.375,-2,-0.625,-0.8623,1.25366,-2.08948,0,KD9ZMJ,-106,8.375,,,1002.3125,0,3.28125,0.625,0,260,0,0,0,0,0,0,0,0,0,0
2024-3-23--13-42-09-509,0,0,100,17.69922,1.03906,0.01563,-0.02344,,,,,1.52734,1.51428,-1.55566,1.375,-1,-1,-0.84973,1.25439,-2.09937,0,KD9ZMJ,-105,8.3125,,,1002.1875,0,1.71875,0.39062,0,260,0,0,0,0,0,0,0,0,0,0
2024-3-23--13-42-09-572,0,0,100,17.69922,1.01563,0.04687,-0.00781,,,,,1.52734,1.51428,-1.55566,1.375,-1,-1,-0.84973,1.25439,-2.09937,0,KD9ZMJ,-105,8.3125,,,1002.3125,0,1.71875,0.39062,0,260,0,0,0,0,0,0,0,0,0,0
2024-3-23--13-42-09-637,0,0,100,17.69922,1.03125,0.00391,-0.04687,,,,,1.52734,1.51428,-1.55566,1.375,-1,-1,-0.84973,1.25439,-2.09937,0,KD9ZMJ,-105,8.3125,,,1002.3125,0,1.71875,0.39062,0,260,0,0,0,0,0,0,0,0,0,0
2024-3-23--13-42-09-702,0,0,100,17.69922,1.05469,-0.02344,-0.07422,,,,,1.52734,1.51428,-1.55566,1.375,-1,-1,-0.84973,1.25439,-2.09937,0,KD9ZMJ,-105,8.3125,,,1002.25,0,1.71875,0.39062,0,260,0,0,0,0,0,0,0,0,0,0
2024-3-23--13-42-26-408,37.10133,-97.44034,381.85999,18.11719,1.02734,0.01172,-0.01563,,,,,1.53125,1.59314,-1.68811,1.375,-2,-0.75,-0.84985,1.24646,-2.08826,0,KD9ZMJ,-105,8.0625,,,1002.25,0,1.48437,0.3125,0,260,0,0,0,0,0,0,0,0,0,0
2024-3-23--13-42-26-472,37.10133,-97.44034,381.85999,18.11719,1.00781,-0.00391,-0.03906,,,,,1.53125,1.59314,-1.68811,1.375,-2,-0.75,-0.84985,1.24646,-2.08826,0,KD9ZMJ,-105,8.0625,,,1002.25,0,1.48437,0.3125,0,260,0,0,0,0,0,0,0,0,0,0
2024-3-23--13-42-26-537,37.10133,-97.44034,381.85999,18.11719,1.02344,0.01953,-0.02344,,,,,1.53125,1.59314,-1.68811,1.375,-2,-0.75,-0.84985,1.24646,-2.08826,0,KD9ZMJ,-105,8.0625,,,1002.1875,0,1.48437,0.3125,0,260,0,0,0,0,0,0,0,0,0,0
2024-3-23--13-42-26-604,37.10133,-97.44034,381.85999,18.11719,1.03516,0.01563,-0.03516,,,,,1.53125,1.59314,-1.68811,1.375,-2,-0.75,-0.84985,1.24646,-2.08826,0,KD9ZMJ,-105,8.0625,,,1002.25,0,1.48437,0.3125,0,260,0,0,0,0,0,0,0,0,0,0
2024-3-23--13-42-26-669,37.10133,-97.44034,382.26001,18.11719,1.03906,0.01953,-0.0625,,,,,1.53125,1.59314,-1.68811,1.25,-3,-0.625,-0.85205,1.24841,-2.08875,0,KD9ZMJ,-105,8.125,,,1002.3125,0,1.48437,0.3125,0,260,0,0,0,0,0,0,0,0,0,0
2024-3-23--13-42-26-732,37.10133,-97.44034,382.26001,18.11719,1.01563,0.01172,-0.04687,,,,,1.53125,1.59314,-1.68811,1.25,-3,-0.625,-0.85205,1.24841,-2.08875,0,KD9ZMJ,-105,8.125,,,1002.25,0,1.48437,0.3125,0,260,0,0,0,0,0,0,0,0,0,0
2024-3-23--13-42-26-797,37.10133,-97.44034,382.26001,18.11719,1.00781,0.01953,-0.01953,,,,,1.53125,1.59314,-1.68811,1.25,-3,-0.625,-0.85205,1.24841,-2.08875,0,KD9ZMJ,-105,8.125,,,1002.25,0,1.48437,0.3125,0,260,0,0,0,0,0,0,0,0,0,0
2024-3-23--13-42-26-864,37.10133,-97.44034,382.26001,18.11719,1.04688,-0.01172,-0.01172,,,,,1.53125,1.59314,-1.68811,1.25,-3,-0.625,-0.85205,1.24841,-2.08875,0,KD9ZMJ,-105,8.125,,,1002.3125,0,1.48437,0.3125,0,260,0,0,0,0,0,0,0,0,0,0
2024-3-23--13-42-26-929,37.10133,-97.44034,382.26001,18.12891,1.04688,-0.00391,-0.0625,,,,,1.53125,1.59314,-1.68811,1.25,-1.625,-0.75,-0.85291,1.24536,-2.08569,0,KD9ZMJ,-106,8.125,,,1002.3125,0,1.48437,0.3125,0,260,0,0,0,0,0,0,0,0,0,0
2024-3-23--13-42-26-992,37.10133,-97.44034,382.26001,18.12891,1.03906,0.01172,-0.04297,,,,,1.53125,1.59314,-1.68811,1.25,-1.625,-0.75,-0.85291,1.24536,-2.08569,0,KD9ZMJ,-106,8.125,,,1002.3125,0,1.48437,0.3125,0,260,0,0,0,0,0,0,0,0,0,0
2024-3-23--13-42-27-122,37.10133,-97.44034,382.26001,18.12891,1.02344,0,0,,,,,1.53125,1.59314,-1.68811,1.25,-1.625,-0.75,-0.85291,1.24536,-2.08569,0,KD9ZMJ,-106,8.125,,,1002.3125,0,1.48437,0.3125,0,260,0,0,0,0,0,0,0,0,0,0
2024-3-23--13-42-27-57,37.10133,-97.44034,382.26001,18.12891,1.03516,0.00781,-0.04687,,,,,1.53125,1.59314,-1.68811,1.25,-1.625,-0.75,-0.85291,1.24536,-2.08569,0,KD9ZMJ,-106,8.125,,,1002.3125,0,1.48437,0.3125,0,260,0,0,0,0,0,0,0,0,0,0
2024-3-23--13-42-34-728,37.10133,-97.44033,383.76999,18.28906,1.01172,-0.01563,-0.05078,,,,,1.52161,1.43982,-1.54346,1.375,-3.125,-0.625,-0.85242,1.25208,-2.09509,0,KD9ZMJ,-107,8.1875,,,1002.375,0,1.48437,0.3125,0,260,0,0,0,0,0,0,0,0,0,0
2024-3-23--13-42-34-792,37.10133,-97.44033,383.76999,18.28906,1.03125,0,-0.01172,,,,,1.51892,1.46777,-1.57385,1.375,-3.125,-0.625,-0.85242,1.25208,-2.09509,0,KD9ZMJ,-107,8.1875,,,1002.375,0,1.48437,0.3125,0,260,0,0,0,0,0,0,0,0,0,0
2024-3-23--13-42-34-857,37.10133,-97.44033,383.76999,18.28906,1.02734,-0.01172,-0.07031,,,,,1.51892,1.46777,-1.57385,1.375,-3.125,-0.625,-0.85242,1.25208,-2.09509,0,KD9ZMJ,-107,8.1875,,,1002.3125,0,1.48437,0.3125,0,260,0,0,0,0,0,0,0,0,0,0
2024-3-23--13-42-34-922,37.10133,-97.44033,383.76999,18.28906,1.02344,-0.00781,-0.04687,,,,,1.51892,1.46777,-1.57385,1.375,-3.125,-0.625,-0.85242,1.25208,-2.09509,0,KD9ZMJ,-107,8.1875,,,1002.3125,0,1.48437,0.3125,0,260,0,0,0,0,0,0,0,0,0,0
2024-3-23--13-42-47-208,37.10133,-97.44033,385.88,18.56641,1.02734,0.01172,-0.03125,,,,,1.53577,1.39819,-1.52576,1.375,-2.625,-0.625,-0.84949,1.25134,-2.09094,0,KD9ZMJ,-108,8.3125,,,1002.1875,0,1.48437,0.3125,0,260,0,0,0,0,0,0,0,0,0,0
2024-3-23--13-42-47-272,37.10133,-97.44033,385.88,18.56641,0.99609,-0.02344,-0.04687,,,,,1.53577,1.39819,-1.52576,1.375,-2.625,-0.625,-0.84949,1.25134,-2.09094,0,KD9ZMJ,-108,8.3125,,,1002.3125,0,1.48437,0.3125,0,260,0,0,0,0,0,0,0,0,0,0
2024-3-23--13-42-47-337,37.10133,-97.44033,385.88,18.56641,1.03906,0.01563,-0.03516,,,,,1.53577,1.39819,-1.52576,1.375,-2.625,-0.625,-0.84949,1.25134,-2.09094,0,KD9ZMJ,-108,8.3125,,,1002.3125,0,1.48437,0.3125,0,260,0,0,0,0,0,0,0,0,0,0
2024-3-23--13-42-47-402,37.10133,-97.44033,385.88,18.56641,1.01563,0,-0.00391,,,,,1.53577,1.39819,-1.52576,1.375,-2.625,-0.625,-0.84949,1.25134,-2.09094,0,KD9ZMJ,-108,8.3125,,,1002.25,0,1.48437,0.3125,0,260,0,0,0,0,0,0,0,0,0,0
2024-3-23--13-43-16-848,37.10133,-97.44032,386.48001,19.17969,1.04297,0.01953,-0.01563,,,,,1.54456,1.11279,-1.22241,1.25,-2.375,-0.625,-0.84717,1.24402,-2.08984,0,KD9ZMJ,-105,8.125,,,1002.25,0,1.48437,0.3125,0,260,0,0,0,0,0,0,0,0,0,0
2024-3-23--13-43-16-912,37.10133,-97.44032,386.48001,19.17969,1.03125,0.02344,-0.01172,,,,,1.54456,1.11279,-1.22241,1.25,-2.375,-0.625,-0.84717,1.24402,-2.08984,0,KD9ZMJ,-105,8.125,,,1002.125,0,1.48437,0.3125,0,260,0,0,0,0,0,0,0,0,0,0
2024-3-23--13-43-16-976,37.10133,-97.44032,386.48001,19.17969,1.05078,0.00391,-0.03516,,,,,1.54456,1.11279,-1.22241,1.25,-2.375,-0.625,-0.84717,1.24402,-2.08984,0,KD9ZMJ,-105,8.125,,,1002.25,0,1.48437,0.3125,0,260,0,0,0,0,0,0,0,0,0,0
2024-3-23--13-43-17-42,37.10133,-97.44032,386.48001,19.17969,1.03516,0.00391,-0.03516,,,,,1.54456,1.11279,-1.22241,1.25,-2.375,-0.625,-0.84717,1.24402,-2.08984,0,KD9ZMJ,-105,8.125,,,1002.25,0,1.48437,0.3125,0,260,0,0,0,0,0,0,0,0,0,0
2024-3-23--13-44-03-128,37.10132,-97.44032,387.88,20.05859,1.03906,-0.01953,-0.01953,,,,,1.54321,1.09387,-1.1875,1.25,-2.75,-0.625,-0.84192,1.24097,-2.08569,0,KD9ZMJ,-106,8.125,,,1002.25,0,1.48437,0.46875,0,260,0,0,0,0,0,0,0,0,0,0
2024-3-23--13-44-03-191,37.10132,-97.44032,387.88,20.05859,1.02344,-0.00781,-0.00781,,,,,1.54321,1.09387,-1.1875,1.25,-2.75,-0.625,-0.84192,1.24097,-2.08569,0,KD9ZMJ,-106,8.125,,,1002.3125,0,1.48437,0.46875,0,260,0,0,0,0,0,0,0,0,0,0
2024-3-23--13-44-03-256,37.10132,-97.44032,387.88,20.05859,1.02734,0,-0.01563,,,,,1.54321,1.09387,-1.1875,1.25,-2.75,-0.625,-0.84192,1.24097,-2.08569,0,KD9ZMJ,-106,8.125,,,1002.3125,0,1.48437,0.46875,0,260,0,0,0,0,0,0,0,0,0,0
2024-3-23--13-44-03-321,37.10132,-97.44032,387.88,20.05859,1.03125,-0.01172,-0.04297,,,,,1.54395,1.08191,-1.17542,1.25,-2.75,-0.625,-0.84192,1.24097,-2.08569,0,KD9ZMJ,-106,8.125,,,1002.125,0,1.48437,0.46875,0,260,0,0,0,0,0,0,0,0,0,0
2024-3-23--13-44-11-708,37.10132,-97.44032,387.88,20.20703,1.01953,0,-0.01172,,,,,1.54675,0.98291,-1.07654,1.375,-2.75,-0.625,-0.83911,1.24084,-2.07654,0,KD9ZMJ,-108,8.1875,,,1002.375,0,1.48437,0.46875,0,260,0,0,0,0,0,0,0,0,0,0
2024-3-23--13-44-11-771,37.10132,-97.44032,387.88,20.20703,1.01953,0.00391,-0.03125,,,,,1.54675,0.98291,-1.07654,1.375,-2.75,-0.625,-0.83911,1.24084,-2.07654,0,KD9ZMJ,-108,8.1875,,,1002.3125,0,1.48437,0.46875,0,260,0,0,0,0,0,0,0,0,0,0
2024-3-23--13-44-11-836,37.10132,-97.44032,387.88,20.20703,1.02734,0.01172,-0.03906,,,,,1.54675,0.98291,-1.07654,1.375,-2.75,-0.625,-0.83911,1.24084,-2.07654,0,KD9ZMJ,-108,8.1875,,,1002.3125,0,1.48437,0.46875,0,260,0,0,0,0,0,0,0,0,0,0
2024-3-23--13-44-11-903,37.10132,-97.44032,387.88,20.20703,1.05078,0.00391,-0.01563,,,,,1.54675,0.98291,-1.07654,1.375,-2.75,-0.625,-0.83911,1.24084,-2.07654,0,KD9ZMJ,-108,8.1875,,,1002.375,0,1.48437,0.46875,0,260,0,0,0,0,0,0,0,0,0,0
2024-3-23--13-44-11-968,37.10132,-97.44032,387.88,20.20703,1.01563,-0.00391,-0.04297,,,,,1.54675,0.98291,-1.07654,1.25,-2.75,-0.625,-0.83667,1.24121,-2.08044,0,KD9ZMJ,-107,8.125,,,1002.3125,0,1.48437,0.46875,0,260,0,0,0,0,0,0,0,0,0,0
2024-3-23--13-44-12-163,37.10132,-97.44032,387.88,20.20703,1.03125,0.01953,-0.03125,,,,,1.54675,0.98291,-1.07654,1.25,-2.75,-0.625,-0.83667,1.24121,-2.08044,0,KD9ZMJ,-107,8.125,,,1002.375,0,1.48437,0.46875,0,260,0,0,0,0,0,0,0,0,0,0
2024-3-23--13-44-12-32,37.10132,-97.44032,387.88,20.20703,1.03906,-0.00391,-0.01953,,,,,1.54675,0.98291,-1.07654,1.25,-2.75,-0.625,-0.83667,1.24121,-2.08044,0,KD9ZMJ,-107,8.125,,,1002.375,0,1.48437,0.46875,0,260,0,0,0,0,0,0,0,0,0,0
2024-3-23--13-44-12-97,37.10132,-97.44032,387.88,20.20703,1.00391,0.00781,-0.03516,,,,,1.54675,0.98291,-1.07654,1.25,-2.75,-0.625,-0.83667,1.24121,-2.08044,0,KD9ZMJ,-107,8.125,,,1002.25,0,1.48437,0.46875,0,260,0,0,0,0,0,0,0,0,0,0
2024-3-23--13-44-13-268,37.10132,-97.44032,387.88,20.25,1.04297,0,-0.03125,,,,,1.54602,1.00085,-1.09448,1.375,-3,-0.625,-0.83606,1.24231,-2.07141,0,KD9ZMJ,-106,8.0625,,,1002.3125,0,1.48437,0.46875,0,260,0,0,0,0,0,0,0,0,0,0
2024-3-23--13-44-13-331,37.10132,-97.44032,387.88,20.25,1,0,-0.03516,,,,,1.54602,1.00085,-1.09448,1.375,-3,-0.625,-0.83606,1.24231,-2.07141,0,KD9ZMJ,-106,8.0625,,,1002.3125,0,1.48437,0.46875,0,260,0,0,0,0,0,0,0,0,0,0
2024-3-23--13-44-13-396,37.10132,-97.44032,387.88,20.25,1.02734,0.01953,-0.01953,,,,,1.54602,1.00085,-1.09448,1.375,-3,-0.625,-0.83606,1.24231,-2.07141,0,KD9ZMJ,-106,8.0625,,,1002.375,0,1.48437,0.46875,0,260,0,0,0,0,0,0,0,0,0,0
2024-3-23--13-44-13-463,37.10132,-97.44032,387.88,20.25,1.03906,0.02344,-0.03906,,,,,1.54565,0.97705,-1.07068,1.375,-3,-0.625,-0.83606,1.24231,-2.07141,0,KD9ZMJ,-106,8.0625,,,1002.25,0,1.48437,0.46875,0,260,0,0,0,0,0,0,0,0,0,0
2024-3-23--13-44-13-528,37.10132,-97.44032,387.88,20.23828,1.02734,-0.01563,-0.01172,,,,,1.54565,0.97705,-1.07068,1.25,-2.5,-0.625,-0.84253,1.24036,-2.0719,0,KD9ZMJ,-104,8.375,,,1002.4375,0,1.48437,0.46875,0,260,0,0,0,0,0,0,0,0,0,0
2024-3-23--13-44-13-591,37.10132,-97.44032,387.88,20.23828,1.03516,0.01953,-0.03125,,,,,1.54565,0.97705,-1.07068,1.25,-2.5,-0.625,-0.84253,1.24036,-2.0719,0,KD9ZMJ,-104,8.375,,,1002.25,0,1.48437,0.46875,0,260,0,0,0,0,0,0,0,0,0,0
2024-3-23--13-44-13-656,37.10132,-97.44032,387.88,20.23828,1.03906,0.01563,-0.04687,,,,,1.54565,0.97705,-1.07068,1.25,-2.5,-0.625,-0.84253,1.24036,-2.0719,0,KD9ZMJ,-104,8.375,,,1002.4375,0,1.48437,0.46875,0,260,0,0,0,0,0,0,0,0,0,0
2024-3-23--13-44-13-723,37.10132,-97.44032,387.88,20.23828,1.05469,0.01172,-0.02734,,,,,1.54565,0.97705,-1.07068,1.25,-2.5,-0.625,-0.84253,1.24036,-2.0719,0,KD9ZMJ,-104,8.375,,,1002.25,0,1.48437,0.46875,0,260,0,0,0,0,0,0,0,0,0,0
2024-3-23--13-44-13-788,37.10132,-97.44032,387.88,20.23828,1.05078,0.00391,-0.03906,,,,,1.54565,0.97705,-1.07068,1.25,-2.125,-0.75,-0.84204,1.23853,-2.06921,0,KD9ZMJ,-104,8.0625,,,1002.25,0,1.48437,0.46875,0,260,0,0,0,0,0,0,0,0,0,0
2024-3-23--13-44-13-851,37.10132,-97.44032,387.88,20.23828,1.05078,0,-0.01953,,,,,1.54565,0.97705,-1.07068,1.25,-2.125,-0.75,-0.84204,1.23853,-2.06921,0,KD9ZMJ,-104,8.0625,,,1002.3125,0,1.48437,0.46875,0,260,0,0,0,0,0,0,0,0,0,0
2024-3-23--13-44-13-916,37.10132,-97.44032,387.88,20.23828,1.01172,0.00781,-0.03125,,,,,1.54565,0.97705,-1.07068,1.25,-2.125,-0.75,-0.84204,1.23853,-2.06921,0,KD9ZMJ,-104,8.0625,,,1002.1875,0,1.48437,0.46875,0,260,0,0,0,0,0,0,0,0,0,0
2024-3-23--13-44-13-983,37.10132,-97.44032,387.88,20.23828,1.03906,0.02344,-0.01953,,,,,1.54565,0.97705,-1.07068,1.25,-2.125,-0.75,-0.84204,1.23853,-2.06921,0,KD9ZMJ,-104,8.0625,,,1002.125,0,1.48437,0.46875,0,260,0,0,0,0,0,0,0,0,0,0
2024-3-23--13-44-14-111,37.10132,-97.44032,387.88,20.25,1.02734,0.01172,-0.03125,,,,,1.54565,0.97705,-1.07068,1.25,-3,-0.625,-0.83521,1.24475,-2.07678,0,KD9ZMJ,-106,8.1875,,,1002.25,0,1.48437,0.46875,0,260,0,0,0,0,0,0,0,0,0,0
2024-3-23--13-44-14-176,37.10132,-97.44032,387.88,20.25,1.03516,0,-0.01563,,,,,1.54565,0.97705,-1.07068,1.25,-3,-0.625,-0.83521,1.24475,-2.07678,0,KD9ZMJ,-106,8.1875,,,1002.125,0,1.48437,0.46875,0,260,0,0,0,0,0,0,0,0,0,0
2024-3-23--13-44-14-243,37.10132,-97.44032,387.88,20.25,1.01953,0.02344,-0.03125,,,,,1.54675,0.98291,-1.07654,1.25,-3,-0.625,-0.83521,1.24475,-2.07678,0,KD9ZMJ,-106,8.1875,,,1002.4375,0,1.48437,0.46875,0,260,0,0,0,0,0,0,0,0,0,0
2024-3-23--13-44-14-308,37.10132,-97.44032,387.88,20.26953,1.0625,0.01172,-0.05469,,,,,1.54675,0.98291,-1.07654,1.25,-2.375,-0.625,-0.84119,1.24353,-2.08081,0,KD9ZMJ,-107,8.125,,,1002.125,0,1.48437,0.46875,0,260,0,0,0,0,0,0,0,0,0,0
2024-3-23--13-44-14-371,37.10132,-97.44032,387.88,20.26953,1.05078,0.01172,-0.00781,,,,,1.54675,0.98291,-1.07654,1.25,-2.375,-0.625,-0.84119,1.24353,-2.08081,0,KD9ZMJ,-107,8.125,,,1002.3125,0,1.48437,0.46875,0,260,0,0,0,0,0,0,0,0,0,0
2024-3-23--13-44-14-436,37.10132,-97.44032,387.88,20.26953,1.03906,0.02344,-0.00781,,,,,1.54675,0.98291,-1.07654,1.25,-2.375,-0.625,-0.84119,1.24353,-2.08081,0,KD9ZMJ,-107,8.125,,,1002.25,0,1.48437,0.46875,0,260,0,0,0,0,0,0,0,0,0,0
2024-3-23--13-44-14-48,37.10132,-97.44032,387.88,20.25,1.03516,0,-0.05859,,,,,1.54565,0.97705,-1.07068,1.25,-3,-0.625,-0.83521,1.24475,-2.07678,0,KD9ZMJ,-106,8.1875,,,1002.0625,0,1.48437,0.46875,0,260,0,0,0,0,0,0,0,0,0,0
2024-3-23--13-44-14-503,37.10132,-97.44032,387.88,20.26953,1.01953,-0.00781,-0.03516,,,,,1.54675,0.98291,-1.07654,1.25,-2.375,-0.625,-0.84119,1.24353,-2.08081,0,KD9ZMJ,-107,8.125,,,1002.3125,0,1.48437,0.46875,0,260,0,0,0,0,0,0,0,0,0,0
2024-3-23--13-44-14-568,37.10132,-97.44032,387.88,20.27734,1.04688,-0.01172,-0.04297,,,,,1.54675,0.98291,-1.07654,1.25,-2.625,-0.75,-0.83862,1.24622,-2.07385,0,KD9ZMJ,-109,8.375,,,1002.25,0,1.48437,0.46875,0,260,0,0,0,0,0,0,0,0,0,0
2024-3-23--13-44-14-632,37.10132,-97.44032,387.88,20.27734,1.02734,0.02344,-0.01563,,,,,1.54675,0.98291,-1.07654,1.25,-2.625,-0.75,-0.83862,1.24622,-2.07385,0,KD9ZMJ,-109,8.375,,,1002.25,0,1.48437,0.46875,0,260,0,0,0,0,0,0,0,0,0,0
2024-3-23--13-44-14-697,37.10132,-97.44032,387.88,20.27734,1.03516,-0.00391,-0.04687,,,,,1.54675,0.98291,-1.07654,1.25,-2.625,-0.75,-0.83862,1.24622,-2.07385,0,KD9ZMJ,-109,8.375,,,1002.25,0,1.48437,0.46875,0,260,0,0,0,0,0,0,0,0,0,0
2024-3-23--13-44-14-762,37.10132,-97.44032,387.88,20.27734,1.03125,0.00391,-0.02344,,,,,1.54675,0.98291,-1.07654,1.25,-2.625,-0.75,-0.83862,1.24622,-2.07385,0,KD9ZMJ,-109,8.375,,,1002.25,0,1.48437,0.46875,0,260,0,0,0,0,0,0,0,0,0,0
2024-3-23--13-44-15-151,37.10132,-97.44032,387.88,20.27734,1.04297,-0.00391,-0.0625,,,,,1.54675,0.98291,-1.07654,1.375,-2.625,-0.625,-0.84204,1.24329,-2.07129,0,KD9ZMJ,-104,8.25,,,1002.25,0,1.48437,0.46875,0,260,0,0,0,0,0,0,0,0,0,0
2024-3-23--13-44-15-216,37.10132,-97.44032,387.88,20.27734,1.00781,-0.00781,-0.04297,,,,,1.54675,0.98291,-1.07654,1.375,-2.625,-0.625,-0.84204,1.24329,-2.07129,0,KD9ZMJ,-104,8.25,,,1002.25,0,1.48437,0.46875,0,260,0,0,0,0,0,0,0,0,0,0
2024-3-23--13-44-15-283,37.10132,-97.44032,387.88,20.27734,1.01953,-0.00391,-0.01953,,,,,1.54675,0.98291,-1.07654,1.375,-2.625,-0.625,-0.84204,1.24329,-2.07129,0,KD9ZMJ,-104,8.25,,,1002.3125,0,1.48437,0.46875,0,260,0,0,0,0,0,0,0,0,0,0
2024-3-23--13-44-15-348,37.10132,-97.44032,387.88,20.29688,1.03906,0.02344,-0.04297,,,,,1.54675,0.98291,-1.07654,1.25,-2.5,-0.625,-0.83411,1.24561,-2.07227,0,KD9ZMJ,-105,8.0625,,,1002.25,0,1.48437,0.46875,0,260,0,0,0,0,0,0,0,0,0,0
2024-3-23--13-44-15-412,37.10132,-97.44032,387.88,20.29688,1.03906,-0.00391,-0.03516,,,,,1.54675,0.98291,-1.07654,1.25,-2.5,-0.625,-0.83411,1.24561,-2.07227,0,KD9ZMJ,-105,8.0625,,,1002.375,0,1.48437,0.46875,0,260,0,0,0,0,0,0,0,0,0,0
2024-3-23--13-44-15-477,37.10132,-97.44032,387.88,20.29688,1.04297,0.01172,-0.05078,,,,,1.54712,1.00793,-1.10156,1.25,-2.5,-0.625,-0.83411,1.24561,-2.07227,0,KD9ZMJ,-105,8.0625,,,1002.3125,0,1.48437,0.46875,0,260,0,0,0,0,0,0,0,0,0,0
2024-3-23--13-44-15-543,37.10132,-97.44032,387.88,20.29688,1.03516,-0.00391,-0.03125,,,,,1.54712,1.00793,-1.10156,1.25,-2.5,-0.625,-0.83411,1.24561,-2.07227,0,KD9ZMJ,-105,8.0625,,,1002.25,0,1.48437,0.46875,0,260,0,0,0,0,0,0,0,0,0,0
2024-3-23--13-44-15-609,37.10132,-97.44032,387.88,20.27734,1.04688,0.01953,-0.01953,,,,,1.54712,1.00793,-1.10156,1.25,-2.375,-0.75,-0.83569,1.24988,-2.06848,0,KD9ZMJ,-105,8.375,,,1002.3125,0,1.48437,0.46875,0,260,0,0,0,0,0,0,0,0,0,0
2024-3-23--13-44-15-673,37.10132,-97.44032,387.88,20.27734,1.05078,0.00781,-0.03906,,,,,1.54712,1.00793,-1.10156,1.25,-2.375,-0.75,-0.83569,1.24988,-2.06848,0,KD9ZMJ,-105,8.375,,,1002.125,0,1.48437,0.46875,0,260,0,0,0,0,0,0,0,0,0,0
2024-3-23--13-44-15-737,37.10132,-97.44032,387.88,20.27734,1.03906,0.01563,-0.01953,,,,,1.54712,1.00793,-1.10156,1.25,-2.375,-0.75,-0.83569,1.24988,-2.06848,0,KD9ZMJ,-105,8.375,,,1002.25,0,1.48437,0.46875,0,260,0,0,0,0,0,0,0,0,0,0
2024-3-23--13-44-15-804,37.10132,-97.44032,387.88,20.27734,1.04297,0.02734,-0.04297,,,,,1.54712,1.00793,-1.10156,1.25,-2.375,-0.75,-0.83569,1.24988,-2.06848,0,KD9ZMJ,-105,8.375,,,1002.25,0,1.48437,0.46875,0,260,0,0,0,0,0,0,0,0,0,0
2024-3-23--13-44-15-869,37.10132,-97.44032,387.88,20.30859,1.01563,0.02344,-0.02344,,,,,1.54712,1.00793,-1.10156,1.25,-2.75,-0.625,-0.8396,1.23877,-2.07593,0,KD9ZMJ,-105,8,,,1002.25,0,1.48437,0.46875,0,260,0,0,0,0,0,0,0,0,0,0
2024-3-23--13-44-15-88,37.10132,-97.44032,387.88,20.27734,1.03516,0.01563,-0.04297,,,,,1.54675,0.98291,-1.07654,1.375,-2.625,-0.625,-0.84204,1.24329,-2.07129,0,KD9ZMJ,-104,8.25,,,1002.3125,0,1.48437,0.46875,0,260,0,0,0,0,0,0,0,0,0,0
2024-3-23--13-44-15-932,37.10132,-97.44032,387.88,20.30859,1.03906,0.02734,-0.07031,,,,,1.54712,1.00793,-1.10156,1.25,-2.75,-0.625,-0.8396,1.23877,-2.07593,0,KD9ZMJ,-105,8,,,1002.3125,0,1.48437,0.46875,0,260,0,0,0,0,0,0,0,0,0,0
2024-3-23--13-44-15-998,37.10132,-97.44032,387.88,20.30859,1.02344,-0.00781,-0.01563,,,,,1.54712,1.00793,-1.10156,1.25,-2.75,-0.625,-0.8396,1.23877,-2.07593,0,KD9ZMJ,-105,8,,,1002.1875,0,1.48437,0.46875,0,260,0,0,0,0,0,0,0,0,0,0
2024-3-23--13-44-16-129,37.10132,-97.44032,387.88,20.28906,1.03125,0.02344,-0.05859,,,,,1.54675,0.98291,-1.07654,1.25,-2.5,-0.625,-0.83374,1.24194,-2.07715,0,KD9ZMJ,-106,8.125,,,1002.3125,0,1.48437,0.46875,0,260,0,0,0,0,0,0,0,0,0,0
2024-3-23--13-44-16-192,37.10132,-97.44032,387.88,20.28906,1.01953,0,-0.02344,,,,,1.54675,0.98291,-1.07654,1.25,-2.5,-0.625,-0.83374,1.24194,-2.07715,0,KD9ZMJ,-106,8.125,,,1002.375,0,1.48437,0.46875,0,260,0,0,0,0,0,0,0,0,0,0
2024-3-23--13-44-16-257,37.10132,-97.44032,387.88,20.28906,1.02734,0.01563,0.00391,,,,,1.54675,0.98291,-1.07654,1.25,-2.5,-0.625,-0.83374,1.24194,-2.07715,0,KD9ZMJ,-106,8.125,,,1002.1875,0,1.48437,0.46875,0,260,0,0,0,0,0,0,0,0,0,0
2024-3-23--13-44-16-325,37.10132,-97.44032,387.88,20.28906,1.03125,0.00781,-0.05469,,,,,1.54675,0.98291,-1.07654,1.25,-2.5,-0.625,-0.83374,1.24194,-2.07715,0,KD9ZMJ,-106,8.125,,,1002.3125,0,1.48437,0.46875,0,260,0,0,0,0,0,0,0,0,0,0
2024-3-23--13-44-16-389,37.10132,-97.44032,387.88,20.28906,1.01563,-0.02344,-0.04297,,,,,1.54675,0.98291,-1.07654,1.375,-2.375,-0.625,-0.83813,1.23962,-2.07495,0,KD9ZMJ,-107,8.0625,,,1002.25,0,1.48437,0.46875,0,260,0,0,0,0,0,0,0,0,0,0
2024-3-23--13-44-16-452,37.10132,-97.44032,387.88,20.28906,1.01172,0.01172,-0.07422,,,,,1.54675,0.98291,-1.07654,1.375,-2.375,-0.625,-0.83813,1.23962,-2.07495,0,KD9ZMJ,-107,8.0625,,,1002.1875,0,1.48437,0.46875,0,260,0,0,0,0,0,0,0,0,0,0
2024-3-23--13-44-16-517,37.10132,-97.44032,387.88,20.28906,1.01172,0.00391,-0.03125,,,,,1.54529,0.95093,-1.04456,1.375,-2.375,-0.625,-0.83813,1.23962,-2.07495,0,KD9ZMJ,-107,8.0625,,,1002,0,1.48437,0.46875,0,260,0,0,0,0,0,0,0,0,0,0
2024-3-23--13-44-16-584,37.10132,-97.44032,387.88,20.28906,1.02344,-0.01172,-0.03906,,,,,1.54529,0.95093,-1.04456,1.375,-2.375,-0.625,-0.83813,1.23962,-2.07495,0,KD9ZMJ,-107,8.0625,,,1002.25,0,1.48437,0.46875,0,260,0,0,0,0,0,0,0,0,0,0
2024-3-23--13-44-16-64,37.10132,-97.44032,387.88,20.30859,1.06641,-0.00391,-0.04297,,,,,1.54675,0.98291,-1.07654,1.25,-2.75,-0.625,-0.8396,1.23877,-2.07593,0,KD9ZMJ,-105,8,,,1002.125,0,1.48437,0.46875,0,260,0,0,0,0,0,0,0,0,0,0
2024-3-23--13-44-16-649,37.10132,-97.44032,387.88,20.30859,1.03906,-0.02734,-0.03906,,,,,1.54529,0.95093,-1.04456,1.375,-2.75,-0.625,-0.83362,1.23889,-2.07458,0,KD9ZMJ,-105,8.1875,,,1002.25,0,1.48437,0.46875,0,260,0,0,0,0,0,0,0,0,0,0
2024-3-23--13-44-16-713,37.10132,-97.44032,387.88,20.30859,1.04297,-0.01953,-0.04687,,,,,1.54529,0.95093,-1.04456,1.375,-2.75,-0.625,-0.83362,1.23889,-2.07458,0,KD9ZMJ,-105,8.1875,,,1002.1875,0,1.48437,0.46875,0,260,0,0,0,0,0,0,0,0,0,0
2024-3-23--13-44-16-778,37.10132,-97.44032,387.88,20.30859,1.03516,0.00391,-0.04687,,,,,1.54529,0.95093,-1.04456,1.375,-2.75,-0.625,-0.83362,1.23889,-2.07458,0,KD9ZMJ,-105,8.1875,,,1002.125,0,1.48437,0.46875,0,260,0,0,0,0,0,0,0,0,0,0
2024-3-23--13-44-16-845,37.10132,-97.44032,387.88,20.30859,1.03906,0.00391,-0.01172,,,,,1.54529,0.95093,-1.04456,1.375,-2.75,-0.625,-0.83362,1.23889,-2.07458,0,KD9ZMJ,-105,8.1875,,,1002.25,0,1.48437,0.46875,0,260,0,0,0,0,0,0,0,0,0,0
2024-3-23--13-44-16-910,37.10132,-97.44032,387.88,20.29688,1.01563,0.02344,-0.02344,,,,,1.5448,0.92578,-1.01941,1.25,-2.25,-0.625,-0.83728,1.24255,-2.07861,0,KD9ZMJ,-106,8.125,,,1002.25,0,1.48437,0.46875,0,260,0,0,0,0,0,0,0,0,0,0
2024-3-23--13-44-16-975,37.10132,-97.44032,387.88,20.29688,1.04688,0.00391,-0.07031,,,,,1.5448,0.92578,-1.01941,1.25,-2.25,-0.625,-0.83728,1.24255,-2.07861,0,KD9ZMJ,-106,8.125,,,1002.25,0,1.48437,0.46875,0,260,0,0,0,0,0,0,0,0,0,0
2024-3-23--13-44-17-106,37.10132,-97.44032,387.88,20.29688,1.04297,0.02344,-0.01172,,,,,1.5448,0.92578,-1.01941,1.25,-2.25,-0.625,-0.83728,1.24255,-2.07861,0,KD9ZMJ,-106,8.125,,,1002.1875,0,1.48437,0.46875,0,260,0,0,0,0,0,0,0,0,0,0
2024-3-23--13-44-17-171,37.10132,-97.44032,387.88,20.31641,1.03516,0.00391,-0.03516,,,,,1.5448,0.92578,-1.01941,1.25,-3,-0.625,-0.83374,1.23853,-2.07043,0,KD9ZMJ,-106,8.125,,,1002.3125,0,1.48437,0.46875,0,260,0,0,0,0,0,0,0,0,0,0
2024-3-23--13-44-17-235,37.10132,-97.44032,387.88,20.31641,0.98828,0.01172,-0.01172,,,,,1.5448,0.92578,-1.01941,1.25,-3,-0.625,-0.83374,1.23853,-2.07043,0,KD9ZMJ,-106,8.125,,,1002.3125,0,1.48437,0.46875,0,260,0,0,0,0,0,0,0,0,0,0
2024-3-23--13-44-17-300,37.10132,-97.44032,387.88,20.31641,1.03516,-0.00781,-0.05859,,,,,1.5448,0.92578,-1.01941,1.25,-3,-0.625,-0.83374,1.23853,-2.07043,0,KD9ZMJ,-106,8.125,,,1002.1875,0,1.48437,0.46875,0,260,0,0,0,0,0,0,0,0,0,0
2024-3-23--13-44-17-367,37.10132,-97.44032,387.88,20.31641,1.05469,0.03125,-0.02344,,,,,1.5448,0.92578,-1.01941,1.25,-3,-0.625,-0.83374,1.23853,-2.07043,0,KD9ZMJ,-106,8.125,,,1002.0625,0,1.48437,0.46875,0,260,0,0,0,0,0,0,0,0,0,0
2024-3-23--13-44-17-39,37.10132,-97.44032,387.88,20.29688,1.03125,0.01953,-0.01172,,,,,1.5448,0.92578,-1.01941,1.25,-2.25,-0.625,-0.83728,1.24255,-2.07861,0,KD9ZMJ,-106,8.125,,,1002.1875,0,1.48437,0.46875,0,260,0,0,0,0,0,0,0,0,0,0
2024-3-23--13-44-17-432,37.10132,-97.44032,387.88,20.30859,1.03516,0.02734,0.00391,,,,,1.5448,0.92578,-1.01941,1.375,-2.5,-0.625,-0.84302,1.24023,-2.07422,0,KD9ZMJ,-105,8.375,,,1002.3125,0,1.48437,0.46875,0,260,0,0,0,0,0,0,0,0,0,0
2024-3-23--13-44-17-496,37.10132,-97.44032,387.88,20.30859,1.03516,0.01563,-0.0625,,,,,1.5448,0.92578,-1.01941,1.375,-2.5,-0.625,-0.84302,1.24023,-2.07422,0,KD9ZMJ,-105,8.375,,,1002.125,0,1.48437,0.46875,0,260,0,0,0,0,0,0,0,0,0,0
2024-3-23--13-44-17-561,37.10132,-97.44032,387.88,20.30859,1.03906,0,-0.02734,,,,,1.5448,0.92578,-1.01941,1.375,-2.5,-0.625,-0.84302,1.24023,-2.07422,0,KD9ZMJ,-105,8.375,,,1002.375,0,1.48437,0.46875,0,260,0,0,0,0,0,0,0,0,0,0
2024-3-23--13-44-17-628,37.10132,-97.44032,387.88,20.30859,1.04688,0.00391,-0.04297,,,,,1.5448,0.92578,-1.01941,1.375,-2.5,-0.625,-0.84302,1.24023,-2.07422,0,KD9ZMJ,-105,8.375,,,1002.25,0,1.48437,0.46875,0,260,0,0,0,0,0,0,0,0,0,0
2024-3-23--13-44-17-693,37.10132,-97.44032,387.88,20.32813,1.01953,0.01172,-0.03906,,,,,1.5448,0.92578,-1.01941,1.375,-2.25,-0.625,-0.8418,1.24231,-2.08167,0,KD9ZMJ,-107,8.375,,,1002.1875,0,1.48437,0.46875,0,260,0,0,0,0,0,0,0,0,0,0
2024-3-23--13-44-17-756,37.10132,-97.44032,387.88,20.32813,1.04688,0.00781,-0.0625,,,,,1.5448,0.92578,-1.01941,1.375,-2.25,-0.625,-0.8418,1.24231,-2.08167,0,KD9ZMJ,-107,8.375,,,1002.25,0,1.48437,0.46875,0,260,0,0,0,0,0,0,0,0,0,0
2024-3-23--13-44-17-821,37.10132,-97.44032,387.88,20.32813,1.01563,0,-0.01563,,,,,1.5448,0.92578,-1.01941,1.375,-2.25,-0.625,-0.8418,1.24231,-2.08167,0,KD9ZMJ,-107,8.375,,,1002.3125,0,1.48437,0.46875,0,260,0,0,0,0,0,0,0,0,0,0
2024-3-23--13-44-17-886,37.10132,-97.44032,387.88,20.32813,1.04297,0.03125,-0.05859,,,,,1.5448,0.92578,-1.01941,1.375,-2.25,-0.625,-0.8418,1.24231,-2.08167,0,KD9ZMJ,-107,8.375,,,1002.3125,0,1.48437,0.46875,0,260,0,0,0,0,0,0,0,0,0,0
2024-3-23--13-44-18-208,37.10132,-97.44032,387.88,20.33984,1.01563,-0.00391,-0.00781,,,,,1.5448,0.92578,-1.01941,1.375,-2.375,-0.75,-0.84045,1.24048,-2.07019,0,KD9ZMJ,-108,8.0625,,,1002.1875,0,1.48437,0.46875,0,260,0,0,0,0,0,0,0,0,0,0
2024-3-23--13-44-18-271,37.10132,-97.44032,387.88,20.33984,1.03516,0.02344,-0.0625,,,,,1.5448,0.92578,-1.01941,1.375,-2.375,-0.75,-0.84045,1.24048,-2.07019,0,KD9ZMJ,-108,8.0625,,,1002.125,0,1.48437,0.46875,0,260,0,0,0,0,0,0,0,0,0,0
2024-3-23--13-44-18-336,37.10132,-97.44032,387.88,20.33984,1.02734,0.00781,-0.04297,,,,,1.54529,0.95093,-1.04456,1.375,-2.375,-0.75,-0.84045,1.24048,-2.07019,0,KD9ZMJ,-108,8.0625,,,1002.125,0,1.48437,0.46875,0,260,0,0,0,0,0,0,0,0,0,0
2024-3-23--13-44-18-403,37.10132,-97.44032,387.88,20.33984,1.04688,0,-0.01563,,,,,1.54529,0.95093,-1.04456,1.375,-2.375,-0.75,-0.84045,1.24048,-2.07019,0,KD9ZMJ,-108,8.0625,,,1002.125,0,1.48437,0.46875,0,260,0,0,0,0,0,0,0,0,0,0
2024-3-23--13-44-18-468,37.10132,-97.44032,387.88,20.33984,1.03906,0.01953,0.00391,,,,,1.54529,0.95093,-1.04456,1.375,-2.25,-0.625,-0.83728,1.245,-2.08301,0,KD9ZMJ,-110,8,,,1002.3125,0,1.48437,0.46875,0,260,0,0,0,0,0,0,0,0,0,0
2024-3-23--13-44-18-531,37.10132,-97.44032,387.88,20.33984,1.02344,-0.01953,-0.03516,,,,,1.54529,0.95093,-1.04456,1.375,-2.25,-0.625,-0.83728,1.245,-2.08301,0,KD9ZMJ,-110,8,,,1002.1875,0,1.48437,0.46875,0,260,0,0,0,0,0,0,0,0,0,0
2024-3-23--13-44-18-596,37.10132,-97.44032,387.88,20.33984,1.05469,-0.01953,-0.04297,,,,,1.54529,0.95093,-1.04456,1.375,-2.25,-0.625,-0.83728,1.245,-2.08301,0,KD9ZMJ,-110,8,,,1002.3125,0,1.48437,0.46875,0,260,0,0,0,0,0,0,0,0,0,0
2024-3-23--13-44-18-663,37.10132,-97.44032,387.88,20.33984,1.01172,0.03125,-0.04297,,,,,1.54529,0.95093,-1.04456,1.375,-2.25,-0.625,-0.83728,1.245,-2.08301,0,KD9ZMJ,-110,8,,,1002.3125,0,1.48437,0.46875,0,260,0,0,0,0,0,0,0,0,0,0
2024-3-23--13-44-18-728,37.10132,-97.44032,387.88,20.35938,1.02344,0.00391,-0.03516,,,,,1.54529,0.95093,-1.04456,1.25,-2.75,-0.75,-0.83594,1.24988,-2.08447,0,KD9ZMJ,-109,8.125,,,1002.1875,0,1.48437,0.46875,0,260,0,0,0,0,0,0,0,0,0,0
2024-3-23--13-44-18-791,37.10132,-97.44032,387.88,20.35938,1.0625,0.00391,-0.03516,,,,,1.54529,0.95093,-1.04456,1.25,-2.75,-0.75,-0.83594,1.24988,-2.08447,0,KD9ZMJ,-109,8.125,,,1002.25,0,1.48437,0.46875,0,260,0,0,0,0,0,0,0,0,0,0
2024-3-23--13-44-18-856,37.10132,-97.44032,387.88,20.35938,1.02344,0.02734,-0.03516,,,,,1.54529,0.95093,-1.04456,1.25,-2.75,-0.75,-0.83594,1.24988,-2.08447,0,KD9ZMJ,-109,8.125,,,1002.375,0,1.48437,0.46875,0,260,0,0,0,0,0,0,0,0,0,0
2024-3-23--13-44-18-923,37.10132,-97.44032,387.88,20.35938,1.02734,-0.00781,-0.03906,,,,,1.54529,0.95093,-1.04456,1.25,-2.75,-0.75,-0.83594,1.24988,-2.08447,0,KD9ZMJ,-109,8.125,,,1002.3125,0,1.48437,0.46875,0,260,0,0,0,0,0,0,0,0,0,0
2024-3-23--13-44-18-988,37.10132,-97.44032,387.88,20.36719,1.00781,0.01563,-0.03516,,,,,1.54529,0.95093,-1.04456,1.25,-2,-0.75,-0.83557,1.24011,-2.08948,0,KD9ZMJ,-109,8.0625,,,1002.3125,0,1.48437,0.46875,0,260,0,0,0,0,0,0,0,0,0,0
2024-3-23--13-44-19-116,37.10132,-97.44032,387.88,20.36719,1.02734,0.03906,-0.02734,,,,,1.54419,0.98181,-1.07544,1.25,-2,-0.75,-0.83557,1.24011,-2.08948,0,KD9ZMJ,-109,8.0625,,,1002.1875,0,1.48437,0.46875,0,260,0,0,0,0,0,0,0,0,0,0
2024-3-23--13-44-19-183,37.10132,-97.44032,387.88,20.36719,1.02344,0.01563,-0.07031,,,,,1.54419,0.98181,-1.07544,1.25,-2,-0.75,-0.83557,1.24011,-2.08948,0,KD9ZMJ,-109,8.0625,,,1002.0625,0,1.48437,0.46875,0,260,0,0,0,0,0,0,0,0,0,0
2024-3-23--13-44-19-248,37.10132,-97.44032,387.88,20.34766,1.02734,0.01172,-0.07031,,,,,1.54419,0.98181,-1.07544,1.375,-3,-0.625,-0.84253,1.24402,-2.07983,0,KD9ZMJ,-109,8.1875,,,1002.3125,0,1.48437,0.46875,0,260,0,0,0,0,0,0,0,0,0,0
2024-3-23--13-44-19-311,37.10132,-97.44032,387.88,20.34766,1.03125,-0.00781,-0.01953,,,,,1.54419,0.98181,-1.07544,1.375,-3,-0.625,-0.84253,1.24402,-2.07983,0,KD9ZMJ,-109,8.1875,,,1002.125,0,1.48437,0.46875,0,260,0,0,0,0,0,0,0,0,0,0
2024-3-23--13-44-19-376,37.10132,-97.44032,387.88,20.34766,1.05078,-0.00781,-0.02344,,,,,1.54419,0.98181,-1.07544,1.375,-3,-0.625,-0.84253,1.24402,-2.07983,0,KD9ZMJ,-109,8.1875,,,1002.25,0,1.48437,0.46875,0,260,0,0,0,0,0,0,0,0,0,0
2024-3-23--13-44-19-443,37.10132,-97.44032,387.88,20.34766,1.03516,0.01172,-0.03906,,,,,1.54419,0.98181,-1.07544,1.375,-3,-0.625,-0.84253,1.24402,-2.07983,0,KD9ZMJ,-109,8.1875,,,1002.125,0,1.48437,0.46875,0,260,0,0,0,0,0,0,0,0,0,0
2024-3-23--13-44-19-508,37.10132,-97.44032,387.88,20.34766,1.05469,0.01172,-0.03906,,,,,1.54419,0.98181,-1.07544,1.375,-2.625,-0.625,-0.83984,1.24524,-2.078,0,KD9ZMJ,-110,8.25,,,1002.1875,0,1.48437,0.46875,0,260,0,0,0,0,0,0,0,0,0,0
2024-3-23--13-44-19-51,37.10132,-97.44032,387.88,20.36719,1.04688,0.00781,-0.05859,,,,,1.54529,0.95093,-1.04456,1.25,-2,-0.75,-0.83557,1.24011,-2.08948,0,KD9ZMJ,-109,8.0625,,,1002.3125,0,1.48437,0.46875,0,260,0,0,0,0,0,0,0,0,0,0
2024-3-23--13-44-19-570,37.10132,-97.44032,387.88,20.34766,1.01953,-0.00391,-0.03906,,,,,1.54419,0.98181,-1.07544,1.375,-2.625,-0.625,-0.83984,1.24524,-2.078,0,KD9ZMJ,-110,8.25,,,1002.3125,0,1.48437,0.46875,0,260,0,0,0,0,0,0,0,0,0,0
2024-3-23--13-44-19-636,37.10132,-97.44032,387.88,20.34766,1.03906,0,-0.03516,,,,,1.54419,0.98181,-1.07544,1.375,-2.625,-0.625,-0.83984,1.24524,-2.078,0,KD9ZMJ,-110,8.25,,,1002.25,0,1.48437,0.46875,0,260,0,0,0,0,0,0,0,0,0,0
2024-3-23--13-44-19-701,37.10132,-97.44032,387.88,20.34766,1.04297,-0.01172,-0.03516,,,,,1.5448,1.02747,-1.12109,1.375,-2.625,-0.625,-0.83984,1.24524,-2.078,0,KD9ZMJ,-110,8.25,,,1002.3125,0,1.48437,0.46875,0,260,0,0,0,0,0,0,0,0,0,0
2024-3-23--13-44-20-156,37.10132,-97.44032,387.88,20.36719,1.03125,-0.00391,0,,,,,1.54541,1.01453,-1.10815,1.25,-3,-0.75,-0.84558,1.24561,-2.073,0,KD9ZMJ,-108,8.125,,,1002.3125,0,1.48437,0.46875,0,260,0,0,0,0,0,0,0,0,0,0
2024-3-23--13-44-20-223,37.10132,-97.44032,387.88,20.36719,1.02344,0.03516,-0.06641,,,,,1.54541,1.01453,-1.10815,1.25,-3,-0.75,-0.84558,1.24561,-2.073,0,KD9ZMJ,-108,8.125,,,1002.3125,0,1.48437,0.46875,0,260,0,0,0,0,0,0,0,0,0,0
2024-3-23--13-44-20-27,37.10132,-97.44032,387.88,20.36719,1.01172,0.02734,-0.02344,,,,,1.5448,1.02747,-1.12109,1.25,-3,-0.75,-0.84558,1.24561,-2.073,0,KD9ZMJ,-108,8.125,,,1002.25,0,1.48437,0.46875,0,260,0,0,0,0,0,0,0,0,0,0
2024-3-23--13-44-20-288,37.10132,-97.44032,387.88,20.35938,1.04297,-0.00781,0.00781,,,,,1.54541,1.01453,-1.10815,1.25,-2.625,-0.625,-0.83728,1.25085,-2.07617,0,KD9ZMJ,-107,8.125,,,1002.1875,0,1.48437,0.46875,0,260,0,0,0,0,0,0,0,0,0,0
2024-3-23--13-44-20-352,37.10132,-97.44032,387.88,20.35938,1.04297,0,-0.05078,,,,,1.54541,1.01453,-1.10815,1.25,-2.625,-0.625,-0.83728,1.25085,-2.07617,0,KD9ZMJ,-107,8.125,,,1002.1875,0,1.48437,0.46875,0,260,0,0,0,0,0,0,0,0,0,0
2024-3-23--13-44-20-416,37.10132,-97.44032,387.88,20.35938,1.03906,0,-0.04297,,,,,1.54541,1.01453,-1.10815,1.25,-2.625,-0.625,-0.83728,1.25085,-2.07617,0,KD9ZMJ,-107,8.125,,,1002.25,0,1.48437,0.46875,0,260,0,0,0,0,0,0,0,0,0,0
2024-3-23--13-44-20-483,37.10132,-97.44032,387.88,20.35938,1.04688,-0.00781,-0.03906,,,,,1.54541,1.01453,-1.10815,1.25,-2.625,-0.625,-0.83728,1.25085,-2.07617,0,KD9ZMJ,-107,8.125,,,1002.1875,0,1.48437,0.46875,0,260,0,0,0,0,0,0,0,0,0,0
2024-3-23--13-44-20-548,37.10132,-97.44032,387.88,20.36719,1.05078,0.01563,-0.05078,,,,,1.54541,1.01453,-1.10815,1.25,-1.875,-0.75,-0.84106,1.2406,-2.07861,0,KD9ZMJ,-106,8.125,,,1002.1875,0,1.48437,0.46875,0,260,0,0,0,0,0,0,0,0,0,0
2024-3-23--13-44-20-611,37.10132,-97.44032,387.88,20.36719,1.03906,0.01953,-0.02344,,,,,1.54541,1.01453,-1.10815,1.25,-1.875,-0.75,-0.84106,1.2406,-2.07861,0,KD9ZMJ,-106,8.125,,,1002.25,0,1.48437,0.46875,0,260,0,0,0,0,0,0,0,0,0,0
2024-3-23--13-44-20-677,37.10132,-97.44032,387.88,20.36719,1.04297,0,-0.03516,,,,,1.54541,1.01453,-1.10815,1.25,-1.875,-0.75,-0.84106,1.2406,-2.07861,0,KD9ZMJ,-106,8.125,,,1002.0625,0,1.48437,0.46875,0,260,0,0,0,0,0,0,0,0,0,0
2024-3-23--13-44-20-744,37.10132,-97.44032,387.88,20.36719,1.01172,0.01953,-0.03125,,,,,1.54541,1.01453,-1.10815,1.25,-1.875,-0.75,-0.84106,1.2406,-2.07861,0,KD9ZMJ,-106,8.125,,,1002.375,0,1.48437,0.46875,0,260,0,0,0,0,0,0,0,0,0,0
2024-3-23--13-44-20-809,37.10132,-97.44032,387.88,20.38672,1.01172,-0.00391,-0.00781,,,,,1.54541,1.01453,-1.10815,1.375,-2.75,-0.625,-0.84326,1.24695,-2.07642,0,KD9ZMJ,-108,8.1875,,,1002.375,0,1.48437,0.46875,0,260,0,0,0,0,0,0,0,0,0,0
2024-3-23--13-44-20-873,37.10132,-97.44032,387.88,20.38672,1.01563,-0.01563,-0.04297,,,,,1.54541,1.01453,-1.10815,1.375,-2.75,-0.625,-0.84326,1.24695,-2.07642,0,KD9ZMJ,-108,8.1875,,,1002.25,0,1.48437,0.46875,0,260,0,0,0,0,0,0,0,0,0,0
2024-3-23--13-44-20-91,37.10132,-97.44032,387.88,20.36719,1.03125,-0.00781,-0.03516,,,,,1.5448,1.02747,-1.12109,1.25,-3,-0.75,-0.84558,1.24561,-2.073,0,KD9ZMJ,-108,8.125,,,1002.1875,0,1.48437,0.46875,0,260,0,0,0,0,0,0,0,0,0,0
2024-3-23--13-44-20-937,37.10132,-97.44032,387.88,20.38672,1.05078,0.03906,-0.03125,,,,,1.54602,1.00085,-1.09448,1.375,-2.75,-0.625,-0.84326,1.24695,-2.07642,0,KD9ZMJ,-108,8.1875,,,1002.25,0,1.48437,0.46875,0,260,0,0,0,0,0,0,0,0,0,0
2024-3-23--13-44-21-132,37.10132,-97.44032,387.88,20.38672,1.04297,0,-0.04297,,,,,1.54602,1.00085,-1.09448,1.375,-3,-0.625,-0.83728,1.2489,-2.08569,0,KD9ZMJ,-107,8.25,,,1002.25,0,1.48437,0.46875,0,260,0,0,0,0,0,0,0,0,0,0
2024-3-23--13-44-21-198,37.10132,-97.44032,387.88,20.38672,1.0625,0.03125,-0.02344,,,,,1.54602,1.00085,-1.09448,1.375,-3,-0.625,-0.83728,1.2489,-2.08569,0,KD9ZMJ,-107,8.25,,,1002.25,0,1.48437,0.46875,0,260,0,0,0,0,0,0,0,0,0,0
2024-3-23--13-44-21-264,37.10132,-97.44032,387.88,20.38672,1.04688,0.00781,-0.04687,,,,,1.54602,1.00085,-1.09448,1.375,-3,-0.625,-0.83728,1.2489,-2.08569,0,KD9ZMJ,-107,8.25,,,1002.125,0,1.48437,0.46875,0,260,0,0,0,0,0,0,0,0,0,0
2024-3-23--13-44-21-329,37.10132,-97.44032,387.88,20.39844,1.0625,0.00391,-0.00781,,,,,1.54602,1.00085,-1.09448,1.375,-1.75,-0.625,-0.84045,1.24194,-2.0835,0,KD9ZMJ,-107,8.1875,,,1002.125,0,1.48437,0.46875,0,260,0,0,0,0,0,0,0,0,0,0
2024-3-23--13-44-21-392,37.10132,-97.44032,387.88,20.39844,1.05078,0,-0.05859,,,,,1.54602,1.00085,-1.09448,1.375,-1.75,-0.625,-0.84045,1.24194,-2.0835,0,KD9ZMJ,-107,8.1875,,,1002.3125,0,1.48437,0.46875,0,260,0,0,0,0,0,0,0,0,0,0
2024-3-23--13-44-21-4,37.10132,-97.44032,387.88,20.38672,1.04688,0.01563,-0.05078,,,,,1.54602,1.00085,-1.09448,1.375,-2.75,-0.625,-0.84326,1.24695,-2.07642,0,KD9ZMJ,-108,8.1875,,,1002.25,0,1.48437,0.46875,0,260,0,0,0,0,0,0,0,0,0,0
2024-3-23--13-44-21-457,37.10132,-97.44032,387.88,20.39844,1.03516,0.01563,-0.03516,,,,,1.54602,1.00085,-1.09448,1.375,-1.75,-0.625,-0.84045,1.24194,-2.0835,0,KD9ZMJ,-107,8.1875,,,1002.1875,0,1.48437,0.46875,0,260,0,0,0,0,0,0,0,0,0,0
2024-3-23--13-44-21-524,37.10132,-97.44032,387.88,20.39844,1.05078,0.01953,-0.01953,,,,,1.54639,1.02515,-1.11926,1.375,-1.75,-0.625,-0.84045,1.24194,-2.0835,0,KD9ZMJ,-107,8.1875,,,1002.125,0,1.48437,0.46875,0,260,0,0,0,0,0,0,0,0,0,0
2024-3-23--13-44-21-589,37.10132,-97.44032,387.88,20.39844,1.04297,0,-0.05078,,,,,1.54639,1.02515,-1.11926,1.375,-2.5,-0.625,-0.84265,1.24622,-2.07837,0,KD9ZMJ,-107,8.1875,,,1002.3125,0,1.48437,0.46875,0,260,0,0,0,0,0,0,0,0,0,0
2024-3-23--13-44-21-652,37.10132,-97.44032,387.88,20.39844,1.02734,0,-0.03516,,,,,1.54639,1.02515,-1.11926,1.375,-2.5,-0.625,-0.84265,1.24622,-2.07837,0,KD9ZMJ,-107,8.1875,,,1002.25,0,1.48437,0.46875,0,260,0,0,0,0,0,0,0,0,0,0
2024-3-23--13-44-21-69,37.10132,-97.44032,387.88,20.38672,1.04297,0.00781,-0.04687,,,,,1.54602,1.00085,-1.09448,1.375,-3,-0.625,-0.83728,1.2489,-2.08569,0,KD9ZMJ,-107,8.25,,,1002.375,0,1.48437,0.46875,0,260,0,0,0,0,0,0,0,0,0,0
2024-3-23--13-44-21-717,37.10132,-97.44032,387.88,20.39844,1.04297,0,-0.0625,,,,,1.54639,1.02515,-1.11926,1.375,-2.5,-0.625,-0.84265,1.24622,-2.07837,0,KD9ZMJ,-107,8.1875,,,1002.25,0,1.48437,0.46875,0,260,0,0,0,0,0,0,0,0,0,0
2024-3-23--13-44-21-784,37.10132,-97.44032,387.88,20.39844,1.03516,0.01953,-0.03125,,,,,1.54639,1.02515,-1.11926,1.375,-2.5,-0.625,-0.84265,1.24622,-2.07837,0,KD9ZMJ,-107,8.1875,,,1002.3125,0,1.48437,0.46875,0,260,0,0,0,0,0,0,0,0,0,0
2024-3-23--13-44-21-849,37.10132,-97.44032,387.88,20.38672,1.03906,0.01172,-0.02344,,,,,1.54639,1.02515,-1.11926,1.375,-2.75,-0.625,-0.83606,1.24524,-2.08643,0,KD9ZMJ,-107,8.375,,,1002.25,0,1.48437,0.46875,0,260,0,0,0,0,0,0,0,0,0,0
2024-3-23--13-44-21-912,37.10132,-97.44032,387.88,20.38672,1.04297,0,-0.02344,,,,,1.54639,1.02515,-1.11926,1.375,-2.75,-0.625,-0.83606,1.24524,-2.08643,0,KD9ZMJ,-107,8.375,,,1002.25,0,1.48437,0.46875,0,260,0,0,0,0,0,0,0,0,0,0
2024-3-23--13-44-21-977,37.10132,-97.44032,387.88,20.38672,1.03516,-0.00391,-0.02734,,,,,1.54822,1.07947,-1.17249,1.375,-2.75,-0.625,-0.83606,1.24524,-2.08643,0,KD9ZMJ,-107,8.375,,,1002.3125,0,1.48437,0.46875,0,260,0,0,0,0,0,0,0,0,0,0
2024-3-23--13-44-22-109,37.10132,-97.44032,387.88,20.40625,1.02734,0.03125,-0.03516,,,,,1.54822,1.07947,-1.17249,1.25,-2.25,-0.625,-0.83679,1.24939,-2.07458,0,KD9ZMJ,-108,8.375,,,1002.0625,0,1.48437,0.46875,0,260,0,0,0,0,0,0,0,0,0,0
2024-3-23--13-44-22-173,37.10132,-97.44032,387.88,20.40625,1.03906,-0.00781,-0.01172,,,,,1.54822,1.07947,-1.17249,1.25,-2.25,-0.625,-0.83679,1.24939,-2.07458,0,KD9ZMJ,-108,8.375,,,1002.1875,0,1.48437,0.46875,0,260,0,0,0,0,0,0,0,0,0,0
2024-3-23--13-44-22-237,37.10132,-97.44032,387.88,20.40625,1.0625,0,-0.02344,,,,,1.54822,1.07947,-1.17249,1.25,-2.25,-0.625,-0.83679,1.24939,-2.07458,0,KD9ZMJ,-108,8.375,,,1002.3125,0,1.48437,0.46875,0,260,0,0,0,0,0,0,0,0,0,0
2024-3-23--13-44-22-303,37.10132,-97.44032,387.88,20.40625,1.03125,-0.00391,-0.04687,,,,,1.54822,1.07947,-1.17249,1.25,-2.25,-0.625,-0.83679,1.24939,-2.07458,0,KD9ZMJ,-108,8.375,,,1002.375,0,1.48437,0.46875,0,260,0,0,0,0,0,0,0,0,0,0
2024-3-23--13-44-22-44,37.10132,-97.44032,387.88,20.38672,1.01953,0.00391,-0.05078,,,,,1.54822,1.07947,-1.17249,1.375,-2.75,-0.625,-0.83606,1.24524,-2.08643,0,KD9ZMJ,-107,8.375,,,1002.3125,0,1.48437,0.46875,0,260,0,0,0,0,0,0,0,0,0,0
2024-3-23--13-44-23-928,37.10132,-97.44032,387.88,20.44922,1.02734,0.01172,-0.03906,,,,,1.54614,1.06604,-1.15759,1.25,-2.5,-0.75,-0.84241,1.24316,-2.07373,0,KD9ZMJ,-111,8,,,1002.1875,0,1.48437,0.46875,0,260,0,0,0,0,0,0,0,0,0,0
2024-3-23--13-44-23-991,37.10132,-97.44032,387.88,20.44922,1.04688,0.01172,-0.01563,,,,,1.54614,1.06604,-1.15759,1.25,-2.5,-0.75,-0.84241,1.24316,-2.07373,0,KD9ZMJ,-111,8,,,1002.375,0,1.48437,0.46875,0,260,0,0,0,0,0,0,0,0,0,0
2024-3-23--13-44-24-123,37.10132,-97.44032,387.88,20.44922,1.03516,0.01563,0.00781,,,,,1.54614,1.06604,-1.15759,1.25,-2.5,-0.75,-0.84241,1.24316,-2.07373,0,KD9ZMJ,-111,8,,,1002.125,0,1.48437,0.46875,0,260,0,0,0,0,0,0,0,0,0,0
2024-3-23--13-44-24-188,37.10132,-97.44032,387.88,20.4375,1.05469,0.01953,-0.03906,,,,,1.54675,1.05322,-1.14478,1.375,-2.625,-0.625,-0.84131,1.24109,-2.07556,0,KD9ZMJ,-110,8,,,1002.25,0,1.48437,0.46875,0,260,0,0,0,0,0,0,0,0,0,0
2024-3-23--13-44-24-252,37.10132,-97.44032,387.88,20.4375,1.01563,0.01953,-0.05078,,,,,1.54675,1.05322,-1.14478,1.375,-2.625,-0.625,-0.84131,1.24109,-2.07556,0,KD9ZMJ,-110,8,,,1002.1875,0,1.48437,0.46875,0,260,0,0,0,0,0,0,0,0,0,0
2024-3-23--13-44-24-317,37.10132,-97.44032,387.88,20.4375,1.03906,0.01563,-0.00781,,,,,1.54675,1.05322,-1.14478,1.375,-2.625,-0.625,-0.84131,1.24109,-2.07556,0,KD9ZMJ,-110,8,,,1002.25,0,1.48437,0.46875,0,260,0,0,0,0,0,0,0,0,0,0
2024-3-23--13-44-24-384,37.10132,-97.44032,387.88,20.4375,1.04297,0.00391,-0.04297,,,,,1.54675,1.05322,-1.14478,1.375,-2.625,-0.625,-0.84131,1.24109,-2.07556,0,KD9ZMJ,-110,8,,,1002.3125,0,1.48437,0.46875,0,260,0,0,0,0,0,0,0,0,0,0
2024-3-23--13-44-24-449,37.10132,-97.44032,387.88,20.44922,1.03516,0.00781,-0.03906,,,,,1.54675,1.05322,-1.14478,1.375,-2.625,-0.625,-0.84094,1.24353,-2.08081,0,KD9ZMJ,-111,8.375,,,1002.25,0,1.48437,0.46875,0,260,0,0,0,0,0,0,0,0,0,0
2024-3-23--13-44-24-512,37.10132,-97.44032,387.88,20.44922,1.01563,0.00781,-0.06641,,,,,1.54675,1.05322,-1.14478,1.375,-2.625,-0.625,-0.84094,1.24353,-2.08081,0,KD9ZMJ,-111,8.375,,,1002.3125,0,1.48437,0.46875,0,260,0,0,0,0,0,0,0,0,0,0
2024-3-23--13-44-24-56,37.10132,-97.44032,387.88,20.44922,1.01563,-0.00391,-0.05078,,,,,1.54614,1.06604,-1.15759,1.25,-2.5,-0.75,-0.84241,1.24316,-2.07373,0,KD9ZMJ,-111,8,,,1002.3125,0,1.48437,0.46875,0,260,0,0,0,0,0,0,0,0,0,0
2024-3-23--13-44-24-577,37.10132,-97.44032,387.88,20.44922,1.03125,-0.01953,-0.01172,,,,,1.54675,1.05322,-1.14478,1.375,-2.625,-0.625,-0.84094,1.24353,-2.08081,0,KD9ZMJ,-111,8.375,,,1002.3125,0,1.48437,0.46875,0,260,0,0,0,0,0,0,0,0,0,0
2024-3-23--13-44-24-644,37.10132,-97.44032,387.88,20.44922,1.05078,0,-0.03906,,,,,1.54675,1.05322,-1.14478,1.375,-2.625,-0.625,-0.84094,1.24353,-2.08081,0,KD9ZMJ,-111,8.375,,,1002.25,0,1.48437,0.46875,0,260,0,0,0,0,0,0,0,0,0,0
2024-3-23--13-44-24-709,37.10132,-97.44032,387.88,20.4375,1.01563,0.01953,-0.05859,,,,,1.54675,1.05322,-1.14478,1.375,-2,-0.625,-0.84277,1.24158,-2.06787,0,KD9ZMJ,-111,8.375,,,1002.25,0,1.48437,0.46875,0,260,0,0,0,0,0,0,0,0,0,0
2024-3-23--13-44-24-772,37.10132,-97.44032,387.88,20.4375,1.03125,0,-0.04687,,,,,1.54675,1.05322,-1.14478,1.375,-2,-0.625,-0.84277,1.24158,-2.06787,0,KD9ZMJ,-111,8.375,,,1002.25,0,1.48437,0.46875,0,260,0,0,0,0,0,0,0,0,0,0
2024-3-23--13-44-24-837,37.10132,-97.44032,387.88,20.4375,1.03125,0.03516,-0.02734,,,,,1.54675,1.05322,-1.14478,1.375,-2,-0.625,-0.84277,1.24158,-2.06787,0,KD9ZMJ,-111,8.375,,,1002.375,0,1.48437,0.46875,0,260,0,0,0,0,0,0,0,0,0,0
2024-3-23--13-44-24-904,37.10132,-97.44032,387.88,20.4375,1.02734,0.01563,-0.05469,,,,,1.54675,1.05322,-1.14478,1.375,-2,-0.625,-0.84277,1.24158,-2.06787,0,KD9ZMJ,-111,8.375,,,1002.1875,0,1.48437,0.46875,0,260,0,0,0,0,0,0,0,0,0,0
2024-3-23--13-44-24-969,37.10132,-97.44032,387.88,20.45703,1.01563,0.02734,-0.05469,,,,,1.54675,1.05322,-1.14478,1.25,-2.75,-0.75,-0.84607,1.23828,-2.07959,0,KD9ZMJ,-111,8.0625,,,1002.1875,0,1.48437,0.46875,0,260,0,0,0,0,0,0,0,0,0,0
2024-3-23--13-44-25-165,37.10132,-97.44032,387.88,20.45703,1.07031,0.00391,-0.04297,,,,,1.54675,1.05322,-1.14478,1.25,-2.75,-0.75,-0.84607,1.23828,-2.07959,0,KD9ZMJ,-111,8.0625,,,1002.25,0,1.48437,0.46875,0,260,0,0,0,0,0,0,0,0,0,0
2024-3-23--13-44-25-230,37.10132,-97.44032,387.88,20.46875,1.01953,0.00781,-0.03516,,,,,1.54675,1.05322,-1.14478,1.25,-2.5,-0.625,-0.83862,1.24121,-2.06946,0,KD9ZMJ,-109,8.125,,,1002.3125,0,1.48437,0.46875,0,260,0,0,0,0,0,0,0,0,0,0
2024-3-23--13-44-25-294,37.10132,-97.44032,387.88,20.46875,1.01953,0,-0.03125,,,,,1.54675,1.05322,-1.14478,1.25,-2.5,-0.625,-0.83862,1.24121,-2.06946,0,KD9ZMJ,-109,8.125,,,1002.3125,0,1.48437,0.46875,0,260,0,0,0,0,0,0,0,0,0,0
2024-3-23--13-44-25-33,37.10132,-97.44032,387.88,20.45703,1.04297,-0.00781,-0.02344,,,,,1.54675,1.05322,-1.14478,1.25,-2.75,-0.75,-0.84607,1.23828,-2.07959,0,KD9ZMJ,-111,8.0625,,,1002.3125,0,1.48437,0.46875,0,260,0,0,0,0,0,0,0,0,0,0
2024-3-23--13-44-25-358,37.10132,-97.44032,387.88,20.46875,1.04297,0.02344,-0.04297,,,,,1.54675,1.05322,-1.14478,1.25,-2.5,-0.625,-0.83862,1.24121,-2.06946,0,KD9ZMJ,-109,8.125,,,1002.25,0,1.48437,0.46875,0,260,0,0,0,0,0,0,0,0,0,0
2024-3-23--13-44-25-426,37.10132,-97.44032,387.88,20.46875,1.05078,0.01172,-0.05078,,,,,1.54675,1.05322,-1.14478,1.25,-2.5,-0.625,-0.83862,1.24121,-2.06946,0,KD9ZMJ,-109,8.125,,,1002.3125,0,1.48437,0.46875,0,260,0,0,0,0,0,0,0,0,0,0
2024-3-23--13-44-25-491,37.10132,-97.44032,387.88,20.46875,1.05469,-0.00781,-0.04297,,,,,1.54675,1.05322,-1.14478,1.25,-2.5,-0.75,-0.84521,1.24207,-2.08057,0,KD9ZMJ,-108,8.25,,,1002.375,0,1.48437,0.46875,0,260,0,0,0,0,0,0,0,0,0,0
2024-3-23--13-44-25-555,37.10132,-97.44032,387.88,20.46875,1.03906,0.01953,-0.01563,,,,,1.54675,1.05322,-1.14478,1.25,-2.5,-0.75,-0.84521,1.24207,-2.08057,0,KD9ZMJ,-108,8.25,,,1002.25,0,1.48437,0.46875,0,260,0,0,0,0,0,0,0,0,0,0
2024-3-23--13-44-25-620,37.10132,-97.44032,387.88,20.46875,1.04297,-0.00781,-0.01172,,,,,1.54675,1.05322,-1.14478,1.25,-2.5,-0.75,-0.84521,1.24207,-2.08057,0,KD9ZMJ,-108,8.25,,,1002.375,0,1.48437,0.46875,0,260,0,0,0,0,0,0,0,0,0,0
2024-3-23--13-44-25-687,37.10132,-97.44032,387.88,20.46875,1.00391,0,-0.02344,,,,,1.54675,1.05322,-1.14478,1.25,-2.5,-0.75,-0.84521,1.24207,-2.08057,0,KD9ZMJ,-108,8.25,,,1002.1875,0,1.48437,0.46875,0,260,0,0,0,0,0,0,0,0,0,0
2024-3-23--13-44-25-752,37.10132,-97.44032,387.88,20.47656,1.03516,-0.01172,-0.02734,,,,,1.54675,1.05322,-1.14478,1.375,-2.5,-0.625,-0.84009,1.24036,-2.08154,0,KD9ZMJ,-110,8.1875,,,1002.25,0,1.48437,0.46875,0,260,0,0,0,0,0,0,0,0,0,0
