#version,serial,flight,call,time,state,state_name,acceleration,pressure,altitude,height,speed,temperature,drogue_voltage,main_voltage,battery_voltage,accel_x,accel_y,accel_z,gyro_roll,gyro_pitch,gyro_yaw,mag_x,mag_y,mag_z,tilt,pyro,igniter_a,igniter_b,igniter_c,igniter_d,connected,locked,nsat,latitude,longitude,altitude,year,month,day,hour,minute,second,pad_dist,pad_range,pad_az,pad_el,pdop,hdop,vdop,sat01,sat02,sat03,sat04,sat05,sat06,sat07,sat08,sat09,sat10,sat11,sat12,sat13,sat14,sat15,sat16,sat17,sat18,sat19,sat20,sat21,sat22,sat23,sat24,sat25,sat26,sat27,sat28,sat29,sat30,sat31,sat32
6, 11069, 1,KE9ABJ,    -0.30, 3,   boost,   -0.00,  97591.00,  315.57,   -0.09,    0.00, 26.3, 4.20, 4.18, 4.15,   9.86,   0.05,   0.45,   0.10,  -0.01,  -0.01,  -0.06,  -0.12,  -0.04,   2.33, 4.19, 0.00, 0.00, 0.00, 4.19, 1, 1, 13,  37.1688385, -97.7339142,   383.0, 2024,  3, 23, 18, 54, 37,        0,        0,   0,   0,   1.2,   0.7,   0.9,  0, 29, 29,  0,  0, 42,  0,  0,  0,  0, 34,  0, 32, 26,  0,  0, 22,  0, 35,  0,  0, 31,  0, 33,  0,  0,  0,  0,  0, 38,  0,  0
6, 11069, 1,KE9ABJ,    -0.29, 3,   boost,    0.50,  97591.00,  315.57,   -0.09,    0.00, 26.3, 4.20, 4.18, 4.15,   9.86,   0.04,   0.40,   0.22,  -0.01,   0.23,  -0.06,  -0.12,  -0.04,   2.33, 4.19, 0.00, 0.00, 0.00, 4.19, 1, 1, 13,  37.1688385, -97.7339142,   383.0, 2024,  3, 23, 18, 54, 37,        0,        0,   0,   0,   1.2,   0.7,   0.9,  0, 29, 29,  0,  0, 42,  0,  0,  0,  0, 34,  0, 32, 26,  0,  0, 22,  0, 35,  0,  0, 31,  0, 33,  0,  0,  0,  0,  0, 38,  0,  0
6, 11069, 1,KE9ABJ,    -0.28, 3,   boost,   -1.51,  97584.00,  316.17,    0.51,    0.00, 26.3, 4.20, 4.18, 4.15,   9.84,   0.08,   0.41,   0.16,   0.42,  -0.08,  -0.06,  -0.12,  -0.04,   2.33, 4.19, 0.00, 0.00, 0.00, 4.19, 1, 1, 13,  37.1688385, -97.7339142,   383.0, 2024,  3, 23, 18, 54, 37,        0,        0,   0,   0,   1.2,   0.7,   0.9,  0, 29, 29,  0,  0, 42,  0,  0,  0,  0, 34,  0, 32, 26,  0,  0, 22,  0, 35,  0,  0, 31,  0, 33,  0,  0,  0,  0,  0, 38,  0,  0
6, 11069, 1,KE9ABJ,    -0.27, 3,   boost,   -0.50,  97584.00,  316.17,    0.51,    0.00, 26.3, 4.20, 4.18, 4.15,   9.83,   0.08,   0.35,  -0.02,  -0.01,   0.23,  -0.06,  -0.12,  -0.04,   2.33, 4.19, 0.00, 0.00, 0.00, 4.19, 1, 1, 13,  37.1688385, -97.7339142,   383.0, 2024,  3, 23, 18, 54, 37,        0,        0,   0,   0,   1.2,   0.7,   0.9,  0, 29, 29,  0,  0, 42,  0,  0,  0,  0, 34,  0, 32, 26,  0,  0, 22,  0, 35,  0,  0, 31,  0, 33,  0,  0,  0,  0,  0, 38,  0,  0
6, 11069, 1,KE9ABJ,    -0.26, 3,   boost,   -1.51,  97590.00,  315.66,    0.00,    0.00, 26.2, 4.20, 4.18, 4.15,   9.83,   0.07,   0.40,  -0.02,  -0.01,   0.05,  -0.06,  -0.12,  -0.04,   2.33, 4.19, 0.00, 0.00, 0.00, 4.19, 1, 1, 13,  37.1688385, -97.7339142,   383.0, 2024,  3, 23, 18, 54, 37,        0,        0,   0,   0,   1.2,   0.7,   0.9,  0, 29, 29,  0,  0, 42,  0,  0,  0,  0, 34,  0, 32, 26,  0,  0, 22,  0, 35,  0,  0, 31,  0, 33,  0,  0,  0,  0,  0, 38,  0,  0
6, 11069, 1,KE9ABJ,    -0.25, 3,   boost,   -0.50,  97590.00,  315.66,    0.00,    0.00, 26.2, 4.20, 4.18, 4.15,   9.85,   0.06,   0.37,   0.10,  -0.25,  -0.01,  -0.06,  -0.12,  -0.04,   2.33, 4.19, 0.00, 0.00, 0.00, 4.19, 1, 1, 13,  37.1688385, -97.7339142,   383.0, 2024,  3, 23, 18, 54, 37,        0,        0,   0,   0,   1.2,   0.7,   0.9,  0, 29, 29,  0,  0, 42,  0,  0,  0,  0, 34,  0, 32, 26,  0,  0, 22,  0, 35,  0,  0, 31,  0, 33,  0,  0,  0,  0,  0, 38,  0,  0
6, 11069, 1,KE9ABJ,    -0.24, 3,   boost,   -2.01,  97587.00,  315.91,    0.26,    0.00, 26.3, 4.20, 4.18, 4.15,   9.84,   0.07,   0.34,   0.16,  -0.19,   0.11,  -0.06,  -0.12,  -0.04,   2.33, 4.19, 0.00, 0.00, 0.00, 4.19, 1, 1, 13,  37.1688385, -97.7339142,   383.0, 2024,  3, 23, 18, 54, 37,        0,        0,   0,   0,   1.2,   0.7,   0.9,  0, 29, 29,  0,  0, 42,  0,  0,  0,  0, 34,  0, 32, 26,  0,  0, 22,  0, 35,  0,  0, 31,  0, 33,  0,  0,  0,  0,  0, 38,  0,  0
6, 11069, 1,KE9ABJ,    -0.23, 3,   boost,   -1.51,  97587.00,  315.91,    0.26,    0.00, 26.3, 4.20, 4.18, 4.15,   9.83,   0.06,   0.40,   0.22,  -0.13,  -0.20,  -0.06,  -0.12,  -0.04,   2.33, 4.19, 0.00, 0.00, 0.00, 4.19, 1, 1, 13,  37.1688385, -97.7339142,   383.0, 2024,  3, 23, 18, 54, 37,        0,        0,   0,   0,   1.2,   0.7,   0.9,  0, 29, 29,  0,  0, 42,  0,  0,  0,  0, 34,  0, 32, 26,  0,  0, 22,  0, 35,  0,  0, 31,  0, 33,  0,  0,  0,  0,  0, 38,  0,  0
6, 11069, 1,KE9ABJ,    -0.22, 3,   boost,   -0.00,  97590.00,  315.66,    0.00,    0.00, 26.2, 4.20, 4.18, 4.15,   9.83,   0.09,   0.37,   0.04,  -0.07,  -0.14,  -0.06,  -0.12,  -0.04,   2.33, 4.19, 0.00, 0.00, 0.00, 4.19, 1, 1, 13,  37.1688385, -97.7339142,   383.0, 2024,  3, 23, 18, 54, 37,        0,        0,   0,   0,   1.2,   0.7,   0.9,  0, 29, 29,  0,  0, 42,  0,  0,  0,  0, 34,  0, 32, 26,  0,  0, 22,  0, 35,  0,  0, 31,  0, 33,  0,  0,  0,  0,  0, 38,  0,  0
6, 11069, 1,KE9ABJ,    -0.21, 3,   boost,   -1.51,  97590.00,  315.66,    0.00,    0.00, 26.2, 4.20, 4.18, 4.15,   9.84,   0.04,   0.38,   0.28,   0.11,  -0.14,  -0.06,  -0.12,  -0.04,   2.33, 4.19, 0.00, 0.00, 0.00, 4.19, 1, 1, 13,  37.1688385, -97.7339142,   383.0, 2024,  3, 23, 18, 54, 37,        0,        0,   0,   0,   1.2,   0.7,   0.9,  0, 29, 29,  0,  0, 42,  0,  0,  0,  0, 34,  0, 32, 26,  0,  0, 22,  0, 35,  0,  0, 31,  0, 33,  0,  0,  0,  0,  0, 38,  0,  0
6, 11069, 1,KE9ABJ,    -0.20, 3,   boost,   -1.01,  97594.00,  315.31,   -0.34,    0.00, 26.2, 4.20, 4.18, 4.15,   9.85,   0.09,   0.37,   0.04,  -0.32,  -0.01,  -0.06,  -0.12,  -0.04,   2.33, 4.19, 0.00, 0.00, 0.00, 4.19, 1, 1, 13,  37.1688385, -97.7339142,   383.0, 2024,  3, 23, 18, 54, 37,        0,        0,   0,   0,   1.2,   0.7,   0.9,  0, 29, 29,  0,  0, 42,  0,  0,  0,  0, 34,  0, 32, 26,  0,  0, 22,  0, 35,  0,  0, 31,  0, 33,  0,  0,  0,  0,  0, 38,  0,  0
6, 11069, 1,KE9ABJ,    -0.19, 3,   boost,   -1.01,  97594.00,  315.31,   -0.34,    0.00, 26.2, 4.20, 4.18, 4.15,   9.85,   0.10,   0.39,   0.28,  -0.01,   0.17,  -0.06,  -0.12,  -0.04,   2.33, 4.19, 0.00, 0.00, 0.00, 4.19, 1, 1, 13,  37.1688385, -97.7339142,   383.0, 2024,  3, 23, 18, 54, 37,        0,        0,   0,   0,   1.2,   0.7,   0.9,  0, 29, 29,  0,  0, 42,  0,  0,  0,  0, 34,  0, 32, 26,  0,  0, 22,  0, 35,  0,  0, 31,  0, 33,  0,  0,  0,  0,  0, 38,  0,  0
6, 11069, 1,KE9ABJ,    -0.18, 3,   boost,   -1.01,  97588.00,  315.83,    0.17,    0.00, 26.3, 4.20, 4.18, 4.15,   9.91,   0.03,   0.40,   0.34,   0.05,  -0.08,  -0.06,  -0.12,  -0.04,   2.33, 4.19, 0.00, 0.00, 0.00, 4.19, 1, 1, 13,  37.1688385, -97.7339142,   383.0, 2024,  3, 23, 18, 54, 37,        0,        0,   0,   0,   1.2,   0.7,   0.9,  0, 29, 29,  0,  0, 42,  0,  0,  0,  0, 34,  0, 32, 26,  0,  0, 22,  0, 35,  0,  0, 31,  0, 33,  0,  0,  0,  0,  0, 38,  0,  0
6, 11069, 1,KE9ABJ,    -0.17, 3,   boost,    0.50,  97588.00,  315.83,    0.17,    0.00, 26.3, 4.20, 4.18, 4.15,   9.85,   0.11,   0.34,   0.65,  -0.01,  -0.08,  -0.06,  -0.12,  -0.04,   2.33, 4.19, 0.00, 0.00, 0.00, 4.19, 1, 1, 13,  37.1688385, -97.7339142,   383.0, 2024,  3, 23, 18, 54, 37,        0,        0,   0,   0,   1.2,   0.7,   0.9,  0, 29, 29,  0,  0, 42,  0,  0,  0,  0, 34,  0, 32, 26,  0,  0, 22,  0, 35,  0,  0, 31,  0, 33,  0,  0,  0,  0,  0, 38,  0,  0
6, 11069, 1,KE9ABJ,    -0.16, 3,   boost,   -1.01,  97585.00,  316.08,    0.43,    0.01, 26.2, 4.20, 4.18, 4.15,   9.86,   0.02,   0.42,   0.53,  -0.38,   0.11,  -0.06,  -0.12,  -0.04,   2.33, 4.19, 0.00, 0.00, 0.00, 4.19, 1, 1, 13,  37.1688385, -97.7339142,   383.0, 2024,  3, 23, 18, 54, 37,        0,        0,   0,   0,   1.2,   0.7,   0.9,  0, 29, 29,  0,  0, 42,  0,  0,  0,  0, 34,  0, 32, 26,  0,  0, 22,  0, 35,  0,  0, 31,  0, 33,  0,  0,  0,  0,  0, 38,  0,  0
6, 11069, 1,KE9ABJ,    -0.15, 3,   boost,    2.01,  97585.00,  316.08,    0.43,    0.04, 26.2, 4.20, 4.18, 4.15,  10.11,   0.05,   0.42,   0.71,  -0.13,   0.05,  -0.06,  -0.12,  -0.04,   2.33, 4.19, 0.00, 0.00, 0.00, 4.19, 1, 1, 13,  37.1688385, -97.7339142,   383.0, 2024,  3, 23, 18, 54, 37,        0,        0,   0,   0,   1.2,   0.7,   0.9,  0, 29, 29,  0,  0, 42,  0,  0,  0,  0, 34,  0, 32, 26,  0,  0, 22,  0, 35,  0,  0, 31,  0, 33,  0,  0,  0,  0,  0, 38,  0,  0
6, 11069, 1,KE9ABJ,    -0.14, 3,   boost,    1.01,  97596.00,  315.14,   -0.51,    0.13, 26.2, 4.20, 4.18, 4.15,  11.89,   0.17,   0.39,   1.02,   0.48,   0.23,  -0.06,  -0.12,  -0.04,   2.33, 4.19, 0.00, 0.00, 0.00, 4.19, 1, 1, 13,  37.1688385, -97.7339142,   383.0, 2024,  3, 23, 18, 54, 37,        0,        0,   0,   0,   1.2,   0.7,   0.9,  0, 29, 29,  0,  0, 42,  0,  0,  0,  0, 34,  0, 32, 26,  0,  0, 22,  0, 35,  0,  0, 31,  0, 33,  0,  0,  0,  0,  0, 38,  0,  0
6, 11069, 1,KE9ABJ,    -0.13, 3,   boost,   23.13,  97596.00,  315.14,   -0.51,    0.29, 26.2, 4.20, 4.18, 4.15,  11.21,  -0.41,   0.76,  -1.79,  -0.44,  -0.32,  -0.06,  -0.12,  -0.04,   2.33, 4.19, 0.00, 0.00, 0.00, 4.19, 1, 1, 13,  37.1688385, -97.7339142,   383.0, 2024,  3, 23, 18, 54, 37,        0,        0,   0,   0,   1.2,   0.7,   0.9,  0, 29, 29,  0,  0, 42,  0,  0,  0,  0, 34,  0, 32, 26,  0,  0, 22,  0, 35,  0,  0, 31,  0, 33,  0,  0,  0,  0,  0, 38,  0,  0
6, 11069, 1,KE9ABJ,    -0.12, 3,   boost,   50.29,  97603.00,  314.54,   -1.12,    0.54, 26.2, 4.20, 4.18, 4.15,  24.00,   1.26,   0.85,  -4.48,  -0.38,   0.05,  -0.06,  -0.12,  -0.04,   2.33, 4.19, 0.00, 0.00, 0.00, 4.19, 1, 1, 13,  37.1688385, -97.7339142,   383.0, 2024,  3, 23, 18, 54, 37,        0,        0,   0,   0,   1.2,   0.7,   0.9,  0, 29, 29,  0,  0, 42,  0,  0,  0,  0, 34,  0, 32, 26,  0,  0, 22,  0, 35,  0,  0, 31,  0, 33,  0,  0,  0,  0,  0, 38,  0,  0
6, 11069, 1,KE9ABJ,    -0.11, 3,   boost,   37.72,  97603.00,  314.54,   -1.12,    0.85, 26.2, 4.20, 4.18, 4.15,  46.22,  -0.96,   0.21,  -4.23,  -0.32,  -1.48,  -0.06,  -0.12,  -0.04,   2.33, 4.19, 0.00, 0.00, 0.00, 4.19, 1, 1, 13,  37.1688385, -97.7339142,   383.0, 2024,  3, 23, 18, 54, 37,        0,        0,   0,   0,   1.2,   0.7,   0.9,  0, 29, 29,  0,  0, 42,  0,  0,  0,  0, 34,  0, 32, 26,  0,  0, 22,  0, 35,  0,  0, 31,  0, 33,  0,  0,  0,  0,  0, 38,  0,  0
6, 11069, 1,KE9ABJ,    -0.10, 3,   boost,   37.21,  97605.00,  314.37,   -1.29,    1.23, 26.2, 4.20, 4.18, 4.15,  50.40,  -0.61,   1.50,  -9.18,  -0.32,   0.23,  -0.05,  -0.12,  -0.05,   2.33, 4.19, 0.00, 0.00, 0.00, 4.19, 1, 1, 13,  37.1688385, -97.7339142,   383.0, 2024,  3, 23, 18, 54, 37,        0,        0,   0,   0,   1.2,   0.7,   0.9,  0, 29, 29,  0,  0, 42,  0,  0,  0,  0, 34,  0, 32, 26,  0,  0, 22,  0, 35,  0,  0, 31,  0, 33,  0,  0,  0,  0,  0, 38,  0,  0
6, 11069, 1,KE9ABJ,    -0.09, 3,   boost,   42.24,  97605.00,  314.37,   -1.29,    1.63, 26.2, 4.20, 4.18, 4.15,  48.57,   0.75,   0.63, -11.38,   0.42,   1.15,  -0.05,  -0.12,  -0.04,   2.33, 4.19, 0.00, 0.00, 0.00, 4.19, 1, 1, 13,  37.1688385, -97.7339142,   383.0, 2024,  3, 23, 18, 54, 37,        0,        0,   0,   0,   1.2,   0.7,   0.9,  0, 29, 29,  0,  0, 42,  0,  0,  0,  0, 34,  0, 32, 26,  0,  0, 22,  0, 35,  0,  0, 31,  0, 33,  0,  0,  0,  0,  0, 38,  0,  0
6, 11069, 1,KE9ABJ,    -0.08, 3,   boost,   42.24,  97605.00,  314.37,   -1.29,    2.07, 26.2, 4.20, 4.18, 4.15,  50.05,   1.07,   0.75, -17.84,  -2.02,   1.51,  -0.05,  -0.11,  -0.05,   2.33, 4.19, 0.00, 0.00, 0.00, 4.19, 1, 1, 13,  37.1688385, -97.7339142,   383.0, 2024,  3, 23, 18, 54, 37,        0,        0,   0,   0,   1.2,   0.7,   0.9,  0, 29, 29,  0,  0, 42,  0,  0,  0,  0, 34,  0, 32, 26,  0,  0, 22,  0, 35,  0,  0, 31,  0, 33,  0,  0,  0,  0,  0, 38,  0,  0
6, 11069, 1,KE9ABJ,    -0.07, 3,   boost,   48.28,  97605.00,  314.37,   -1.29,    2.53, 26.2, 4.20, 4.18, 4.15,  52.82,   0.70,   0.17, -19.80,   0.78,   0.23,  -0.04,  -0.11,  -0.05,   2.33, 4.19, 0.00, 0.00, 0.00, 4.19, 1, 1, 13,  37.1688385, -97.7339142,   383.0, 2024,  3, 23, 18, 54, 37,        0,        0,   0,   0,   1.2,   0.7,   0.9,  0, 29, 29,  0,  0, 42,  0,  0,  0,  0, 34,  0, 32, 26,  0,  0, 22,  0, 35,  0,  0, 31,  0, 33,  0,  0,  0,  0,  0, 38,  0,  0
6, 11069, 1,KE9ABJ,    -0.06, 3,   boost,   49.28,  97607.00,  314.20,   -1.46,    3.02, 26.2, 4.20, 4.18, 4.15,  56.30,   0.91,   1.37, -17.36,  -0.13,   0.90,  -0.04,  -0.10,  -0.05,   2.33, 4.19, 0.00, 0.00, 0.00, 4.19, 1, 1, 13,  37.1688385, -97.7339142,   383.0, 2024,  3, 23, 18, 54, 37,        0,        0,   0,   0,   1.2,   0.7,   0.9,  0, 29, 29,  0,  0, 42,  0,  0,  0,  0, 34,  0, 32, 26,  0,  0, 22,  0, 35,  0,  0, 31,  0, 33,  0,  0,  0,  0,  0, 38,  0,  0
6, 11069, 1,KE9ABJ,    -0.05, 3,   boost,   56.33,  97607.00,  314.20,   -1.46,    3.53, 26.2, 4.20, 4.18, 4.15,  59.60,   0.42,   0.80, -16.69,   1.03,  -0.32,  -0.03,  -0.09,  -0.05,   2.33, 4.19, 0.00, 0.00, 0.00, 4.19, 1, 1, 13,  37.1688385, -97.7339142,   383.0, 2024,  3, 23, 18, 54, 37,        0,        0,   0,   0,   1.2,   0.7,   0.9,  0, 29, 29,  0,  0, 42,  0,  0,  0,  0, 34,  0, 32, 26,  0,  0, 22,  0, 35,  0,  0, 31,  0, 33,  0,  0,  0,  0,  0, 38,  0,  0
6, 11069, 1,KE9ABJ,    -0.04, 3,   boost,   56.83,  97616.00,  313.42,   -2.23,    4.08, 26.2, 4.20, 4.18, 4.15,  62.56,   1.86,   1.94, -17.11,  -2.02,  -0.50,  -0.02,  -0.08,  -0.05,   2.33, 4.19, 0.00, 0.00, 0.00, 4.19, 1, 1, 13,  37.1688385, -97.7339142,   383.0, 2024,  3, 23, 18, 54, 37,        0,        0,   0,   0,   1.2,   0.7,   0.9,  0, 29, 29,  0,  0, 42,  0,  0,  0,  0, 34,  0, 32, 26,  0,  0, 22,  0, 35,  0,  0, 31,  0, 33,  0,  0,  0,  0,  0, 38,  0,  0
6, 11069, 1,KE9ABJ,    -0.03, 3,   boost,   55.82,  97616.00,  313.42,   -2.23,    4.63, 26.2, 4.20, 4.18, 4.15,  65.74,   0.93,   1.34, -17.30,  -0.80,   0.17,  -0.01,  -0.07,  -0.05,   2.33, 4.19, 0.00, 0.00, 0.00, 4.19, 1, 1, 13,  37.1688385, -97.7339142,   383.0, 2024,  3, 23, 18, 54, 37,        0,        0,   0,   0,   1.2,   0.7,   0.9,  0, 29, 29,  0,  0, 42,  0,  0,  0,  0, 34,  0, 32, 26,  0,  0, 22,  0, 35,  0,  0, 31,  0, 33,  0,  0,  0,  0,  0, 38,  0,  0
6, 11069, 1,KE9ABJ,    -0.02, 3,   boost,   59.34,  97606.00,  314.28,   -1.37,    5.21, 26.2, 4.20, 4.18, 4.15,  67.40,  -0.32,   0.18, -18.09,   1.03,  -1.66,  -0.00,  -0.05,  -0.05,   2.33, 4.19, 0.00, 0.00, 0.00, 4.19, 1, 1, 13,  37.1688385, -97.7339142,   383.0, 2024,  3, 23, 18, 54, 37,        0,        0,   0,   0,   1.2,   0.7,   0.9,  0, 29, 29,  0,  0, 42,  0,  0,  0,  0, 34,  0, 32, 26,  0,  0, 22,  0, 35,  0,  0, 31,  0, 33,  0,  0,  0,  0,  0, 38,  0,  0
6, 11069, 1,KE9ABJ,    -0.01, 3,   boost,   57.33,  97606.00,  314.28,   -1.37,    5.79, 26.2, 4.20, 4.18, 4.15,  67.71,  -1.60,   0.51, -18.09,   0.78,  -0.87,   0.02,  -0.02,  -0.06,   2.33, 4.19, 0.00, 0.00, 0.00, 4.19, 1, 1, 13,  37.1688385, -97.7339142,   383.0, 2024,  3, 23, 18, 54, 37,        0,        0,   0,   0,   1.2,   0.7,   0.9,  0, 29, 29,  0,  0, 42,  0,  0,  0,  0, 34,  0, 32, 26,  0,  0, 22,  0, 35,  0,  0, 31,  0, 33,  0,  0,  0,  0,  0, 38,  0,  0
6, 11069, 1,KE9ABJ,     0.00, 3,   boost,   60.35,  97594.00,  315.31,   -0.34,    6.38, 26.2, 4.20, 4.18, 4.15,  68.77,  -0.06,   0.41, -17.66,   0.23,  -0.75,   0.03,   0.03,  -0.06,   2.33, 4.19, 0.00, 0.00, 0.00, 4.19, 1, 1, 13,  37.1688385, -97.7339142,   383.0, 2024,  3, 23, 18, 54, 37,        0,        0,   0,   0,   1.2,   0.7,   0.9,  0, 29, 29,  0,  0, 42,  0,  0,  0,  0, 34,  0, 32, 26,  0,  0, 22,  0, 35,  0,  0, 31,  0, 33,  0,  0,  0,  0,  0, 38,  0,  0
6, 11069, 1,KE9ABJ,     0.00, 3,   boost,   60.35,  97594.00,  315.31,   -0.34,    6.38, 26.2, 4.20, 4.18, 4.15,  68.77,  -0.06,   0.41, -17.66,   0.23,  -0.75,   0.03,   0.03,  -0.06,   2.33, 4.19, 0.00, 0.00, 0.00, 4.19, 1, 1, 13,  37.1688385, -97.7339142,   383.0, 2024,  3, 23, 18, 54, 37,        0,        0,   0,   0,   1.2,   0.7,   0.9,  0, 29, 29,  0,  0, 42,  0,  0,  0,  0, 34,  0, 32, 26,  0,  0, 22,  0, 35,  0,  0, 31,  0, 33,  0,  0,  0,  0,  0, 38,  0,  0
6, 11069, 1,KE9ABJ,     0.00, 3,   boost,   60.35,  97594.00,  315.31,   -0.34,    6.38, 26.2, 4.20, 4.18, 4.15,  68.77,  -0.06,   0.41, -17.66,   0.23,  -0.75,   0.03,   0.03,  -0.06,   2.33, 4.19, 0.00, 0.00, 0.00, 4.19, 1, 1, 13,  37.1688385, -97.7339142,   383.0, 2024,  3, 23, 18, 54, 37,        0,        0,   0,   0,   1.2,   0.7,   0.9,  0, 29, 29,  0,  0, 42,  0,  0,  0,  0, 34,  0, 32, 26,  0,  0, 22,  0, 35,  0,  0, 31,  0, 33,  0,  0,  0,  0,  0, 38,  0,  0
6, 11069, 1,KE9ABJ,     0.00, 3,   boost,   60.35,  97594.00,  315.31,   -0.34,    6.38, 26.2, 4.20, 4.18, 4.15,  68.77,  -0.06,   0.41, -17.66,   0.23,  -0.75,   0.03,   0.03,  -0.06,   2.33, 4.19, 0.00, 0.00, 0.00, 4.19, 1, 1, 13,  37.1688385, -97.7339142,   383.0, 2024,  3, 23, 18, 54, 37,        0,        0,   0,   0,   1.2,   0.7,   0.9,  0, 29, 29,  0,  0, 42,  0,  0,  0,  0, 34,  0, 32, 26,  0,  0, 22,  0, 35,  0,  0, 31,  0, 33,  0,  0,  0,  0,  0, 38,  0,  0
6, 11069, 1,KE9ABJ,     0.00, 3,   boost,   60.35,  97594.00,  315.31,   -0.34,    6.38, 26.2, 4.20, 4.18, 4.15,  68.77,  -0.06,   0.41, -17.66,   0.23,  -0.75,   0.03,   0.03,  -0.06,   2.33, 4.19, 0.00, 0.00, 0.00, 4.19, 1, 1, 13,  37.1688385, -97.7339142,   383.0, 2024,  3, 23, 18, 54, 37,        0,        0,   0,   0,   1.2,   0.7,   0.9,  0, 29, 29,  0,  0, 42,  0,  0,  0,  0, 34,  0, 32, 26,  0,  0, 22,  0, 35,  0,  0, 31,  0, 33,  0,  0,  0,  0,  0, 38,  0,  0
6, 11069, 1,KE9ABJ,     0.00, 3,   boost,   60.35,  97594.00,  315.31,   -0.34,    6.38, 26.2, 4.20, 4.18, 4.15,  68.77,  -0.06,   0.41, -17.66,   0.23,  -0.75,   0.03,   0.03,  -0.06,   2.34, 4.19, 0.00, 0.00, 0.00, 4.19, 1, 1, 13,  37.1688385, -97.7339142,   383.0, 2024,  3, 23, 18, 54, 37,        0,        0,   0,   0,   1.2,   0.7,   0.9,  0, 29, 29,  0,  0, 42,  0,  0,  0,  0, 34,  0, 32, 26,  0,  0, 22,  0, 35,  0,  0, 31,  0, 33,  0,  0,  0,  0,  0, 38,  0,  0
6, 11069, 1,KE9ABJ,     0.00, 3,   boost,   60.35,  97594.00,  315.31,   -0.34,    6.38, 26.2, 4.20, 4.18, 4.15,  68.77,  -0.06,   0.41, -17.66,   0.23,  -0.75,   0.03,   0.03,  -0.06,   2.33, 4.19, 0.00, 0.00, 0.00, 4.19, 1, 1, 13,  37.1688385, -97.7339142,   383.0, 2024,  3, 23, 18, 54, 37,        0,        0,   0,   0,   1.2,   0.7,   0.9,  0, 29, 29,  0,  0, 42,  0,  0,  0,  0, 34,  0, 32, 26,  0,  0, 22,  0, 35,  0,  0, 31,  0, 33,  0,  0,  0,  0,  0, 38,  0,  0
6, 11069, 1,KE9ABJ,     0.00, 3,   boost,   60.35,  97594.00,  315.31,   -0.34,    6.38, 26.2, 4.20, 4.18, 4.15,  68.77,  -0.06,   0.41, -17.66,   0.23,  -0.75,   0.03,   0.03,  -0.06,   2.33, 4.19, 0.00, 0.00, 0.00, 4.19, 1, 1, 13,  37.1688385, -97.7339142,   383.0, 2024,  3, 23, 18, 54, 37,        0,        0,   0,   0,   1.2,   0.7,   0.9,  0, 29, 29,  0,  0, 42,  0,  0,  0,  0, 34,  0, 32, 26,  0,  0, 22,  0, 35,  0,  0, 31,  0, 33,  0,  0,  0,  0,  0, 38,  0,  0
6, 11069, 1,KE9ABJ,     0.00, 3,   boost,   60.35,  97594.00,  315.31,   -0.34,    6.38, 26.2, 4.20, 4.18, 4.15,  68.77,  -0.06,   0.41, -17.66,   0.23,  -0.75,   0.03,   0.03,  -0.06,   2.33, 4.19, 0.00, 0.00, 0.00, 4.19, 1, 1, 13,  37.1688385, -97.7339142,   383.0, 2024,  3, 23, 18, 54, 37,        0,        0,   0,   0,   1.2,   0.7,   0.9,  0, 29, 29,  0,  0, 42,  0,  0,  0,  0, 34,  0, 32, 26,  0,  0, 22,  0, 35,  0,  0, 31,  0, 33,  0,  0,  0,  0,  0, 38,  0,  0
6, 11069, 1,KE9ABJ,     0.00, 3,   boost,   60.35,  97594.00,  315.31,   -0.34,    6.38, 26.2, 4.20, 4.18, 4.15,  68.77,  -0.06,   0.41, -17.66,   0.23,  -0.75,   0.03,   0.03,  -0.06,   2.33, 4.19, 0.00, 0.00, 0.00, 4.19, 1, 1, 13,  37.1688385, -97.7339142,   383.0, 2024,  3, 23, 18, 54, 37,        0,        0,   0,   0,   1.2,   0.7,   0.9,  0, 29, 29,  0,  0, 42,  0,  0,  0,  0, 34,  0, 32, 26,  0,  0, 22,  0, 35,  0,  0, 31,  0, 33,  0,  0,  0,  0,  0, 38,  0,  0
6, 11069, 1,KE9ABJ,     0.00, 3,   boost,   60.35,  97594.00,  315.31,   -0.34,    6.38, 26.2, 4.20, 4.18, 4.15,  68.77,  -0.06,   0.41, -17.66,   0.23,  -0.75,   0.03,   0.03,  -0.06,   2.34, 4.19, 0.00, 0.00, 0.00, 4.19, 1, 1, 13,  37.1688385, -97.7339142,   383.0, 2024,  3, 23, 18, 54, 37,        0,        0,   0,   0,   1.2,   0.7,   0.9,  0, 29, 29,  0,  0, 42,  0,  0,  0,  0, 34,  0, 32, 26,  0,  0, 22,  0, 35,  0,  0, 31,  0, 33,  0,  0,  0,  0,  0, 38,  0,  0
6, 11069, 1,KE9ABJ,     0.00, 3,   boost,   60.35,  97594.00,  315.31,   -0.34,    6.38, 26.2, 4.20, 4.18, 4.15,  68.77,  -0.06,   0.41, -17.66,   0.23,  -0.75,   0.03,   0.03,  -0.06,   2.34, 4.19, 0.00, 0.00, 0.00, 4.19, 1, 1, 13,  37.1688385, -97.7339142,   383.0, 2024,  3, 23, 18, 54, 37,        0,        0,   0,   0,   1.2,   0.7,   0.9,  0, 29, 29,  0,  0, 42,  0,  0,  0,  0, 34,  0, 32, 26,  0,  0, 22,  0, 35,  0,  0, 31,  0, 33,  0,  0,  0,  0,  0, 38,  0,  0
6, 11069, 1,KE9ABJ,     0.00, 3,   boost,   60.35,  97594.00,  315.31,   -0.34,    6.38, 26.2, 4.20, 4.18, 4.15,  68.77,  -0.06,   0.41, -17.66,   0.23,  -0.75,   0.03,   0.03,  -0.06,   2.34, 4.19, 0.00, 0.00, 0.00, 4.19, 1, 1, 13,  37.1688385, -97.7339142,   383.0, 2024,  3, 23, 18, 54, 37,        0,        0,   0,   0,   1.2,   0.7,   0.9,  0, 29, 29,  0,  0, 42,  0,  0,  0,  0, 34,  0, 32, 26,  0,  0, 22,  0, 35,  0,  0, 31,  0, 33,  0,  0,  0,  0,  0, 38,  0,  0
6, 11069, 1,KE9ABJ,     0.00, 3,   boost,   60.35,  97594.00,  315.31,   -0.34,    6.38, 26.2, 4.20, 4.18, 4.15,  68.77,  -0.06,   0.41, -17.66,   0.23,  -0.75,   0.03,   0.03,  -0.06,   2.34, 4.19, 0.00, 0.00, 0.00, 4.19, 1, 1, 13,  37.1688385, -97.7339142,   383.0, 2024,  3, 23, 18, 54, 37,        0,        0,   0,   0,   1.2,   0.7,   0.9,  0, 29, 29,  0,  0, 42,  0,  0,  0,  0, 34,  0, 32, 26,  0,  0, 22,  0, 35,  0,  0, 31,  0, 33,  0,  0,  0,  0,  0, 38,  0,  0
6, 11069, 1,KE9ABJ,     0.00, 3,   boost,   60.35,  97594.00,  315.31,   -0.34,    6.38, 26.2, 4.20, 4.18, 4.15,  68.77,  -0.06,   0.41, -17.66,   0.23,  -0.75,   0.03,   0.03,  -0.06,   2.34, 4.19, 0.00, 0.00, 0.00, 4.19, 1, 1, 13,  37.1688385, -97.7339142,   383.0, 2024,  3, 23, 18, 54, 37,        0,        0,   0,   0,   1.2,   0.7,   0.9,  0, 29, 29,  0,  0, 42,  0,  0,  0,  0, 34,  0, 32, 26,  0,  0, 22,  0, 35,  0,  0, 31,  0, 33,  0,  0,  0,  0,  0, 38,  0,  0
6, 11069, 1,KE9ABJ,     0.00, 3,   boost,   60.35,  97594.00,  315.31,   -0.34,    6.38, 26.2, 4.20, 4.18, 4.15,  68.77,  -0.06,   0.41, -17.66,   0.23,  -0.75,   0.03,   0.03,  -0.06,   2.34, 4.19, 0.00, 0.00, 0.00, 4.19, 1, 1, 13,  37.1688385, -97.7339142,   383.0, 2024,  3, 23, 18, 54, 37,        0,        0,   0,   0,   1.2,   0.7,   0.9,  0, 29, 29,  0,  0, 42,  0,  0,  0,  0, 34,  0, 32, 26,  0,  0, 22,  0, 35,  0,  0, 31,  0, 33,  0,  0,  0,  0,  0, 38,  0,  0
6, 11069, 1,KE9ABJ,     0.00, 3,   boost,   60.35,  97594.00,  315.31,   -0.34,    6.38, 26.2, 4.20, 4.18, 4.15,  68.77,  -0.06,   0.41, -17.66,   0.23,  -0.75,   0.03,   0.03,  -0.06,   2.34, 4.19, 0.00, 0.00, 0.00, 4.19, 1, 1, 13,  37.1688385, -97.7339142,   383.0, 2024,  3, 23, 18, 54, 37,        0,        0,   0,   0,   1.2,   0.7,   0.9,  0, 29, 29,  0,  0, 42,  0,  0,  0,  0, 34,  0, 32, 26,  0,  0, 22,  0, 35,  0,  0, 31,  0, 33,  0,  0,  0,  0,  0, 38,  0,  0
6, 11069, 1,KE9ABJ,     0.00, 3,   boost,   60.35,  97594.00,  315.31,   -0.34,    6.38, 26.2, 4.20, 4.18, 4.15,  68.77,  -0.06,   0.41, -17.66,   0.23,  -0.75,   0.03,   0.03,  -0.06,   2.34, 4.19, 0.00, 0.00, 0.00, 4.19, 1, 1, 13,  37.1688385, -97.7339142,   383.0, 2024,  3, 23, 18, 54, 37,        0,        0,   0,   0,   1.2,   0.7,   0.9,  0, 29, 29,  0,  0, 42,  0,  0,  0,  0, 34,  0, 32, 26,  0,  0, 22,  0, 35,  0,  0, 31,  0, 33,  0,  0,  0,  0,  0, 38,  0,  0
6, 11069, 1,KE9ABJ,     0.00, 3,   boost,   60.35,  97594.00,  315.31,   -0.34,    6.38, 26.2, 4.20, 4.18, 4.15,  68.77,  -0.06,   0.41, -17.66,   0.23,  -0.75,   0.03,   0.03,  -0.06,   2.34, 4.19, 0.00, 0.00, 0.00, 4.19, 1, 1, 13,  37.1688385, -97.7339142,   383.0, 2024,  3, 23, 18, 54, 37,        0,        0,   0,   0,   1.2,   0.7,   0.9,  0, 29, 29,  0,  0, 42,  0,  0,  0,  0, 34,  0, 32, 26,  0,  0, 22,  0, 35,  0,  0, 31,  0, 33,  0,  0,  0,  0,  0, 38,  0,  0
6, 11069, 1,KE9ABJ,     0.00, 3,   boost,   60.35,  97594.00,  315.31,   -0.34,    6.38, 26.2, 4.20, 4.18, 4.15,  68.77,  -0.06,   0.41, -17.66,   0.23,  -0.75,   0.03,   0.03,  -0.06,   2.34, 4.19, 0.00, 0.00, 0.00, 4.19, 1, 1, 13,  37.1688385, -97.7339142,   383.0, 2024,  3, 23, 18, 54, 37,        0,        0,   0,   0,   1.2,   0.7,   0.9,  0, 29, 29,  0,  0, 42,  0,  0,  0,  0, 34,  0, 32, 26,  0,  0, 22,  0, 35,  0,  0, 31,  0, 33,  0,  0,  0,  0,  0, 38,  0,  0
6, 11069, 1,KE9ABJ,     0.00, 3,   boost,   60.35,  97594.00,  315.31,   -0.34,    6.38, 26.2, 4.20, 4.18, 4.15,  68.77,  -0.06,   0.41, -17.66,   0.23,  -0.75,   0.03,   0.03,  -0.06,   2.34, 4.19, 0.00, 0.00, 0.00, 4.19, 1, 1, 13,  37.1688385, -97.7339142,   383.0, 2024,  3, 23, 18, 54, 37,        0,        0,   0,   0,   1.2,   0.7,   0.9,  0, 29, 29,  0,  0, 42,  0,  0,  0,  0, 34,  0, 32, 26,  0,  0, 22,  0, 35,  0,  0, 31,  0, 33,  0,  0,  0,  0,  0, 38,  0,  0
6, 11069, 1,KE9ABJ,     0.00, 3,   boost,   60.35,  97594.00,  315.31,   -0.34,    6.38, 26.2, 4.20, 4.18, 4.15,  68.77,  -0.06,   0.41, -17.66,   0.23,  -0.75,   0.03,   0.03,  -0.06,   2.34, 4.19, 0.00, 0.00, 0.00, 4.19, 1, 1, 13,  37.1688385, -97.7339142,   383.0, 2024,  3, 23, 18, 54, 37,        0,        0,   0,   0,   1.2,   0.7,   0.9,  0, 29, 29,  0,  0, 42,  0,  0,  0,  0, 34,  0, 32, 26,  0,  0, 22,  0, 35,  0,  0, 31,  0, 33,  0,  0,  0,  0,  0, 38,  0,  0
6, 11069, 1,KE9ABJ,     0.00, 3,   boost,   60.35,  97594.00,  315.31,   -0.34,    6.38, 26.2, 4.20, 4.18, 4.15,  68.77,  -0.06,   0.41, -17.66,   0.23,  -0.75,   0.03,   0.03,  -0.06,   2.35, 4.19, 0.00, 0.00, 0.00, 4.19, 1, 1, 13,  37.1688385, -97.7339142,   383.0, 2024,  3, 23, 18, 54, 37,        0,        0,   0,   0,   1.2,   0.7,   0.9,  0, 29, 29,  0,  0, 42,  0,  0,  0,  0, 34,  0, 32, 26,  0,  0, 22,  0, 35,  0,  0, 31,  0, 33,  0,  0,  0,  0,  0, 38,  0,  0
6, 11069, 1,KE9ABJ,     0.00, 3,   boost,   60.35,  97594.00,  315.31,   -0.34,    6.38, 26.2, 4.20, 4.18, 4.15,  68.77,  -0.06,   0.41, -17.66,   0.23,  -0.75,   0.03,   0.03,  -0.06,   2.35, 4.19, 0.00, 0.00, 0.00, 4.19, 1, 1, 13,  37.1688385, -97.7339142,   383.0, 2024,  3, 23, 18, 54, 37,        0,        0,   0,   0,   1.2,   0.7,   0.9,  0, 29, 29,  0,  0, 42,  0,  0,  0,  0, 34,  0, 32, 26,  0,  0, 22,  0, 35,  0,  0, 31,  0, 33,  0,  0,  0,  0,  0, 38,  0,  0
6, 11069, 1,KE9ABJ,     0.00, 3,   boost,   60.35,  97594.00,  315.31,   -0.34,    6.38, 26.2, 4.20, 4.18, 4.15,  68.77,  -0.06,   0.41, -17.66,   0.23,  -0.75,   0.03,   0.03,  -0.06,   2.35, 4.19, 0.00, 0.00, 0.00, 4.19, 1, 1, 13,  37.1688385, -97.7339142,   383.0, 2024,  3, 23, 18, 54, 37,        0,        0,   0,   0,   1.2,   0.7,   0.9,  0, 29, 29,  0,  0, 42,  0,  0,  0,  0, 34,  0, 32, 26,  0,  0, 22,  0, 35,  0,  0, 31,  0, 33,  0,  0,  0,  0,  0, 38,  0,  0
6, 11069, 1,KE9ABJ,     0.00, 3,   boost,   60.35,  97594.00,  315.31,   -0.34,    6.38, 26.2, 4.20, 4.18, 4.15,  68.77,  -0.06,   0.41, -17.66,   0.23,  -0.75,   0.03,   0.03,  -0.06,   2.35, 4.19, 0.00, 0.00, 0.00, 4.19, 1, 1, 13,  37.1688385, -97.7339142,   383.0, 2024,  3, 23, 18, 54, 37,        0,        0,   0,   0,   1.2,   0.7,   0.9,  0, 29, 29,  0,  0, 42,  0,  0,  0,  0, 34,  0, 32, 26,  0,  0, 22,  0, 35,  0,  0, 31,  0, 33,  0,  0,  0,  0,  0, 38,  0,  0
6, 11069, 1,KE9ABJ,     0.00, 3,   boost,   60.35,  97594.00,  315.31,   -0.34,    6.38, 26.2, 4.20, 4.18, 4.15,  68.77,  -0.06,   0.41, -17.66,   0.23,  -0.75,   0.03,   0.03,  -0.06,   2.37, 4.19, 0.00, 0.00, 0.00, 4.19, 1, 1, 13,  37.1688385, -97.7339142,   383.0, 2024,  3, 23, 18, 54, 37,        0,        0,   0,   0,   1.2,   0.7,   0.9,  0, 29, 29,  0,  0, 42,  0,  0,  0,  0, 34,  0, 32, 26,  0,  0, 22,  0, 35,  0,  0, 31,  0, 33,  0,  0,  0,  0,  0, 38,  0,  0
6, 11069, 1,KE9ABJ,     0.00, 3,   boost,   60.35,  97594.00,  315.31,   -0.34,    6.38, 26.2, 4.20, 4.18, 4.15,  68.77,  -0.06,   0.41, -17.66,   0.23,  -0.75,   0.03,   0.03,  -0.06,   2.37, 4.19, 0.00, 0.00, 0.00, 4.19, 1, 1, 13,  37.1688385, -97.7339142,   383.0, 2024,  3, 23, 18, 54, 37,        0,        0,   0,   0,   1.2,   0.7,   0.9,  0, 29, 29,  0,  0, 42,  0,  0,  0,  0, 34,  0, 32, 26,  0,  0, 22,  0, 35,  0,  0, 31,  0, 33,  0,  0,  0,  0,  0, 38,  0,  0
6, 11069, 1,KE9ABJ,     0.00, 3,   boost,   60.35,  97594.00,  315.31,   -0.34,    6.38, 26.2, 4.20, 4.18, 4.15,  68.77,  -0.06,   0.41, -17.66,   0.23,  -0.75,   0.03,   0.03,  -0.06,   2.37, 4.19, 0.00, 0.00, 0.00, 4.19, 1, 1, 13,  37.1688385, -97.7339142,   383.0, 2024,  3, 23, 18, 54, 37,        0,        0,   0,   0,   1.2,   0.7,   0.9,  0, 29, 29,  0,  0, 42,  0,  0,  0,  0, 34,  0, 32, 26,  0,  0, 22,  0, 35,  0,  0, 31,  0, 33,  0,  0,  0,  0,  0, 38,  0,  0
6, 11069, 1,KE9ABJ,     0.00, 3,   boost,   60.35,  97594.00,  315.31,   -0.34,    6.38, 26.2, 4.20, 4.18, 4.15,  68.77,  -0.06,   0.41, -17.66,   0.23,  -0.75,   0.03,   0.03,  -0.06,   2.36, 4.19, 0.00, 0.00, 0.00, 4.19, 1, 1, 13,  37.1688385, -97.7339142,   383.0, 2024,  3, 23, 18, 54, 37,        0,        0,   0,   0,   1.2,   0.7,   0.9,  0, 29, 29,  0,  0, 42,  0,  0,  0,  0, 34,  0, 32, 26,  0,  0, 22,  0, 35,  0,  0, 31,  0, 33,  0,  0,  0,  0,  0, 38,  0,  0
6, 11069, 1,KE9ABJ,     0.00, 3,   boost,   60.35,  97594.00,  315.31,   -0.34,    6.38, 26.2, 4.20, 4.18, 4.15,  68.77,  -0.06,   0.41, -17.66,   0.23,  -0.75,   0.03,   0.03,  -0.06,   2.38, 4.19, 0.00, 0.00, 0.00, 4.19, 1, 1, 13,  37.1688385, -97.7339142,   383.0, 2024,  3, 23, 18, 54, 37,        0,        0,   0,   0,   1.2,   0.7,   0.9,  0, 29, 29,  0,  0, 42,  0,  0,  0,  0, 34,  0, 32, 26,  0,  0, 22,  0, 35,  0,  0, 31,  0, 33,  0,  0,  0,  0,  0, 38,  0,  0
6, 11069, 1,KE9ABJ,     0.00, 3,   boost,   60.35,  97594.00,  315.31,   -0.34,    6.38, 26.2, 4.20, 4.18, 4.15,  68.77,  -0.06,   0.41, -17.66,   0.23,  -0.75,   0.03,   0.03,  -0.06,   2.38, 4.19, 0.00, 0.00, 0.00, 4.19, 1, 1, 13,  37.1688385, -97.7339142,   383.0, 2024,  3, 23, 18, 54, 37,        0,        0,   0,   0,   1.2,   0.7,   0.9,  0, 29, 29,  0,  0, 42,  0,  0,  0,  0, 34,  0, 32, 26,  0,  0, 22,  0, 35,  0,  0, 31,  0, 33,  0,  0,  0,  0,  0, 38,  0,  0
6, 11069, 1,KE9ABJ,     0.00, 3,   boost,   60.35,  97594.00,  315.31,   -0.34,    6.38, 26.2, 4.20, 4.18, 4.15,  68.77,  -0.06,   0.41, -17.66,   0.23,  -0.75,   0.03,   0.03,  -0.06,   2.37, 4.19, 0.00, 0.00, 0.00, 4.19, 1, 1, 13,  37.1688385, -97.7339142,   383.0, 2024,  3, 23, 18, 54, 37,        0,        0,   0,   0,   1.2,   0.7,   0.9,  0, 29, 29,  0,  0, 42,  0,  0,  0,  0, 34,  0, 32, 26,  0,  0, 22,  0, 35,  0,  0, 31,  0, 33,  0,  0,  0,  0,  0, 38,  0,  0
6, 11069, 1,KE9ABJ,     0.00, 3,   boost,   60.35,  97594.00,  315.31,   -0.34,    6.38, 26.2, 4.20, 4.18, 4.15,  68.77,  -0.06,   0.41, -17.66,   0.23,  -0.75,   0.03,   0.03,  -0.06,   2.36, 4.19, 0.00, 0.00, 0.00, 4.19, 1, 1, 13,  37.1688385, -97.7339142,   383.0, 2024,  3, 23, 18, 54, 37,        0,        0,   0,   0,   1.2,   0.7,   0.9,  0, 29, 29,  0,  0, 42,  0,  0,  0,  0, 34,  0, 32, 26,  0,  0, 22,  0, 35,  0,  0, 31,  0, 33,  0,  0,  0,  0,  0, 38,  0,  0
6, 11069, 1,KE9ABJ,     0.00, 3,   boost,   60.35,  97594.00,  315.31,   -0.34,    6.38, 26.2, 4.20, 4.18, 4.15,  68.77,  -0.06,   0.41, -17.66,   0.23,  -0.75,   0.03,   0.03,  -0.06,   2.36, 4.19, 0.00, 0.00, 0.00, 4.19, 1, 1, 13,  37.1688385, -97.7339142,   383.0, 2024,  3, 23, 18, 54, 37,        0,        0,   0,   0,   1.2,   0.7,   0.9,  0, 29, 29,  0,  0, 42,  0,  0,  0,  0, 34,  0, 32, 26,  0,  0, 22,  0, 35,  0,  0, 31,  0, 33,  0,  0,  0,  0,  0, 38,  0,  0
6, 11069, 1,KE9ABJ,     0.01, 3,   boost,   60.85,  97594.00,  315.31,   -0.34,    6.98, 26.2, 4.20, 4.18, 4.15,  69.26,   0.34,   0.87, -16.62,  -1.96,   0.72,   0.03,   0.03,  -0.06,   2.38, 4.19, 0.00, 0.00, 0.00, 4.19, 1, 1, 13,  37.1688385, -97.7339142,   383.0, 2024,  3, 23, 18, 54, 37,        0,        0,   0,   0,   1.2,   0.7,   0.9,  0, 29, 29,  0,  0, 42,  0,  0,  0,  0, 34,  0, 32, 26,  0,  0, 22,  0, 35,  0,  0, 31,  0, 33,  0,  0,  0,  0,  0, 38,  0,  0
6, 11069, 1,KE9ABJ,     0.01, 3,   boost,   60.85,  97594.00,  315.31,   -0.34,    6.98, 26.2, 4.20, 4.18, 4.15,  69.26,   0.34,   0.87, -16.62,  -1.96,   0.72,   0.03,   0.03,  -0.06,   2.38, 4.19, 0.00, 0.00, 0.00, 4.19, 1, 1, 13,  37.1688385, -97.7339142,   383.0, 2024,  3, 23, 18, 54, 37,        0,        0,   0,   0,   1.2,   0.7,   0.9,  0, 29, 29,  0,  0, 42,  0,  0,  0,  0, 34,  0, 32, 26,  0,  0, 22,  0, 35,  0,  0, 31,  0, 33,  0,  0,  0,  0,  0, 38,  0,  0
6, 11069, 1,KE9ABJ,     0.02, 3,   boost,   61.35,  97608.00,  314.11,   -1.54,    7.58, 26.3, 4.19, 4.18, 4.13,  69.70,  -0.97,   0.02, -16.44,  -3.00,   1.15,   0.06,   0.17,  -0.08,   2.41, 4.18, 0.00, 0.00, 0.00, 4.20, 1, 1, 13,  37.1688385, -97.7339142,   383.0, 2024,  3, 23, 18, 54, 37,        0,        0,   0,   0,   1.2,   0.7,   0.9,  0, 29, 29,  0,  0, 42,  0,  0,  0,  0, 34,  0, 32, 26,  0,  0, 22,  0, 35,  0,  0, 31,  0, 33,  0,  0,  0,  0,  0, 38,  0,  0
6, 11069, 1,KE9ABJ,     0.02, 3,   boost,   61.35,  97608.00,  314.11,   -1.54,    7.58, 26.3, 4.19, 4.18, 4.13,  69.70,  -0.97,   0.02, -16.44,  -3.00,   1.15,   0.06,   0.17,  -0.08,   2.41, 4.18, 0.00, 0.00, 0.00, 4.20, 1, 1, 13,  37.1688385, -97.7339142,   383.0, 2024,  3, 23, 18, 54, 37,        0,        0,   0,   0,   1.2,   0.7,   0.9,  0, 29, 29,  0,  0, 42,  0,  0,  0,  0, 34,  0, 32, 26,  0,  0, 22,  0, 35,  0,  0, 31,  0, 33,  0,  0,  0,  0,  0, 38,  0,  0
6, 11069, 1,KE9ABJ,     0.03, 3,   boost,   61.35,  97608.00,  314.11,   -1.54,    8.18, 26.3, 4.19, 4.18, 4.13,  69.12,   1.87,   2.46, -15.46,  -1.41,  -0.87,   0.05,   0.26,  -0.10,   2.42, 4.18, 0.00, 0.00, 0.00, 4.20, 1, 1, 13,  37.1688385, -97.7339142,   383.0, 2024,  3, 23, 18, 54, 37,        0,        0,   0,   0,   1.2,   0.7,   0.9,  0, 29, 29,  0,  0, 42,  0,  0,  0,  0, 34,  0, 32, 26,  0,  0, 22,  0, 35,  0,  0, 31,  0, 33,  0,  0,  0,  0,  0, 38,  0,  0
6, 11069, 1,KE9ABJ,     0.04, 3,   boost,   58.34,  97568.00,  317.54,    1.89,    8.78, 26.3, 4.19, 4.18, 4.13,  69.13,  -0.87,   3.10, -10.76,  -0.80,  -1.78,  -0.06,   0.38,  -0.12,   2.43, 4.18, 0.00, 0.00, 0.00, 4.20, 1, 1, 13,  37.1688385, -97.7339142,   383.0, 2024,  3, 23, 18, 54, 37,        0,        0,   0,   0,   1.2,   0.7,   0.9,  0, 29, 29,  0,  0, 42,  0,  0,  0,  0, 34,  0, 32, 26,  0,  0, 22,  0, 35,  0,  0, 31,  0, 33,  0,  0,  0,  0,  0, 38,  0,  0
6, 11069, 1,KE9ABJ,     0.05, 3,   boost,   60.35,  97568.00,  317.54,    1.89,    9.38, 26.3, 4.19, 4.18, 4.13,  69.66,   0.49,   1.95,  -2.83,   0.60,  -0.99,  -0.06,   0.38,  -0.12,   2.42, 4.18, 0.00, 0.00, 0.00, 4.20, 1, 1, 13,  37.1688385, -97.7339142,   383.0, 2024,  3, 23, 18, 54, 37,        0,        0,   0,   0,   1.2,   0.7,   0.9,  0, 29, 29,  0,  0, 42,  0,  0,  0,  0, 34,  0, 32, 26,  0,  0, 22,  0, 35,  0,  0, 31,  0, 33,  0,  0,  0,  0,  0, 38,  0,  0
6, 11069, 1,KE9ABJ,     0.05, 3,   boost,   60.35,  97568.00,  317.54,    1.89,    9.38, 26.3, 4.19, 4.18, 4.13,  69.66,   0.49,   1.95,  -2.83,   0.60,  -0.99,  -0.06,   0.38,  -0.12,   2.42, 4.18, 0.00, 0.00, 0.00, 4.20, 1, 1, 13,  37.1688385, -97.7339142,   383.0, 2024,  3, 23, 18, 54, 37,        0,        0,   0,   0,   1.2,   0.7,   0.9,  0, 29, 29,  0,  0, 42,  0,  0,  0,  0, 34,  0, 32, 26,  0,  0, 22,  0, 35,  0,  0, 31,  0, 33,  0,  0,  0,  0,  0, 38,  0,  0
6, 11069, 1,KE9ABJ,     0.05, 3,   boost,   60.35,  97568.00,  317.54,    1.89,    9.38, 26.3, 4.19, 4.18, 4.13,  69.66,   0.49,   1.95,  -2.83,   0.60,  -0.99,  -0.06,   0.38,  -0.12,   2.42, 4.18, 0.00, 0.00, 0.00, 4.20, 1, 1, 13,  37.1688385, -97.7339142,   383.0, 2024,  3, 23, 18, 54, 37,        0,        0,   0,   0,   1.2,   0.7,   0.9,  0, 29, 29,  0,  0, 42,  0,  0,  0,  0, 34,  0, 32, 26,  0,  0, 22,  0, 35,  0,  0, 31,  0, 33,  0,  0,  0,  0,  0, 38,  0,  0
6, 11069, 1,KE9ABJ,     0.06, 3,   boost,   59.85,  97579.00,  316.60,    0.94,    9.98, 26.2, 4.19, 4.18, 4.13,  69.44,   0.37,   1.47,  -3.68,  -0.38,  -0.14,  -0.30,   0.08,  -0.08,   2.42, 4.18, 0.00, 0.00, 0.00, 4.20, 1, 1, 12,  37.1688311, -97.7339216,   384.0, 2024,  3, 23, 18, 54, 38,        1,        1, 219,  44,   1.3,   0.8,   1.0,  0, 29, 29,  0,  0, 41,  0,  0,  0,  0, 29,  0, 31, 27,  0,  0, 22,  0, 31,  0,  0, 31,  0, 33,  0,  0,  0,  0,  0, 38,  0,  0
6, 11069, 1,KE9ABJ,     0.07, 3,   boost,   59.85,  97579.00,  316.60,    0.94,   10.58, 26.2, 4.19, 4.18, 4.13,  69.85,  -1.56,   2.33,  -0.39,   1.03,  -0.20,  -0.22,  -0.03,  -0.07,   2.41, 4.18, 0.00, 0.00, 0.00, 4.20, 1, 1, 12,  37.1688311, -97.7339216,   384.0, 2024,  3, 23, 18, 54, 38,        1,        1, 219,  44,   1.3,   0.8,   1.0,  0, 29, 29,  0,  0, 41,  0,  0,  0,  0, 29,  0, 31, 27,  0,  0, 22,  0, 31,  0,  0, 31,  0, 33,  0,  0,  0,  0,  0, 38,  0,  0
6, 11069, 1,KE9ABJ,     0.08, 3,   boost,   58.84,  97568.00,  317.54,    1.89,   11.19, 26.2, 4.19, 4.18, 4.13,  69.63,   1.23,  -0.42,  -2.28,  -0.01,   2.67,  -0.18,  -0.05,  -0.07,   2.42, 4.18, 0.00, 0.00, 0.00, 4.20, 1, 1, 12,  37.1688311, -97.7339216,   384.0, 2024,  3, 23, 18, 54, 38,        1,        1, 219,  44,   1.3,   0.8,   1.0,  0, 29, 29,  0,  0, 41,  0,  0,  0,  0, 29,  0, 31, 27,  0,  0, 22,  0, 31,  0,  0, 31,  0, 33,  0,  0,  0,  0,  0, 38,  0,  0
6, 11069, 1,KE9ABJ,     0.09, 3,   boost,   62.86,  97568.00,  317.54,    1.89,   11.79, 26.2, 4.19, 4.18, 4.13,  69.76,  -0.05,   1.15,   7.30,  -1.66,   0.17,  -0.16,  -0.06,  -0.07,   2.43, 4.18, 0.00, 0.00, 0.00, 4.20, 1, 1, 12,  37.1688311, -97.7339216,   384.0, 2024,  3, 23, 18, 54, 38,        1,        1, 219,  44,   1.3,   0.8,   1.0,  0, 29, 29,  0,  0, 41,  0,  0,  0,  0, 29,  0, 31, 27,  0,  0, 22,  0, 31,  0,  0, 31,  0, 33,  0,  0,  0,  0,  0, 38,  0,  0
6, 11069, 1,KE9ABJ,     0.10, 3,   boost,   61.86,  97584.00,  316.17,    0.51,   12.40, 26.2, 4.19, 4.18, 4.13,  69.63,   2.94,   0.25,   4.25,   1.88,   1.02,  -0.15,  -0.06,  -0.07,   2.42, 4.18, 0.00, 0.00, 0.00, 4.20, 1, 1, 12,  37.1688311, -97.7339216,   384.0, 2024,  3, 23, 18, 54, 38,        1,        1, 219,  44,   1.3,   0.8,   1.0,  0, 29, 29,  0,  0, 41,  0,  0,  0,  0, 29,  0, 31, 27,  0,  0, 22,  0, 31,  0,  0, 31,  0, 33,  0,  0,  0,  0,  0, 38,  0,  0
6, 11069, 1,KE9ABJ,     0.11, 3,   boost,   60.35,  97584.00,  316.17,    0.51,   13.01, 26.2, 4.19, 4.18, 4.13,  70.61,  -0.01,   0.65,   2.97,  -0.62,  -0.44,  -0.14,  -0.06,  -0.06,   2.42, 4.18, 0.00, 0.00, 0.00, 4.20, 1, 1, 12,  37.1688311, -97.7339216,   384.0, 2024,  3, 23, 18, 54, 38,        1,        1, 219,  44,   1.3,   0.8,   1.0,  0, 29, 29,  0,  0, 41,  0,  0,  0,  0, 29,  0, 31, 27,  0,  0, 22,  0, 31,  0,  0, 31,  0, 33,  0,  0,  0,  0,  0, 38,  0,  0
6, 11069, 1,KE9ABJ,     0.12, 3,   boost,   62.36,  97585.00,  316.08,    0.43,   13.62, 26.3, 4.19, 4.18, 4.13,  69.67,   0.19,   0.68,   5.35,   2.74,   1.94,  -0.14,  -0.06,  -0.06,   2.40, 4.18, 0.00, 0.00, 0.00, 4.20, 1, 1, 12,  37.1688311, -97.7339216,   384.0, 2024,  3, 23, 18, 54, 38,        1,        1, 219,  44,   1.3,   0.8,   1.0,  0, 29, 29,  0,  0, 41,  0,  0,  0,  0, 29,  0, 31, 27,  0,  0, 22,  0, 31,  0,  0, 31,  0, 33,  0,  0,  0,  0,  0, 38,  0,  0
6, 11069, 1,KE9ABJ,     0.13, 3,   boost,   57.83,  97585.00,  316.08,    0.43,   14.22, 26.3, 4.19, 4.18, 4.13,  70.72,  -0.49,  -1.17,   7.73,   1.15,   0.66,  -0.12,  -0.07,  -0.07,   2.39, 4.18, 0.00, 0.00, 0.00, 4.20, 1, 1, 12,  37.1688311, -97.7339216,   384.0, 2024,  3, 23, 18, 54, 38,        1,        1, 219,  44,   1.3,   0.8,   1.0,  0, 29, 29,  0,  0, 41,  0,  0,  0,  0, 29,  0, 31, 27,  0,  0, 22,  0, 31,  0,  0, 31,  0, 33,  0,  0,  0,  0,  0, 38,  0,  0
6, 11069, 1,KE9ABJ,     0.14, 3,   boost,   60.35,  97564.00,  317.89,    2.23,   14.82, 26.3, 4.19, 4.18, 4.13,  70.39,  -0.51,   1.74,  18.96,   1.45,   1.33,  -0.13,  -0.07,  -0.07,   2.38, 4.18, 0.00, 0.00, 0.00, 4.20, 1, 1, 12,  37.1688311, -97.7339216,   384.0, 2024,  3, 23, 18, 54, 38,        1,        1, 219,  44,   1.3,   0.8,   1.0,  0, 29, 29,  0,  0, 41,  0,  0,  0,  0, 29,  0, 31, 27,  0,  0, 22,  0, 31,  0,  0, 31,  0, 33,  0,  0,  0,  0,  0, 38,  0,  0
6, 11069, 1,KE9ABJ,     0.15, 3,   boost,   59.34,  97564.00,  317.89,    2.23,   15.43, 26.3, 4.19, 4.18, 4.13,  71.66,  -2.80,  -2.29,  26.34,   3.04,   0.47,  -0.13,  -0.07,  -0.07,   2.35, 4.18, 0.00, 0.00, 0.00, 4.20, 1, 1, 12,  37.1688311, -97.7339216,   384.0, 2024,  3, 23, 18, 54, 38,        1,        1, 219,  44,   1.3,   0.8,   1.0,  0, 29, 29,  0,  0, 41,  0,  0,  0,  0, 29,  0, 31, 27,  0,  0, 22,  0, 31,  0,  0, 31,  0, 33,  0,  0,  0,  0,  0, 38,  0,  0
6, 11069, 1,KE9ABJ,     0.16, 3,   boost,   62.86,  97554.00,  318.75,    3.09,   16.04, 26.2, 4.19, 4.18, 4.13,  70.95,  -1.11,   1.12,  36.96,  -1.54,   1.82,  -0.12,  -0.07,  -0.07,   2.37, 4.18, 0.00, 0.00, 0.00, 4.20, 1, 1, 12,  37.1688311, -97.7339216,   384.0, 2024,  3, 23, 18, 54, 38,        1,        1, 219,  44,   1.3,   0.8,   1.0,  0, 29, 29,  0,  0, 41,  0,  0,  0,  0, 29,  0, 31, 27,  0,  0, 22,  0, 31,  0,  0, 31,  0, 33,  0,  0,  0,  0,  0, 38,  0,  0
6, 11069, 1,KE9ABJ,     0.17, 3,   boost,   60.35,  97554.00,  318.75,    3.09,   16.65, 26.2, 4.19, 4.18, 4.13,  71.40,   0.15,   0.37,  45.51,   4.93,   1.15,  -0.12,  -0.08,  -0.07,   2.32, 4.18, 0.00, 0.00, 0.00, 4.20, 1, 1, 12,  37.1688311, -97.7339216,   384.0, 2024,  3, 23, 18, 54, 38,        1,        1, 219,  44,   1.3,   0.8,   1.0,  0, 29, 29,  0,  0, 41,  0,  0,  0,  0, 29,  0, 31, 27,  0,  0, 22,  0, 31,  0,  0, 31,  0, 33,  0,  0,  0,  0,  0, 38,  0,  0
6, 11069, 1,KE9ABJ,     0.18, 3,   boost,   62.36,  97575.00,  316.94,    1.29,   17.26, 26.2, 4.19, 4.18, 4.13,  71.57,  -1.99,   0.26,  42.15,   0.90,  -0.26,  -0.12,  -0.08,  -0.07,   2.32, 4.18, 0.00, 0.00, 0.00, 4.20, 1, 1, 12,  37.1688311, -97.7339216,   384.0, 2024,  3, 23, 18, 54, 38,        1,        1, 219,  44,   1.3,   0.8,   1.0,  0, 29, 29,  0,  0, 41,  0,  0,  0,  0, 29,  0, 31, 27,  0,  0, 22,  0, 31,  0,  0, 31,  0, 33,  0,  0,  0,  0,  0, 38,  0,  0
6, 11069, 1,KE9ABJ,     0.19, 3,   boost,   61.86,  97575.00,  316.94,    1.29,   17.88, 26.2, 4.19, 4.18, 4.13,  72.78,  -0.71,   3.25,  89.58,  -4.34,   0.84,  -0.12,  -0.08,  -0.06,   2.36, 4.18, 0.00, 0.00, 0.00, 4.20, 1, 1, 12,  37.1688311, -97.7339216,   384.0, 2024,  3, 23, 18, 54, 38,        1,        1, 219,  44,   1.3,   0.8,   1.0,  0, 29, 29,  0,  0, 41,  0,  0,  0,  0, 29,  0, 31, 27,  0,  0, 22,  0, 31,  0,  0, 31,  0, 33,  0,  0,  0,  0,  0, 38,  0,  0
6, 11069, 1,KE9ABJ,     0.20, 3,   boost,   61.86,  97537.00,  320.20,    4.55,   18.50, 26.2, 4.19, 4.18, 4.13,  71.16,   0.60,   1.55,  84.94,   2.06,   2.67,  -0.12,  -0.08,  -0.06,   2.35, 4.18, 0.00, 0.00, 0.00, 4.20, 1, 1, 12,  37.1688311, -97.7339216,   384.0, 2024,  3, 23, 18, 54, 38,        1,        1, 219,  44,   1.3,   0.8,   1.0,  0, 29, 29,  0,  0, 41,  0,  0,  0,  0, 29,  0, 31, 27,  0,  0, 22,  0, 31,  0,  0, 31,  0, 33,  0,  0,  0,  0,  0, 38,  0,  0
6, 11069, 1,KE9ABJ,     0.21, 3,   boost,   62.36,  97537.00,  320.20,    4.55,   19.12, 26.2, 4.19, 4.18, 4.13,  72.24,  -2.67,   5.14,  89.52,  -5.20,  -1.97,  -0.12,  -0.08,  -0.06,   2.39, 4.18, 0.00, 0.00, 0.00, 4.20, 1, 1, 12,  37.1688311, -97.7339216,   384.0, 2024,  3, 23, 18, 54, 38,        1,        1, 219,  44,   1.3,   0.8,   1.0,  0, 29, 29,  0,  0, 41,  0,  0,  0,  0, 29,  0, 31, 27,  0,  0, 22,  0, 31,  0,  0, 31,  0, 33,  0,  0,  0,  0,  0, 38,  0,  0
6, 11069, 1,KE9ABJ,     0.22, 3,   boost,   62.36,  97534.00,  320.46,    4.81,   19.74, 26.3, 4.19, 4.18, 4.13,  71.52,   0.14,   4.27,  80.79,   3.22,   1.69,  -0.12,  -0.09,  -0.06,   2.36, 4.18, 0.00, 0.00, 0.00, 4.20, 1, 1, 12,  37.1688311, -97.7339216,   384.0, 2024,  3, 23, 18, 54, 38,        1,        1, 219,  44,   1.3,   0.8,   1.0,  0, 29, 29,  0,  0, 41,  0,  0,  0,  0, 29,  0, 31, 27,  0,  0, 22,  0, 31,  0,  0, 31,  0, 33,  0,  0,  0,  0,  0, 38,  0,  0
6, 11069, 1,KE9ABJ,     0.23, 3,   boost,   62.86,  97534.00,  320.46,    4.81,   20.36, 26.3, 4.19, 4.18, 4.13,  72.68,  -0.41,   2.75,  78.47,  -2.15,  -0.38,  -0.12,  -0.09,  -0.06,   2.38, 4.18, 0.00, 0.00, 0.00, 4.20, 1, 1, 12,  37.1688311, -97.7339216,   384.0, 2024,  3, 23, 18, 54, 38,        1,        1, 219,  44,   1.3,   0.8,   1.0,  0, 29, 29,  0,  0, 41,  0,  0,  0,  0, 29,  0, 31, 27,  0,  0, 22,  0, 31,  0,  0, 31,  0, 33,  0,  0,  0,  0,  0, 38,  0,  0
6, 11069, 1,KE9ABJ,     0.24, 3,   boost,   61.35,  97562.00,  318.06,    2.40,   20.99, 26.2, 4.19, 4.18, 4.13,  72.63,  -0.89,   2.51,  75.84,   0.11,   2.73,  -0.12,  -0.09,  -0.06,   2.39, 4.18, 0.00, 0.00, 0.00, 4.20, 1, 1, 12,  37.1688311, -97.7339216,   384.0, 2024,  3, 23, 18, 54, 38,        1,        1, 219,  44,   1.3,   0.8,   1.0,  0, 29, 29,  0,  0, 41,  0,  0,  0,  0, 29,  0, 31, 27,  0,  0, 22,  0, 31,  0,  0, 31,  0, 33,  0,  0,  0,  0,  0, 38,  0,  0
6, 11069, 1,KE9ABJ,     0.25, 3,   boost,   62.86,  97562.00,  318.06,    2.40,   21.61, 26.2, 4.19, 4.18, 4.13,  72.83,   1.16,   1.03,  75.54,  -0.07,   1.27,  -0.12,  -0.09,  -0.06,   2.39, 4.18, 0.00, 0.00, 0.00, 4.20, 1, 1, 12,  37.1688311, -97.7339216,   384.0, 2024,  3, 23, 18, 54, 38,        1,        1, 219,  44,   1.3,   0.8,   1.0,  0, 29, 29,  0,  0, 41,  0,  0,  0,  0, 29,  0, 31, 27,  0,  0, 22,  0, 31,  0,  0, 31,  0, 33,  0,  0,  0,  0,  0, 38,  0,  0
6, 11069, 1,KE9ABJ,     0.26, 3,   boost,   63.37,  97551.00,  319.00,    3.35,   22.25, 26.3, 4.19, 4.18, 4.13,  73.09,  -0.34,   0.17,  75.23,  -0.01,   1.27,  -0.12,  -0.09,  -0.06,   2.39, 4.18, 0.00, 0.00, 0.00, 4.20, 1, 1, 12,  37.1688311, -97.7339216,   384.0, 2024,  3, 23, 18, 54, 38,        1,        1, 219,  44,   1.3,   0.8,   1.0,  0, 29, 29,  0,  0, 41,  0,  0,  0,  0, 29,  0, 31, 27,  0,  0, 22,  0, 31,  0,  0, 31,  0, 33,  0,  0,  0,  0,  0, 38,  0,  0
6, 11069, 1,KE9ABJ,     0.27, 3,   boost,   63.87,  97551.00,  319.00,    3.35,   22.88, 26.3, 4.19, 4.18, 4.13,  73.12,   1.29,   0.11,  73.95,  -0.44,   3.16,  -0.12,  -0.09,  -0.05,   2.40, 4.18, 0.00, 0.00, 0.00, 4.20, 1, 1, 12,  37.1688311, -97.7339216,   384.0, 2024,  3, 23, 18, 54, 38,        1,        1, 219,  44,   1.3,   0.8,   1.0,  0, 29, 29,  0,  0, 41,  0,  0,  0,  0, 29,  0, 31, 27,  0,  0, 22,  0, 31,  0,  0, 31,  0, 33,  0,  0,  0,  0,  0, 38,  0,  0
6, 11069, 1,KE9ABJ,     0.28, 3,   boost,   65.38,  97543.00,  319.69,    4.03,   23.52, 26.3, 4.19, 4.18, 4.13,  73.45,   1.80,  -0.83,  72.91,  -0.62,   3.04,  -0.12,  -0.10,  -0.05,   2.41, 4.18, 0.00, 0.00, 0.00, 4.20, 1, 1, 12,  37.1688311, -97.7339216,   384.0, 2024,  3, 23, 18, 54, 38,        1,        1, 219,  44,   1.3,   0.8,   1.0,  0, 29, 29,  0,  0, 41,  0,  0,  0,  0, 29,  0, 31, 27,  0,  0, 22,  0, 31,  0,  0, 31,  0, 33,  0,  0,  0,  0,  0, 38,  0,  0
6, 11069, 1,KE9ABJ,     0.29, 3,   boost,   65.38,  97543.00,  319.69,    4.03,   24.17, 26.3, 4.19, 4.18, 4.13,  73.67,   1.58,  -1.09,  71.08,  -1.23,   3.40,  -0.12,  -0.10,  -0.05,   2.43, 4.18, 0.00, 0.00, 0.00, 4.20, 1, 1, 12,  37.1688311, -97.7339216,   384.0, 2024,  3, 23, 18, 54, 38,        1,        1, 219,  44,   1.3,   0.8,   1.0,  0, 29, 29,  0,  0, 41,  0,  0,  0,  0, 29,  0, 31, 27,  0,  0, 22,  0, 31,  0,  0, 31,  0, 33,  0,  0,  0,  0,  0, 38,  0,  0
6, 11069, 1,KE9ABJ,     0.30, 3,   boost,   64.87,  97544.00,  319.60,    3.95,   24.81, 26.3, 4.19, 4.18, 4.13,  73.98,   2.08,  -0.22,  69.13,  -2.70,   3.53,  -0.12,  -0.10,  -0.05,   2.46, 4.18, 0.00, 0.00, 0.00, 4.20, 1, 1, 12,  37.1688311, -97.7339216,   384.0, 2024,  3, 23, 18, 54, 38,        1,        1, 219,  44,   1.3,   0.8,   1.0,  0, 29, 29,  0,  0, 41,  0,  0,  0,  0, 29,  0, 31, 27,  0,  0, 22,  0, 31,  0,  0, 31,  0, 33,  0,  0,  0,  0,  0, 38,  0,  0
6, 11069, 1,KE9ABJ,     0.31, 3,   boost,   64.37,  97544.00,  319.60,    3.95,   25.46, 26.3, 4.19, 4.18, 4.13,  73.98,   1.47,   0.11,  67.36,  -2.15,   3.46,  -0.12,  -0.11,  -0.05,   2.49, 4.18, 0.00, 0.00, 0.00, 4.20, 1, 1, 12,  37.1688311, -97.7339216,   384.0, 2024,  3, 23, 18, 54, 38,        1,        1, 219,  44,   1.3,   0.8,   1.0,  0, 29, 29,  0,  0, 41,  0,  0,  0,  0, 29,  0, 31, 27,  0,  0, 22,  0, 31,  0,  0, 31,  0, 33,  0,  0,  0,  0,  0, 38,  0,  0
6, 11069, 1,KE9ABJ,     0.32, 3,   boost,   62.86,  97541.00,  319.86,    4.21,   26.10, 26.3, 4.19, 4.18, 4.13,  74.16,   1.11,   1.05,  65.47,  -3.49,   3.95,  -0.12,  -0.11,  -0.05,   2.53, 4.18, 0.00, 0.00, 0.00, 4.20, 1, 1, 12,  37.1688311, -97.7339216,   384.0, 2024,  3, 23, 18, 54, 38,        1,        1, 219,  44,   1.3,   0.8,   1.0,  0, 29, 29,  0,  0, 41,  0,  0,  0,  0, 29,  0, 31, 27,  0,  0, 22,  0, 31,  0,  0, 31,  0, 33,  0,  0,  0,  0,  0, 38,  0,  0
6, 11069, 1,KE9ABJ,     0.33, 3,   boost,   63.87,  97541.00,  319.86,    4.21,   26.74, 26.3, 4.19, 4.18, 4.13,  74.34,   0.42,   2.06,  64.25,  -2.70,   4.62,  -0.12,  -0.11,  -0.04,   2.56, 4.18, 0.00, 0.00, 0.00, 4.20, 1, 1, 12,  37.1688311, -97.7339216,   384.0, 2024,  3, 23, 18, 54, 38,        1,        1, 219,  44,   1.3,   0.8,   1.0,  0, 29, 29,  0,  0, 41,  0,  0,  0,  0, 29,  0, 31, 27,  0,  0, 22,  0, 31,  0,  0, 31,  0, 33,  0,  0,  0,  0,  0, 38,  0,  0
6, 11069, 1,KE9ABJ,     0.34, 3,   boost,   63.87,  97513.00,  322.27,    6.61,   27.39, 26.2, 4.20, 4.19, 4.15,  74.52,  -0.39,   2.53,  63.45,  -3.37,   4.81,  -0.12,  -0.11,  -0.04,   2.60, 4.18, 0.00, 0.00, 0.00, 4.20, 1, 1, 12,  37.1688311, -97.7339216,   384.0, 2024,  3, 23, 18, 54, 38,        1,        1, 219,  44,   1.3,   0.8,   1.0,  0, 29, 29,  0,  0, 41,  0,  0,  0,  0, 29,  0, 31, 27,  0,  0, 22,  0, 31,  0,  0, 31,  0, 33,  0,  0,  0,  0,  0, 38,  0,  0
6, 11069, 1,KE9ABJ,     0.34, 3,   boost,   63.87,  97513.00,  322.27,    6.61,   27.39, 26.2, 4.20, 4.19, 4.15,  74.52,  -0.39,   2.53,  63.45,  -3.37,   4.81,  -0.12,  -0.11,  -0.04,   2.60, 4.18, 0.00, 0.00, 0.00, 4.20, 1, 1, 12,  37.1688311, -97.7339216,   384.0, 2024,  3, 23, 18, 54, 38,        1,        1, 219,  44,   1.3,   0.8,   1.0,  0, 29, 29,  0,  0, 41,  0,  0,  0,  0, 29,  0, 31, 27,  0,  0, 22,  0, 31,  0,  0, 31,  0, 33,  0,  0,  0,  0,  0, 38,  0,  0
6, 11069, 1,KE9ABJ,     0.35, 3,   boost,   67.39,  97513.00,  322.27,    6.61,   28.04, 26.2, 4.20, 4.19, 4.15,  74.86,  -0.60,   2.80,  62.90,  -3.25,   5.36,  -0.12,  -0.11,  -0.04,   2.64, 4.18, 0.00, 0.00, 0.00, 4.20, 1, 1, 12,  37.1688311, -97.7339216,   384.0, 2024,  3, 23, 18, 54, 38,        1,        1, 219,  44,   1.3,   0.8,   1.0,  0, 29, 29,  0,  0, 41,  0,  0,  0,  0, 29,  0, 31, 27,  0,  0, 22,  0, 31,  0,  0, 31,  0, 33,  0,  0,  0,  0,  0, 38,  0,  0
6, 11069, 1,KE9ABJ,     0.36, 3,   boost,   65.88,  97530.00,  320.81,    5.15,   28.70, 26.2, 4.20, 4.19, 4.15,  75.21,  -0.93,   2.87,  62.84,  -3.86,   6.09,  -0.12,  -0.11,  -0.04,   2.69, 4.18, 0.00, 0.00, 0.00, 4.20, 1, 1, 12,  37.1688311, -97.7339216,   384.0, 2024,  3, 23, 18, 54, 38,        1,        1, 219,  44,   1.3,   0.8,   1.0,  0, 29, 29,  0,  0, 41,  0,  0,  0,  0, 29,  0, 31, 27,  0,  0, 22,  0, 31,  0,  0, 31,  0, 33,  0,  0,  0,  0,  0, 38,  0,  0
6, 11069, 1,KE9ABJ,     0.37, 3,   boost,   67.39,  97530.00,  320.81,    5.15,   29.36, 26.2, 4.20, 4.19, 4.15,  75.34,  -0.86,   2.30,  61.99,  -3.73,   6.94,  -0.12,  -0.11,  -0.04,   2.74, 4.18, 0.00, 0.00, 0.00, 4.20, 1, 1, 12,  37.1688311, -97.7339216,   384.0, 2024,  3, 23, 18, 54, 38,        1,        1, 219,  44,   1.3,   0.8,   1.0,  0, 29, 29,  0,  0, 41,  0,  0,  0,  0, 29,  0, 31, 27,  0,  0, 22,  0, 31,  0,  0, 31,  0, 33,  0,  0,  0,  0,  0, 38,  0,  0
6, 11069, 1,KE9ABJ,     0.38, 3,   boost,   67.39,  97510.00,  322.52,    6.87,   30.02, 26.2, 4.20, 4.19, 4.15,  75.67,  -0.55,   1.54,  61.38,  -3.92,   7.25,  -0.12,  -0.12,  -0.04,   2.79, 4.18, 0.00, 0.00, 0.00, 4.20, 1, 1, 12,  37.1688311, -97.7339216,   384.0, 2024,  3, 23, 18, 54, 38,        1,        1, 219,  44,   1.3,   0.8,   1.0,  0, 29, 29,  0,  0, 41,  0,  0,  0,  0, 29,  0, 31, 27,  0,  0, 22,  0, 31,  0,  0, 31,  0, 33,  0,  0,  0,  0,  0, 38,  0,  0
6, 11069, 1,KE9ABJ,     0.39, 3,   boost,   65.88,  97510.00,  322.52,    6.87,   30.68, 26.2, 4.20, 4.19, 4.15,  76.10,  -0.12,   1.02,  60.65,  -3.79,   7.49,  -0.12,  -0.12,  -0.04,   2.84, 4.18, 0.00, 0.00, 0.00, 4.20, 1, 1, 12,  37.1688311, -97.7339216,   384.0, 2024,  3, 23, 18, 54, 38,        1,        1, 219,  44,   1.3,   0.8,   1.0,  0, 29, 29,  0,  0, 41,  0,  0,  0,  0, 29,  0, 31, 27,  0,  0, 22,  0, 31,  0,  0, 31,  0, 33,  0,  0,  0,  0,  0, 38,  0,  0
6, 11069, 1,KE9ABJ,     0.40, 3,   boost,   64.87,  97495.00,  323.81,    8.16,   31.34, 26.2, 4.20, 4.19, 4.15,  76.57,   0.85,   0.32,  59.49,  -4.41,   8.29,  -0.12,  -0.12,  -0.04,   2.90, 4.18, 0.00, 0.00, 0.00, 4.20, 1, 1, 12,  37.1688311, -97.7339216,   384.0, 2024,  3, 23, 18, 54, 38,        1,        1, 219,  44,   1.3,   0.8,   1.0,  0, 29, 29,  0,  0, 41,  0,  0,  0,  0, 29,  0, 31, 27,  0,  0, 22,  0, 31,  0,  0, 31,  0, 33,  0,  0,  0,  0,  0, 38,  0,  0
6, 11069, 1,KE9ABJ,     0.41, 3,   boost,   65.38,  97495.00,  323.81,    8.16,   31.98, 26.2, 4.20, 4.19, 4.15,  76.35,   1.21,   0.04,  58.51,  -4.77,   8.41,  -0.12,  -0.12,  -0.03,   2.97, 4.18, 0.00, 0.00, 0.00, 4.20, 1, 1, 12,  37.1688311, -97.7339216,   384.0, 2024,  3, 23, 18, 54, 38,        1,        1, 219,  44,   1.3,   0.8,   1.0,  0, 29, 29,  0,  0, 41,  0,  0,  0,  0, 29,  0, 31, 27,  0,  0, 22,  0, 31,  0,  0, 31,  0, 33,  0,  0,  0,  0,  0, 38,  0,  0
6, 11069, 1,KE9ABJ,     0.42, 3,   boost,   65.88,  97491.00,  324.15,    8.50,   32.62, 26.3, 4.20, 4.19, 4.15,  76.84,   1.67,  -0.20,  56.19,  -5.20,   8.96,  -0.12,  -0.12,  -0.03,   3.04, 4.18, 0.00, 0.00, 0.00, 4.20, 1, 1, 12,  37.1688311, -97.7339216,   384.0, 2024,  3, 23, 18, 54, 38,        1,        1, 219,  44,   1.3,   0.8,   1.0,  0, 29, 29,  0,  0, 41,  0,  0,  0,  0, 29,  0, 31, 27,  0,  0, 22,  0, 31,  0,  0, 31,  0, 33,  0,  0,  0,  0,  0, 38,  0,  0
6, 11069, 1,KE9ABJ,     0.43, 3,   boost,   52.81,  97491.00,  324.15,    8.50,   33.25, 26.3, 4.20, 4.19, 4.15,  77.05,   1.91,  -0.16,  53.99,  -6.11,   9.26,  -0.13,  -0.13,  -0.03,   3.13, 4.18, 0.00, 0.00, 0.00, 4.20, 1, 1, 12,  37.1688311, -97.7339216,   384.0, 2024,  3, 23, 18, 54, 38,        1,        1, 219,  44,   1.3,   0.8,   1.0,  0, 29, 29,  0,  0, 41,  0,  0,  0,  0, 29,  0, 31, 27,  0,  0, 22,  0, 31,  0,  0, 31,  0, 33,  0,  0,  0,  0,  0, 38,  0,  0
6, 11069, 1,KE9ABJ,     0.44, 3,   boost,   65.38,  97488.00,  324.41,    8.76,   33.89, 26.3, 4.20, 4.19, 4.15,  73.60,   1.43,   1.42,  52.41,  -5.14,   8.59,  -0.13,  -0.13,  -0.03,   3.20, 4.18, 0.00, 0.00, 0.00, 4.20, 1, 1, 12,  37.1688311, -97.7339216,   384.0, 2024,  3, 23, 18, 54, 38,        1,        1, 219,  44,   1.3,   0.8,   1.0,  0, 29, 29,  0,  0, 41,  0,  0,  0,  0, 29,  0, 31, 27,  0,  0, 22,  0, 31,  0,  0, 31,  0, 33,  0,  0,  0,  0,  0, 38,  0,  0
6, 11069, 1,KE9ABJ,     0.45, 3,   boost,   68.90,  97488.00,  324.41,    8.76,   34.54, 26.3, 4.20, 4.19, 4.15,  77.45,   1.95,   0.19,  48.13, -11.97,  10.85,  -0.13,  -0.13,  -0.03,   3.34, 4.18, 0.00, 0.00, 0.00, 4.20, 1, 1, 12,  37.1688311, -97.7339216,   384.0, 2024,  3, 23, 18, 54, 38,        1,        1, 219,  44,   1.3,   0.8,   1.0,  0, 29, 29,  0,  0, 41,  0,  0,  0,  0, 29,  0, 31, 27,  0,  0, 22,  0, 31,  0,  0, 31,  0, 33,  0,  0,  0,  0,  0, 38,  0,  0
6, 11069, 1,KE9ABJ,     0.46, 3,   boost,   65.88,  97495.00,  323.81,    8.16,   35.20, 26.2, 4.20, 4.19, 4.15,  77.60,   0.45,   1.18,  49.05,  -6.97,   9.26,  -0.13,  -0.13,  -0.02,   3.44, 4.18, 0.00, 0.00, 0.00, 4.20, 1, 1, 12,  37.1688311, -97.7339216,   384.0, 2024,  3, 23, 18, 54, 38,        1,        1, 219,  44,   1.3,   0.8,   1.0,  0, 29, 29,  0,  0, 41,  0,  0,  0,  0, 29,  0, 31, 27,  0,  0, 22,  0, 31,  0,  0, 31,  0, 33,  0,  0,  0,  0,  0, 38,  0,  0
6, 11069, 1,KE9ABJ,     0.47, 3,   boost,   70.41,  97495.00,  323.81,    8.16,   35.87, 26.2, 4.20, 4.19, 4.15,  78.23,  -0.29,   2.16,  47.34,  -6.85,  10.73,  -0.13,  -0.13,  -0.02,   3.54, 4.18, 0.00, 0.00, 0.00, 4.20, 1, 1, 12,  37.1688311, -97.7339216,   384.0, 2024,  3, 23, 18, 54, 38,        1,        1, 219,  44,   1.3,   0.8,   1.0,  0, 29, 29,  0,  0, 41,  0,  0,  0,  0, 29,  0, 31, 27,  0,  0, 22,  0, 31,  0,  0, 31,  0, 33,  0,  0,  0,  0,  0, 38,  0,  0
6, 11069, 1,KE9ABJ,     0.48, 3,   boost,   67.89,  97465.00,  326.39,   10.73,   36.54, 26.3, 4.20, 4.19, 4.15,  78.27,  -0.68,   2.24,  46.36,  -7.64,  10.42,  -0.13,  -0.13,  -0.02,   3.64, 4.18, 0.00, 0.00, 0.00, 4.20, 1, 1, 12,  37.1688311, -97.7339216,   384.0, 2024,  3, 23, 18, 54, 38,        1,        1, 219,  44,   1.3,   0.8,   1.0,  0, 29, 29,  0,  0, 41,  0,  0,  0,  0, 29,  0, 31, 27,  0,  0, 22,  0, 31,  0,  0, 31,  0, 33,  0,  0,  0,  0,  0, 38,  0,  0
6, 11069, 1,KE9ABJ,     0.49, 3,   boost,   66.89,  97465.00,  326.39,   10.73,   37.22, 26.3, 4.20, 4.19, 4.15,  78.41,  -1.18,   2.25,  45.39,  -7.03,  11.58,  -0.13,  -0.13,  -0.02,   3.75, 4.18, 0.00, 0.00, 0.00, 4.20, 1, 1, 12,  37.1688311, -97.7339216,   384.0, 2024,  3, 23, 18, 54, 38,        1,        1, 219,  44,   1.3,   0.8,   1.0,  0, 29, 29,  0,  0, 41,  0,  0,  0,  0, 29,  0, 31, 27,  0,  0, 22,  0, 31,  0,  0, 31,  0, 33,  0,  0,  0,  0,  0, 38,  0,  0
6, 11069, 1,KE9ABJ,     0.50, 3,   boost,   67.39,  97456.00,  327.16,   11.51,   37.90, 26.3, 4.20, 4.19, 4.15,  78.68,  -0.63,   2.39,  44.59,  -8.13,  12.13,  -0.13,  -0.14,  -0.01,   3.87, 4.18, 0.00, 0.00, 0.00, 4.20, 1, 1, 12,  37.1688311, -97.7339216,   384.0, 2024,  3, 23, 18, 54, 38,        1,        1, 219,  44,   1.3,   0.8,   1.0,  0, 29, 29,  0,  0, 41,  0,  0,  0,  0, 29,  0, 31, 27,  0,  0, 22,  0, 31,  0,  0, 31,  0, 33,  0,  0,  0,  0,  0, 38,  0,  0
6, 11069, 1,KE9ABJ,     0.51, 3,   boost,   68.40,  97456.00,  327.16,   11.51,   38.58, 26.3, 4.20, 4.19, 4.15,  78.80,  -0.83,   1.60,  43.68,  -7.95,  12.31,  -0.13,  -0.14,  -0.01,   3.98, 4.18, 0.00, 0.00, 0.00, 4.20, 1, 1, 12,  37.1688311, -97.7339216,   384.0, 2024,  3, 23, 18, 54, 38,        1,        1, 219,  44,   1.3,   0.8,   1.0,  0, 29, 29,  0,  0, 41,  0,  0,  0,  0, 29,  0, 31, 27,  0,  0, 22,  0, 31,  0,  0, 31,  0, 33,  0,  0,  0,  0,  0, 38,  0,  0
6, 11069, 1,KE9ABJ,     0.52, 3,   boost,   68.40,  97460.00,  326.82,   11.16,   39.26, 26.2, 4.20, 4.19, 4.15,  79.12,  -0.38,   1.37,  42.58,  -8.25,  13.05,  -0.13,  -0.14,  -0.01,   4.11, 4.18, 0.00, 0.00, 0.00, 4.20, 1, 1, 12,  37.1688311, -97.7339216,   384.0, 2024,  3, 23, 18, 54, 38,        1,        1, 219,  44,   1.3,   0.8,   1.0,  0, 29, 29,  0,  0, 41,  0,  0,  0,  0, 29,  0, 31, 27,  0,  0, 22,  0, 31,  0,  0, 31,  0, 33,  0,  0,  0,  0,  0, 38,  0,  0
6, 11069, 1,KE9ABJ,     0.53, 3,   boost,   70.91,  97460.00,  326.82,   11.16,   39.95, 26.2, 4.20, 4.19, 4.15,  79.39,   0.18,   0.76,  41.79,  -8.49,  13.17,  -0.13,  -0.14,  -0.01,   4.24, 4.18, 0.00, 0.00, 0.00, 4.20, 1, 1, 12,  37.1688311, -97.7339216,   384.0, 2024,  3, 23, 18, 54, 38,        1,        1, 219,  44,   1.3,   0.8,   1.0,  0, 29, 29,  0,  0, 41,  0,  0,  0,  0, 29,  0, 31, 27,  0,  0, 22,  0, 31,  0,  0, 31,  0, 33,  0,  0,  0,  0,  0, 38,  0,  0
6, 11069, 1,KE9ABJ,     0.54, 3,   boost,   69.40,  97438.00,  328.71,   13.05,   40.65, 26.3, 4.20, 4.19, 4.15,  79.95,   0.76,   0.41,  40.02,  -9.17,  13.72,  -0.13,  -0.15,  -0.01,   4.38, 4.18, 0.00, 0.00, 0.00, 4.20, 1, 1, 12,  37.1688311, -97.7339216,   384.0, 2024,  3, 23, 18, 54, 38,        1,        1, 219,  44,   1.3,   0.8,   1.0,  0, 29, 29,  0,  0, 41,  0,  0,  0,  0, 29,  0, 31, 27,  0,  0, 22,  0, 31,  0,  0, 31,  0, 33,  0,  0,  0,  0,  0, 38,  0,  0
6, 11069, 1,KE9ABJ,     0.55, 3,   boost,   70.41,  97438.00,  328.71,   13.05,   41.34, 26.3, 4.20, 4.19, 4.15,  79.82,   1.26,   0.14,  38.00,  -9.29,  13.96,  -0.14,  -0.15,  -0.01,   4.52, 4.18, 0.00, 0.00, 0.00, 4.20, 1, 1, 12,  37.1688311, -97.7339216,   384.0, 2024,  3, 23, 18, 54, 38,        1,        1, 219,  44,   1.3,   0.8,   1.0,  0, 29, 29,  0,  0, 41,  0,  0,  0,  0, 29,  0, 31, 27,  0,  0, 22,  0, 31,  0,  0, 31,  0, 33,  0,  0,  0,  0,  0, 38,  0,  0
