#version,serial,flight,time,state,state_name,acceleration,pressure,altitude,height,speed,temperature,drogue_voltage,main_voltage,battery_voltage,accel_x,accel_y,accel_z,gyro_roll,gyro_pitch,gyro_yaw,mag_x,mag_y,mag_z,tilt,pyro,igniter_a,igniter_b,igniter_c,igniter_d
6, 5581, 1,    -0.30, 3,   boost,   -0.98,  99130.00,  184.34,   -0.34,    0.00, 28.3, 4.06, 0.01, 4.03,   9.78,   0.75,  -0.42,   0.63,   0.69,   0.63,   0.85,   0.83,   0.27,   4.45, 4.02, 4.04, 0.00, 0.00, 0.00
6, 5581, 1,    -0.29, 3,   boost,   -0.00,  99128.00,  184.51,   -0.17,    0.00, 28.3, 4.06, 0.01, 4.03,   9.82,   0.83,  -0.50,   0.02,   0.75,   0.57,   0.84,   0.83,   0.29,   4.45, 4.02, 4.04, 0.00, 0.00, 0.00
6, 5581, 1,    -0.28, 3,   boost,    0.49,  99130.00,  184.34,   -0.34,    0.00, 28.3, 4.06, 0.01, 4.03,   9.85,   0.89,  -0.54,  -0.66,   0.45,   0.45,   0.85,   0.84,   0.28,   4.45, 4.02, 4.04, 0.00, 0.00, 0.00
6, 5581, 1,    -0.27, 3,   boost,   -0.49,  99129.00,  184.43,   -0.25,    0.00, 28.3, 4.06, 0.01, 4.03,   9.88,   0.95,  -0.50,  -0.35,   0.02,   0.20,   0.86,   0.83,   0.28,   4.45, 4.02, 4.04, 0.00, 0.00, 0.00
6, 5581, 1,    -0.26, 3,   boost,   -0.49,  99127.00,  184.59,   -0.08,    0.00, 28.3, 4.06, 0.01, 4.03,   9.90,   0.95,  -0.45,  -0.11,  -0.90,  -0.04,   0.84,   0.83,   0.28,   4.45, 4.02, 4.04, 0.00, 0.00, 0.00
6, 5581, 1,    -0.25, 3,   boost,   -0.00,  99130.00,  184.34,   -0.34,    0.00, 28.3, 4.06, 0.01, 4.03,   9.76,   0.91,  -0.25,  -0.05,  -1.32,  -0.22,   0.85,   0.83,   0.28,   4.45, 4.02, 4.04, 0.00, 0.00, 0.00
6, 5581, 1,    -0.24, 3,   boost,    0.49,  99125.00,  184.76,    0.08,    0.00, 28.3, 4.06, 0.01, 4.03,   9.77,   0.86,  -0.04,  -0.05,  -1.69,   0.02,   0.84,   0.84,   0.29,   4.45, 4.02, 4.04, 0.00, 0.00, 0.00
6, 5581, 1,    -0.23, 3,   boost,   -0.00,  99131.00,  184.26,   -0.42,    0.00, 28.3, 4.06, 0.01, 4.03,   9.85,   0.81,   0.05,  -0.17,  -1.69,   0.14,   0.84,   0.84,   0.29,   4.45, 4.02, 4.04, 0.00, 0.00, 0.00
6, 5581, 1,    -0.22, 3,   boost,   -0.49,  99131.00,  184.26,   -0.42,    0.00, 28.3, 4.06, 0.01, 4.03,   9.89,   0.86,   0.16,  -0.59,  -1.20,   0.14,   0.84,   0.84,   0.29,   4.45, 4.02, 4.04, 0.00, 0.00, 0.00
6, 5581, 1,    -0.21, 3,   boost,   -0.98,  99130.00,  184.34,   -0.34,    0.00, 28.3, 4.06, 0.01, 4.03,   9.84,   0.95,   0.24,  -0.66,  -1.20,   0.02,   0.85,   0.83,   0.29,   4.45, 4.02, 4.04, 0.00, 0.00, 0.00
6, 5581, 1,    -0.20, 3,   boost,   -0.00,  99129.00,  184.43,   -0.25,    0.02, 28.3, 4.06, 0.01, 4.03,   9.71,   0.98,   0.27,  -0.59,  -1.51,  -0.10,   0.85,   0.83,   0.29,   4.45, 4.02, 4.04, 0.00, 0.00, 0.00
6, 5581, 1,    -0.19, 3,   boost,   -0.98,  99134.00,  184.00,   -0.68,    0.05, 28.3, 4.06, 0.01, 4.03,  10.12,   0.87,   0.20,  -0.41,  -1.51,  -0.53,   0.85,   0.83,   0.29,   4.45, 4.02, 4.04, 0.00, 0.00, 0.00
6, 5581, 1,    -0.18, 3,   boost,    7.35,  99129.00,  184.43,   -0.25,    0.12, 28.3, 4.06, 0.01, 4.03,   9.93,   2.34,  -1.07,   2.09,  -1.32,  -0.59,   0.84,   0.84,   0.28,   4.45, 4.02, 4.04, 0.00, 0.00, 0.00
6, 5581, 1,    -0.17, 3,   boost,   18.63,  99107.00,  186.29,    1.61,    0.25, 28.3, 4.06, 0.01, 4.03,  18.54,   3.03,   0.94,  -3.10,  -0.96,  -0.22,   0.85,   0.83,   0.29,   4.45, 4.02, 4.04, 0.00, 0.00, 0.00
6, 5581, 1,    -0.16, 3,   boost,   22.56,  99138.00,  183.66,   -1.02,    0.43, 28.3, 4.06, 0.01, 4.03,  31.89,   0.79,   0.22, -14.51,  -2.24,   1.24,   0.85,   0.84,   0.29,   4.45, 4.02, 4.04, 0.00, 0.00, 0.00
6, 5581, 1,    -0.15, 3,   boost,   29.42,  99134.00,  184.00,   -0.68,    0.66, 28.3, 4.06, 0.01, 4.03,  31.10,   0.44,   0.74, -43.87,   4.60,  -1.02,   0.85,   0.84,   0.29,   4.45, 4.02, 4.04, 0.00, 0.00, 0.00
6, 5581, 1,    -0.14, 3,   boost,   29.42,  99130.00,  184.34,   -0.34,    0.93, 28.3, 4.06, 0.01, 4.03,  38.80,   3.83,   2.43, -63.04,   2.46,  -2.48,   0.85,   0.84,   0.29,   4.45, 4.02, 4.04, 0.00, 0.00, 0.00
6, 5581, 1,    -0.13, 3,   boost,   32.36,  99131.00,  184.26,   -0.42,    1.23, 28.3, 4.06, 0.01, 4.03,  39.12,   2.77,   0.34, -81.96,   1.30,   3.93,   0.85,   0.83,   0.28,   4.45, 4.02, 4.04, 0.00, 0.00, 0.00
6, 5581, 1,    -0.12, 3,   boost,   33.34,  99127.00,  184.59,   -0.08,    1.55, 28.3, 4.06, 0.01, 4.03,  41.37,   1.00,   0.05, -79.88,   6.06,   2.04,   0.86,   0.83,   0.28,   4.45, 4.02, 4.04, 0.00, 0.00, 0.00
6, 5581, 1,    -0.11, 3,   boost,   34.81,  99129.00,  184.43,   -0.25,    1.88, 28.3, 4.06, 0.01, 4.03,  43.68,   2.34,  -0.65, -80.00,   6.92,  -6.33,   0.87,   0.82,   0.28,   4.45, 4.02, 4.04, 0.00, 0.00, 0.00
6, 5581, 1,    -0.10, 3,   boost,   35.30,  99117.00,  185.44,    0.76,    2.22, 28.3, 4.06, 0.01, 4.03,  44.66,   1.50,  -0.55, -81.29,   7.96,  -5.96,   0.86,   0.83,   0.29,   4.45, 4.02, 4.04, 0.00, 0.00, 0.00
6, 5581, 1,    -0.09, 3,   boost,   34.81,  99117.00,  185.44,    0.76,    2.57, 28.3, 4.06, 0.01, 4.03,  44.84,   0.23,  -0.58,-102.65,   8.02,  -9.81,   0.87,   0.84,   0.28,   4.45, 4.02, 4.04, 0.00, 0.00, 0.00
6, 5581, 1,    -0.08, 3,   boost,   36.77,  99117.00,  185.44,    0.76,    2.92, 28.3, 4.06, 0.01, 4.03,  45.20,   0.74,  -0.01,-134.02,   4.05,  -8.10,   0.85,   0.83,   0.28,   4.45, 4.02, 4.04, 0.00, 0.00, 0.00
6, 5581, 1,    -0.07, 3,   boost,   36.77,  99120.00,  185.19,    0.51,    3.28, 28.3, 4.06, 0.01, 4.03,  44.39,   0.55,   1.11,-148.49,   3.56,  -1.02,   0.87,   0.84,   0.28,   4.45, 4.02, 4.04, 0.00, 0.00, 0.00
6, 5581, 1,    -0.06, 3,   boost,   34.81,  99117.00,  185.44,    0.76,    3.63, 28.3, 4.06, 0.01, 4.03,  44.76,   0.19,  -1.94,-152.27,   5.09,   0.63,   0.87,   0.83,   0.28,   4.45, 4.02, 4.04, 0.00, 0.00, 0.00
6, 5581, 1,    -0.05, 3,   boost,   33.34,  99122.00,  185.02,    0.34,    3.97, 28.3, 4.06, 0.01, 4.03,  43.73,   2.49,  -4.01,-141.90,   7.34,  -6.39,   0.88,   0.85,   0.27,   4.45, 4.02, 4.04, 0.00, 0.00, 0.00
6, 5581, 1,    -0.04, 3,   boost,   33.34,  99123.00,  184.93,    0.25,    4.31, 28.3, 4.06, 0.01, 4.03,  43.36,  -1.32,  -3.51,-140.74,   5.82,  -2.48,   0.88,   0.82,   0.27,   4.45, 4.02, 4.04, 0.00, 0.00, 0.00
6, 5581, 1,    -0.03, 3,   boost,   32.85,  99121.00,  185.10,    0.42,    4.63, 28.3, 4.06, 0.01, 4.03,  41.71,  -2.20,  -1.71,-151.97,   2.40,  -3.15,   0.88,   0.82,   0.27,   4.45, 4.02, 4.04, 0.00, 0.00, 0.00
6, 5581, 1,    -0.02, 3,   boost,   31.87,  99121.00,  185.10,    0.42,    4.95, 28.3, 4.06, 0.01, 4.03,  42.30,  -0.94,  -0.24,-169.30,   0.33,  -1.02,   0.88,   0.84,   0.27,   4.45, 4.02, 4.04, 0.00, 0.00, 0.00
6, 5581, 1,    -0.01, 3,   boost,   30.89,  99113.00,  185.78,    1.10,    5.27, 28.3, 4.06, 0.01, 4.03,  41.39,   0.00,  -0.24,-174.79,  -0.22,   0.63,   0.89,   0.83,   0.27,   4.45, 4.02, 4.04, 0.00, 0.00, 0.00
6, 5581, 1,     0.00, 3,   boost,   29.42,  99122.00,  185.02,    0.34,    5.57, 28.3, 4.06, 0.01, 4.03,  40.94,  -0.01,   0.97,-165.52,   1.73,   0.33,   0.89,   0.83,   0.27,   4.45, 4.02, 4.04, 0.00, 0.00, 0.00
6, 5581, 1,     0.00, 3,   boost,   29.42,  99122.00,  185.02,    0.34,    5.57, 28.3, 4.06, 0.01, 4.03,  40.94,  -0.01,   0.97,-165.52,   1.73,   0.33,   0.89,   0.83,   0.27,   4.45, 4.02, 4.04, 0.00, 0.00, 0.00
6, 5581, 1,     0.00, 3,   boost,   29.42,  99122.00,  185.02,    0.34,    5.57, 28.3, 4.06, 0.01, 4.03,  40.94,  -0.01,   0.97,-165.52,   1.73,   0.33,   0.89,   0.83,   0.27,   4.45, 4.02, 4.04, 0.00, 0.00, 0.00
6, 5581, 1,     0.00, 3,   boost,   29.42,  99122.00,  185.02,    0.34,    5.57, 28.3, 4.06, 0.01, 4.03,  40.94,  -0.01,   0.97,-165.52,   1.73,   0.33,   0.89,   0.83,   0.27,   4.46, 4.02, 4.04, 0.00, 0.00, 0.00
6, 5581, 1,     0.00, 3,   boost,   29.42,  99122.00,  185.02,    0.34,    5.57, 28.3, 4.06, 0.01, 4.03,  40.94,  -0.01,   0.97,-165.52,   1.73,   0.33,   0.89,   0.83,   0.27,   4.46, 4.02, 4.04, 0.00, 0.00, 0.00
6, 5581, 1,     0.00, 3,   boost,   29.42,  99122.00,  185.02,    0.34,    5.57, 28.3, 4.06, 0.01, 4.03,  40.94,  -0.01,   0.97,-165.52,   1.73,   0.33,   0.89,   0.83,   0.27,   4.46, 4.02, 4.04, 0.00, 0.00, 0.00
6, 5581, 1,     0.00, 3,   boost,   29.42,  99122.00,  185.02,    0.34,    5.57, 28.3, 4.06, 0.01, 4.03,  40.94,  -0.01,   0.97,-165.52,   1.73,   0.33,   0.89,   0.83,   0.27,   4.46, 4.02, 4.04, 0.00, 0.00, 0.00
6, 5581, 1,     0.00, 3,   boost,   29.42,  99122.00,  185.02,    0.34,    5.57, 28.3, 4.06, 0.01, 4.03,  40.94,  -0.01,   0.97,-165.52,   1.73,   0.33,   0.89,   0.83,   0.27,   4.47, 4.02, 4.04, 0.00, 0.00, 0.00
6, 5581, 1,     0.00, 3,   boost,   29.42,  99122.00,  185.02,    0.34,    5.57, 28.3, 4.06, 0.01, 4.03,  40.94,  -0.01,   0.97,-165.52,   1.73,   0.33,   0.89,   0.83,   0.27,   4.47, 4.02, 4.04, 0.00, 0.00, 0.00
6, 5581, 1,     0.00, 3,   boost,   29.42,  99122.00,  185.02,    0.34,    5.57, 28.3, 4.06, 0.01, 4.03,  40.94,  -0.01,   0.97,-165.52,   1.73,   0.33,   0.89,   0.83,   0.27,   4.48, 4.02, 4.04, 0.00, 0.00, 0.00
6, 5581, 1,     0.00, 3,   boost,   29.42,  99122.00,  185.02,    0.34,    5.57, 28.3, 4.06, 0.01, 4.03,  40.94,  -0.01,   0.97,-165.52,   1.73,   0.33,   0.89,   0.83,   0.27,   4.48, 4.02, 4.04, 0.00, 0.00, 0.00
6, 5581, 1,     0.00, 3,   boost,   29.42,  99122.00,  185.02,    0.34,    5.57, 28.3, 4.06, 0.01, 4.03,  40.94,  -0.01,   0.97,-165.52,   1.73,   0.33,   0.89,   0.83,   0.27,   4.49, 4.02, 4.04, 0.00, 0.00, 0.00
6, 5581, 1,     0.00, 3,   boost,   29.42,  99122.00,  185.02,    0.34,    5.57, 28.3, 4.06, 0.01, 4.03,  40.94,  -0.01,   0.97,-165.52,   1.73,   0.33,   0.89,   0.83,   0.27,   4.49, 4.02, 4.04, 0.00, 0.00, 0.00
6, 5581, 1,     0.00, 3,   boost,   29.42,  99122.00,  185.02,    0.34,    5.57, 28.3, 4.06, 0.01, 4.03,  40.94,  -0.01,   0.97,-165.52,   1.73,   0.33,   0.89,   0.83,   0.27,   4.49, 4.02, 4.04, 0.00, 0.00, 0.00
6, 5581, 1,     0.00, 3,   boost,   29.42,  99122.00,  185.02,    0.34,    5.57, 28.3, 4.06, 0.01, 4.03,  40.94,  -0.01,   0.97,-165.52,   1.73,   0.33,   0.89,   0.83,   0.27,   4.49, 4.02, 4.04, 0.00, 0.00, 0.00
6, 5581, 1,     0.00, 3,   boost,   29.42,  99122.00,  185.02,    0.34,    5.57, 28.3, 4.06, 0.01, 4.03,  40.94,  -0.01,   0.97,-165.52,   1.73,   0.33,   0.89,   0.83,   0.27,   4.49, 4.02, 4.04, 0.00, 0.00, 0.00
6, 5581, 1,     0.00, 3,   boost,   29.42,  99122.00,  185.02,    0.34,    5.57, 28.3, 4.06, 0.01, 4.03,  40.94,  -0.01,   0.97,-165.52,   1.73,   0.33,   0.89,   0.83,   0.27,   4.51, 4.02, 4.04, 0.00, 0.00, 0.00
6, 5581, 1,     0.00, 3,   boost,   29.42,  99122.00,  185.02,    0.34,    5.57, 28.3, 4.06, 0.01, 4.03,  40.94,  -0.01,   0.97,-165.52,   1.73,   0.33,   0.89,   0.83,   0.27,   4.49, 4.02, 4.04, 0.00, 0.00, 0.00
6, 5581, 1,     0.00, 3,   boost,   29.42,  99122.00,  185.02,    0.34,    5.57, 28.3, 4.06, 0.01, 4.03,  40.94,  -0.01,   0.97,-165.52,   1.73,   0.33,   0.89,   0.83,   0.27,   4.45, 4.02, 4.04, 0.00, 0.00, 0.00
6, 5581, 1,     0.00, 3,   boost,   29.42,  99122.00,  185.02,    0.34,    5.57, 28.3, 4.06, 0.01, 4.03,  40.94,  -0.01,   0.97,-165.52,   1.73,   0.33,   0.89,   0.83,   0.27,   4.49, 4.02, 4.04, 0.00, 0.00, 0.00
6, 5581, 1,     0.00, 3,   boost,   29.42,  99122.00,  185.02,    0.34,    5.57, 28.3, 4.06, 0.01, 4.03,  40.94,  -0.01,   0.97,-165.52,   1.73,   0.33,   0.89,   0.83,   0.27,   4.49, 4.02, 4.04, 0.00, 0.00, 0.00
6, 5581, 1,     0.00, 3,   boost,   29.42,  99122.00,  185.02,    0.34,    5.57, 28.3, 4.06, 0.01, 4.03,  40.94,  -0.01,   0.97,-165.52,   1.73,   0.33,   0.89,   0.83,   0.27,   4.41, 4.02, 4.04, 0.00, 0.00, 0.00
6, 5581, 1,     0.00, 3,   boost,   29.42,  99122.00,  185.02,    0.34,    5.57, 28.3, 4.06, 0.01, 4.03,  40.94,  -0.01,   0.97,-165.52,   1.73,   0.33,   0.89,   0.83,   0.27,   4.34, 4.02, 4.04, 0.00, 0.00, 0.00
6, 5581, 1,     0.00, 3,   boost,   29.42,  99122.00,  185.02,    0.34,    5.57, 28.3, 4.06, 0.01, 4.03,  40.94,  -0.01,   0.97,-165.52,   1.73,   0.33,   0.89,   0.83,   0.27,   4.22, 4.02, 4.04, 0.00, 0.00, 0.00
6, 5581, 1,     0.00, 3,   boost,   29.42,  99122.00,  185.02,    0.34,    5.57, 28.3, 4.06, 0.01, 4.03,  40.94,  -0.01,   0.97,-165.52,   1.73,   0.33,   0.89,   0.83,   0.27,   4.14, 4.02, 4.04, 0.00, 0.00, 0.00
6, 5581, 1,     0.00, 3,   boost,   29.42,  99122.00,  185.02,    0.34,    5.57, 28.3, 4.06, 0.01, 4.03,  40.94,  -0.01,   0.97,-165.52,   1.73,   0.33,   0.89,   0.83,   0.27,   4.12, 4.02, 4.04, 0.00, 0.00, 0.00
6, 5581, 1,     0.00, 3,   boost,   29.42,  99122.00,  185.02,    0.34,    5.57, 28.3, 4.06, 0.01, 4.03,  40.94,  -0.01,   0.97,-165.52,   1.73,   0.33,   0.89,   0.83,   0.27,   4.12, 4.02, 4.04, 0.00, 0.00, 0.00
6, 5581, 1,     0.00, 3,   boost,   29.42,  99122.00,  185.02,    0.34,    5.57, 28.3, 4.06, 0.01, 4.03,  40.94,  -0.01,   0.97,-165.52,   1.73,   0.33,   0.89,   0.83,   0.27,   4.06, 4.02, 4.04, 0.00, 0.00, 0.00
6, 5581, 1,     0.00, 3,   boost,   29.42,  99122.00,  185.02,    0.34,    5.57, 28.3, 4.06, 0.01, 4.03,  40.94,  -0.01,   0.97,-165.52,   1.73,   0.33,   0.89,   0.83,   0.27,   4.03, 4.02, 4.04, 0.00, 0.00, 0.00
6, 5581, 1,     0.00, 3,   boost,   29.42,  99122.00,  185.02,    0.34,    5.57, 28.3, 4.06, 0.01, 4.03,  40.94,  -0.01,   0.97,-165.52,   1.73,   0.33,   0.89,   0.83,   0.27,   4.00, 4.02, 4.04, 0.00, 0.00, 0.00
6, 5581, 1,     0.00, 3,   boost,   29.42,  99122.00,  185.02,    0.34,    5.57, 28.3, 4.06, 0.01, 4.03,  40.94,  -0.01,   0.97,-165.52,   1.73,   0.33,   0.89,   0.83,   0.27,   3.99, 4.02, 4.04, 0.00, 0.00, 0.00
6, 5581, 1,     0.00, 3,   boost,   29.42,  99122.00,  185.02,    0.34,    5.57, 28.3, 4.06, 0.01, 4.03,  40.94,  -0.01,   0.97,-165.52,   1.73,   0.33,   0.89,   0.83,   0.27,   3.99, 4.02, 4.04, 0.00, 0.00, 0.00
6, 5581, 1,     0.00, 3,   boost,   29.42,  99122.00,  185.02,    0.34,    5.57, 28.3, 4.06, 0.01, 4.03,  40.94,  -0.01,   0.97,-165.52,   1.73,   0.33,   0.89,   0.83,   0.27,   4.00, 4.02, 4.04, 0.00, 0.00, 0.00
6, 5581, 1,     0.01, 3,   boost,   29.42,  99120.00,  185.19,    0.51,    5.87, 28.3, 4.06, 0.01, 4.03,  39.77,  -1.35,  -1.92,-134.75,   1.12,   0.14,   0.89,   0.83,   0.26,   4.00, 4.02, 4.04, 0.00, 0.00, 0.00
6, 5581, 1,     0.01, 3,   boost,   29.42,  99120.00,  185.19,    0.51,    5.87, 28.3, 4.06, 0.01, 4.03,  39.77,  -1.35,  -1.92,-134.75,   1.12,   0.14,   0.89,   0.83,   0.26,   4.00, 4.02, 4.04, 0.00, 0.00, 0.00
6, 5581, 1,     0.02, 3,   boost,   30.40,  99120.00,  185.19,    0.51,    6.17, 28.3, 4.06, 0.00, 4.03,  38.70,   1.68,  -2.14, -67.67,   0.87,   3.50,   0.91,   0.82,   0.25,   4.04, 4.03, 4.04, 0.00, 0.00, 0.00
6, 5581, 1,     0.02, 3,   boost,   30.40,  99120.00,  185.19,    0.51,    6.17, 28.3, 4.06, 0.00, 4.03,  38.70,   1.68,  -2.14, -67.67,   0.87,   3.50,   0.91,   0.82,   0.25,   4.04, 4.03, 4.04, 0.00, 0.00, 0.00
6, 5581, 1,     0.03, 3,   boost,   30.40,  99121.00,  185.10,    0.42,    6.47, 28.3, 4.06, 0.00, 4.03,  38.36,  -2.50,  -0.49, -44.85,  -2.30,   3.56,   0.91,   0.84,   0.27,   4.07, 4.03, 4.04, 0.00, 0.00, 0.00
6, 5581, 1,     0.04, 3,   boost,   29.91,  99104.00,  186.54,    1.86,    6.77, 28.3, 4.06, 0.00, 4.03,  38.39,  -1.98,  -1.93,  -8.29,  12.78,  -2.36,   0.91,   0.83,   0.26,   4.07, 4.03, 4.04, 0.00, 0.00, 0.00
6, 5581, 1,     0.05, 3,   boost,   28.93,  99116.00,  185.53,    0.85,    7.08, 28.3, 4.06, 0.00, 4.03,  39.26,   3.46,  -4.21,  31.57,  -2.60,  -3.70,   0.90,   0.83,   0.27,   4.03, 4.03, 4.04, 0.00, 0.00, 0.00
6, 5581, 1,     0.06, 3,   boost,   30.89,  99112.00,  185.87,    1.19,    7.39, 28.3, 4.06, 0.00, 4.03,  40.72,   3.31,  -3.53,  63.98, -26.29,   0.14,   0.90,   0.83,   0.25,   3.99, 4.03, 4.04, 0.00, 0.00, 0.00
6, 5581, 1,     0.07, 3,   boost,   33.34,  99113.00,  185.78,    1.10,    7.70, 28.3, 4.06, 0.00, 4.03,  41.79,   1.93,  -1.64,  90.90, -23.42,   2.83,   0.90,   0.82,   0.27,   3.99, 4.03, 4.04, 0.00, 0.00, 0.00
6, 5581, 1,     0.08, 3,   boost,   32.85,  99116.00,  185.53,    0.85,    8.02, 28.3, 4.06, 0.00, 4.03,  42.13,   0.03,  -0.16, 106.59,  -2.30,   6.49,   0.90,   0.83,   0.27,   4.06, 4.03, 4.04, 0.00, 0.00, 0.00
6, 5581, 1,     0.09, 3,   boost,   32.36,  99124.00,  184.85,    0.17,    8.34, 28.3, 4.06, 0.00, 4.03,  41.45,  -1.92,   1.95, 110.31,   7.83,  -2.91,   0.90,   0.83,   0.26,   4.03, 4.03, 4.04, 0.00, 0.00, 0.00
6, 5581, 1,     0.10, 3,   boost,   31.87,  99113.00,  185.78,    1.10,    8.66, 28.3, 4.06, 0.00, 4.03,  41.09,  -1.50,   2.78, 110.86,  -4.56,  -4.37,   0.90,   0.83,   0.26,   3.99, 4.03, 4.04, 0.00, 0.00, 0.00
6, 5581, 1,     0.11, 3,   boost,   31.38,  99103.00,  186.63,    1.95,    8.98, 28.3, 4.06, 0.00, 4.03,  41.74,   0.24,   3.92,  88.70, -25.86,   4.23,   0.90,   0.82,   0.27,   4.04, 4.03, 4.04, 0.00, 0.00, 0.00
6, 5581, 1,     0.12, 3,   boost,   32.36,  99106.00,  186.37,    1.69,    9.30, 28.3, 4.06, 0.00, 4.03,  40.69,   2.76,   7.89,  60.75, -21.34,   4.23,   0.90,   0.83,   0.28,   4.10, 4.03, 4.04, 0.00, 0.00, 0.00
6, 5581, 1,     0.13, 3,   boost,   33.34,  99106.00,  186.37,    1.69,    9.62, 28.3, 4.06, 0.00, 4.03,  41.31,  -0.54,  -1.24,  45.43,   6.31,   4.97,   0.89,   0.82,   0.27,   4.14, 4.03, 4.04, 0.00, 0.00, 0.00
6, 5581, 1,     0.14, 3,   boost,   31.87,  99098.00,  187.05,    2.37,    9.94, 28.3, 4.06, 0.00, 4.03,  42.41,   4.36,   2.16,  46.10,  16.01,   1.30,   0.88,   0.84,   0.28,   4.14, 4.03, 4.04, 0.00, 0.00, 0.00
6, 5581, 1,     0.15, 3,   boost,   32.36,  99105.00,  186.46,    1.78,   10.26, 28.3, 4.06, 0.00, 4.03,  43.42,   3.69,   1.79,  51.41,   5.27,  -1.20,   0.90,   0.83,   0.29,   4.12, 4.03, 4.04, 0.00, 0.00, 0.00
6, 5581, 1,     0.16, 3,   boost,   31.87,  99089.00,  187.81,    3.14,   10.58, 28.3, 4.06, 0.00, 4.03,  42.57,  -1.97,   1.58,  17.47, -14.14,   2.04,   0.89,   0.83,   0.27,   4.16, 4.03, 4.04, 0.00, 0.00, 0.00
6, 5581, 1,     0.17, 3,   boost,   30.89,  99095.00,  187.31,    2.63,   10.90, 28.3, 4.06, 0.00, 4.03,  40.50,  -2.53,  -0.16,  -6.88, -18.72,   2.46,   0.88,   0.83,   0.29,   4.21, 4.03, 4.04, 0.00, 0.00, 0.00
6, 5581, 1,     0.18, 3,   boost,   32.36,  99104.00,  186.54,    1.86,   11.22, 28.3, 4.06, 0.00, 4.03,  43.83,  -2.53,  -2.38, -41.00,  -1.32,  10.89,   0.88,   0.82,   0.27,   4.32, 4.03, 4.04, 0.00, 0.00, 0.00
6, 5581, 1,     0.19, 3,   boost,   32.36,  99094.00,  187.39,    2.71,   11.54, 28.3, 4.06, 0.00, 4.03,  44.54,   4.47,  -3.69, -31.72,  17.66,   1.79,   0.90,   0.83,   0.28,   4.31, 4.03, 4.04, 0.00, 0.00, 0.00
6, 5581, 1,     0.20, 3,   boost,   33.34,  99095.00,  187.31,    2.63,   11.87, 28.3, 4.06, 0.00, 4.03,  42.60,  -1.92,   3.12, -42.22,   9.91,   5.33,   0.88,   0.83,   0.27,   4.36, 4.03, 4.04, 0.00, 0.00, 0.00
6, 5581, 1,     0.21, 3,   boost,   31.87,  99105.00,  186.46,    1.78,   12.19, 28.3, 4.06, 0.00, 4.03,  39.49,  -8.49,  -0.58, -55.47, -11.45,   0.45,   0.89,   0.83,   0.28,   4.37, 4.03, 4.04, 0.00, 0.00, 0.00
6, 5581, 1,     0.22, 3,   boost,   32.85,  99093.00,  187.48,    2.80,   12.51, 28.3, 4.06, 0.00, 4.03,  43.42,  -3.78,  -3.27, -82.99, -16.83,   4.84,   0.89,   0.83,   0.28,   4.44, 4.03, 4.04, 0.00, 0.00, 0.00
6, 5581, 1,     0.23, 3,   boost,   31.87,  99093.00,  187.48,    2.80,   12.84, 28.3, 4.06, 0.00, 4.03,  41.32,  -7.39,  -0.14,-110.28,  -2.42,  17.54,   0.90,   0.83,   0.27,   4.62, 4.03, 4.04, 0.00, 0.00, 0.00
6, 5581, 1,     0.24, 3,   boost,   33.34,  99099.00,  186.97,    2.29,   13.17, 28.3, 4.06, 0.00, 4.03,  43.11,  -0.84,  -0.35, -79.39,  11.86,  19.55,   0.90,   0.82,   0.28,   4.80, 4.03, 4.04, 0.00, 0.00, 0.00
6, 5581, 1,     0.25, 3,   boost,   33.34,  99094.00,  187.39,    2.71,   13.49, 28.3, 4.06, 0.00, 4.03,  42.83,  -1.99,   1.37, -78.84,   0.51,  22.18,   0.90,   0.82,   0.28,   5.02, 4.03, 4.04, 0.00, 0.00, 0.00
6, 5581, 1,     0.26, 3,   boost,   33.34,  99091.00,  187.65,    2.97,   13.82, 28.3, 4.06, 0.00, 4.03,  43.05,  -0.58,  -0.62, -75.36,   1.97,  15.22,   0.91,   0.83,   0.28,   5.17, 4.03, 4.04, 0.00, 0.00, 0.00
6, 5581, 1,     0.27, 3,   boost,   33.34,  99082.00,  188.41,    3.73,   14.15, 28.3, 4.06, 0.00, 4.03,  43.08,  -1.97,  -1.43, -70.67,   6.25,   8.75,   0.91,   0.83,   0.27,   5.26, 4.03, 4.04, 0.00, 0.00, 0.00
6, 5581, 1,     0.28, 3,   boost,   32.36,  99087.00,  187.98,    3.31,   14.48, 28.3, 4.06, 0.00, 4.03,  43.15,  -3.24,  -2.14, -68.96,   4.48,   7.47,   0.91,   0.82,   0.27,   5.33, 4.03, 4.04, 0.00, 0.00, 0.00
6, 5581, 1,     0.29, 3,   boost,   34.32,  99089.00,  187.81,    3.14,   14.82, 28.3, 4.06, 0.00, 4.03,  43.01,  -3.10,  -1.32, -72.62,   4.66,  10.83,   0.92,   0.82,   0.28,   5.44, 4.03, 4.04, 0.00, 0.00, 0.00
6, 5581, 1,     0.30, 3,   boost,   33.34,  99086.00,  188.07,    3.39,   15.15, 28.3, 4.06, 0.00, 4.03,  43.22,  -2.06,  -1.60, -75.43,   5.21,  15.22,   0.92,   0.82,   0.27,   5.60, 4.03, 4.04, 0.00, 0.00, 0.00
6, 5581, 1,     0.31, 3,   boost,   33.34,  99086.00,  188.07,    3.39,   15.48, 28.3, 4.06, 0.00, 4.03,  43.00,  -1.53,  -1.12, -76.34,   8.75,  14.37,   0.92,   0.82,   0.26,   5.75, 4.03, 4.04, 0.00, 0.00, 0.00
6, 5581, 1,     0.32, 3,   boost,   33.83,  99072.00,  189.26,    4.58,   15.82, 28.3, 4.06, 0.00, 4.03,  43.52,  -1.47,  -1.96, -62.18,  17.05,   7.35,   0.93,   0.83,   0.27,   5.83, 4.03, 4.04, 0.00, 0.00, 0.00
6, 5581, 1,     0.33, 3,   boost,   34.81,  99085.00,  188.15,    3.47,   16.16, 28.3, 4.06, 0.00, 4.03,  43.36,  -2.52,  -1.78, -59.86,  -2.36,   5.76,   0.92,   0.83,   0.27,   5.89, 4.03, 4.04, 0.00, 0.00, 0.00
6, 5581, 1,     0.34, 3,   boost,   34.32,  99087.00,  187.98,    3.31,   16.49, 28.3, 4.05, 0.00, 4.03,  43.48,  -3.03,  -1.56, -78.97,  -9.50,   9.79,   0.92,   0.83,   0.25,   5.97, 4.03, 4.04, 0.00, 0.00, 0.01
6, 5581, 1,     0.34, 3,   boost,   34.32,  99087.00,  187.98,    3.31,   16.49, 28.3, 4.05, 0.00, 4.03,  43.48,  -3.03,  -1.56, -78.97,  -9.50,   9.79,   0.92,   0.83,   0.25,   5.97, 4.03, 4.04, 0.00, 0.00, 0.01
6, 5581, 1,     0.35, 3,   boost,   32.36,  99093.00,  187.48,    2.80,   16.83, 28.3, 4.05, 0.00, 4.03,  43.51,  -2.34,  -0.70, -87.88,  21.93,  12.96,   0.94,   0.82,   0.25,   6.13, 4.03, 4.04, 0.00, 0.00, 0.01
6, 5581, 1,     0.36, 3,   boost,   33.83,  99086.00,  188.07,    3.39,   17.16, 28.3, 4.05, 0.00, 4.03,  43.34,  -2.15,  -0.70, -81.29,  31.21,  10.76,   0.94,   0.82,   0.25,   6.30, 4.03, 4.04, 0.00, 0.00, 0.01
6, 5581, 1,     0.37, 3,   boost,   34.32,  99089.00,  187.81,    3.14,   17.50, 28.3, 4.05, 0.00, 4.03,  43.37,  -1.60,  -1.26, -63.40,  27.98,   5.45,   0.93,   0.82,   0.25,   6.42, 4.03, 4.04, 0.00, 0.00, 0.01
6, 5581, 1,     0.38, 3,   boost,   33.83,  99079.00,  188.66,    3.98,   17.83, 28.3, 4.05, 0.00, 4.03,  43.39,  -2.01,  -1.37, -59.19,   5.57,   3.07,   0.94,   0.83,   0.24,   6.46, 4.03, 4.04, 0.00, 0.00, 0.01
6, 5581, 1,     0.39, 3,   boost,   34.32,  99083.00,  188.32,    3.64,   18.17, 28.3, 4.05, 0.00, 4.03,  43.56,  -2.84,  -0.64, -72.07,  11.86,   4.54,   0.95,   0.82,   0.24,   6.54, 4.03, 4.04, 0.00, 0.00, 0.01
6, 5581, 1,     0.40, 3,   boost,   32.85,  99078.00,  188.75,    4.07,   18.50, 28.3, 4.05, 0.00, 4.03,  43.45,  -2.94,  -0.23, -69.51,  16.26,   4.48,   0.94,   0.83,   0.24,   6.64, 4.03, 4.04, 0.00, 0.00, 0.01
6, 5581, 1,     0.41, 3,   boost,   34.32,  99084.00,  188.24,    3.56,   18.84, 28.3, 4.05, 0.00, 4.03,  43.29,  -2.84,  -0.30, -66.21,  19.25,   5.45,   0.95,   0.83,   0.24,   6.76, 4.03, 4.04, 0.00, 0.00, 0.01
6, 5581, 1,     0.42, 3,   boost,   33.34,  99082.00,  188.41,    3.73,   19.17, 28.3, 4.05, 0.00, 4.03,  43.46,  -2.36,  -0.98, -64.81,  20.59,   5.09,   0.94,   0.81,   0.24,   6.89, 4.03, 4.04, 0.00, 0.00, 0.01
6, 5581, 1,     0.43, 3,   boost,   34.32,  99077.00,  188.83,    4.15,   19.51, 28.3, 4.05, 0.00, 4.03,  45.26,  -2.46,  -1.44, -64.81,  18.94,   2.83,   0.93,   0.82,   0.23,   6.99, 4.03, 4.04, 0.00, 0.00, 0.01
6, 5581, 1,     0.44, 3,   boost,   34.32,  99082.00,  188.41,    3.73,   19.85, 28.3, 4.05, 0.00, 4.03,  44.22,  -2.79,  -0.38, -62.91,  18.33,   0.08,   0.95,   0.83,   0.23,   7.08, 4.03, 4.04, 0.00, 0.00, 0.01
6, 5581, 1,     0.45, 3,   boost,   33.34,  99075.00,  189.00,    4.32,   20.18, 28.3, 4.05, 0.00, 4.03,  43.63,  -3.45,   0.10, -60.23,  20.16,  -0.28,   0.94,   0.83,   0.23,   7.17, 4.03, 4.04, 0.00, 0.00, 0.01
6, 5581, 1,     0.46, 3,   boost,   33.34,  99076.00,  188.92,    4.24,   20.52, 28.3, 4.05, 0.00, 4.03,  43.56,  -3.35,  -1.16, -50.77,   3.87,   1.67,   0.95,   0.82,   0.22,   7.21, 4.03, 4.04, 0.00, 0.00, 0.01
6, 5581, 1,     0.47, 3,   boost,   34.81,  99071.00,  189.34,    4.66,   20.85, 28.3, 4.05, 0.00, 4.03,  43.48,  -2.78,  -0.23, -58.76,   5.27,   3.50,   0.96,   0.83,   0.23,   7.27, 4.03, 4.04, 0.00, 0.00, 0.01
6, 5581, 1,     0.48, 3,   boost,   33.83,  99076.00,  188.92,    4.24,   21.19, 28.3, 4.05, 0.00, 4.03,  43.41,  -2.66,  -0.69, -66.51,  22.18,   3.32,   0.95,   0.83,   0.23,   7.41, 4.03, 4.04, 0.00, 0.00, 0.01
6, 5581, 1,     0.49, 3,   boost,   33.34,  99062.00,  190.10,    5.42,   21.52, 28.3, 4.05, 0.00, 4.03,  43.62,  -3.03,  -0.45, -52.05,  39.69,  -3.15,   0.95,   0.83,   0.21,   7.62, 4.03, 4.04, 0.00, 0.00, 0.01
6, 5581, 1,     0.50, 3,   boost,   34.32,  99064.00,  189.93,    5.25,   21.86, 28.3, 4.05, 0.00, 4.03,  43.60,  -3.38,  -0.37, -26.78,  34.14,  -8.04,   0.96,   0.82,   0.21,   7.77, 4.03, 4.04, 0.00, 0.00, 0.01
6, 5581, 1,     0.51, 3,   boost,   34.32,  99057.00,  190.53,    5.85,   22.20, 28.3, 4.05, 0.00, 4.03,  43.19,  -3.34,  -0.64, -19.52,  13.69,  -6.27,   0.94,   0.83,   0.22,   7.81, 4.03, 4.04, 0.00, 0.00, 0.01
6, 5581, 1,     0.52, 3,   boost,   34.32,  99054.00,  190.78,    6.10,   22.53, 28.3, 4.05, 0.00, 4.03,  43.15,  -3.04,  -0.96, -33.86,   4.54,  -1.14,   0.94,   0.82,   0.22,   7.83, 4.03, 4.04, 0.00, 0.00, 0.01
6, 5581, 1,     0.53, 3,   boost,   33.83,  99058.00,  190.44,    5.76,   22.87, 28.3, 4.05, 0.00, 4.03,  43.22,  -2.97,  -0.57, -28.43,  19.67,  -3.46,   0.96,   0.82,   0.22,   7.93, 4.03, 4.04, 0.00, 0.00, 0.01
6, 5581, 1,     0.54, 3,   boost,   33.83,  99056.00,  190.61,    5.93,   23.21, 28.3, 4.05, 0.00, 4.03,  43.29,  -2.32,   0.14, -20.92,  21.32,  -5.90,   0.96,   0.84,   0.20,   8.04, 4.03, 4.04, 0.00, 0.00, 0.01
6, 5581, 1,     0.55, 3,   boost,   34.32,  99044.00,  191.63,    6.95,   23.54, 28.3, 4.05, 0.00, 4.03,  43.76,  -2.44,  -0.05, -18.91,  22.54,  -7.36,   0.95,   0.84,   0.21,   8.15, 4.03, 4.04, 0.00, 0.00, 0.01
6, 5581, 1,     0.56, 3,   boost,   33.83,  99046.00,  191.46,    6.78,   23.88, 28.3, 4.05, 0.00, 4.03,  43.64,  -2.99,  -0.15, -15.18,  24.31,  -7.61,   0.95,   0.84,   0.20,   8.27, 4.03, 4.04, 0.00, 0.00, 0.01
6, 5581, 1,     0.57, 3,   boost,   34.32,  99048.00,  191.29,    6.61,   24.21, 28.3, 4.05, 0.00, 4.03,  43.54,  -2.55,  -0.53,  -4.68,  22.91,  -7.30,   0.94,   0.84,   0.21,   8.40, 4.03, 4.04, 0.00, 0.00, 0.01
6, 5581, 1,     0.58, 3,   boost,   33.34,  99042.00,  191.80,    7.12,   24.55, 28.3, 4.05, 0.00, 4.03,  43.56,  -2.70,  -0.15,  -3.22,  22.12,  -7.79,   0.96,   0.84,   0.20,   8.52, 4.03, 4.04, 0.00, 0.00, 0.01
6, 5581, 1,     0.59, 3,   boost,   35.30,  99040.00,  191.97,    7.29,   24.89, 28.3, 4.05, 0.00, 4.03,  43.70,  -2.54,   0.25,   1.48,  22.42,  -9.13,   0.95,   0.83,   0.20,   8.64, 4.03, 4.04, 0.00, 0.00, 0.01
6, 5581, 1,     0.60, 3,   boost,   34.81,  99039.00,  192.05,    7.37,   25.23, 28.3, 4.05, 0.00, 4.03,  43.55,  -2.81,   0.08,  -6.03,  23.64,  -7.06,   0.94,   0.83,   0.19,   8.78, 4.03, 4.04, 0.00, 0.00, 0.01
6, 5581, 1,     0.61, 3,   boost,   33.83,  99031.00,  192.73,    8.05,   25.56, 28.3, 4.05, 0.00, 4.03,  43.56,  -2.94,   0.00,   5.69,  41.28, -10.23,   0.94,   0.83,   0.19,   9.06, 4.03, 4.04, 0.00, 0.00, 0.01
6, 5581, 1,     0.62, 3,   boost,   33.34,  99030.00,  192.82,    8.14,   25.90, 28.3, 4.05, 0.00, 4.03,  43.67,  -3.23,  -0.06,  30.41,  36.40, -13.96,   0.95,   0.84,   0.21,   9.29, 4.03, 4.04, 0.00, 0.00, 0.01
6, 5581, 1,     0.63, 3,   boost,   34.32,  99023.00,  193.41,    8.73,   26.24, 28.3, 4.05, 0.00, 4.03,  43.52,  -2.76,   0.06,  40.12,  14.12, -12.98,   0.96,   0.83,   0.20,   9.34, 4.03, 4.04, 0.00, 0.00, 0.01
6, 5581, 1,     0.64, 3,   boost,   34.32,  99019.00,  193.75,    9.07,   26.57, 28.3, 4.05, 0.00, 4.03,  43.68,  -2.33,   0.01,  29.19,   3.32,  -8.40,   0.95,   0.83,   0.19,   9.32, 4.03, 4.04, 0.00, 0.00, 0.01
6, 5581, 1,     0.65, 3,   boost,   34.32,  99017.00,  193.92,    9.24,   26.91, 28.3, 4.05, 0.00, 4.03,  43.87,  -2.23,  -0.19,  19.12,  18.09,  -7.18,   0.95,   0.83,   0.19,   9.44, 4.03, 4.04, 0.00, 0.00, 0.01
6, 5581, 1,     0.66, 3,   boost,   34.32,  99015.00,  194.09,    9.41,   27.24, 28.3, 4.06, 0.01, 4.03,  44.47,  -2.20,  -0.15,  31.02,  38.84, -11.51,   0.94,   0.84,   0.19,   9.72, 4.05, 4.04, 0.00, 0.00, 0.00
6, 5581, 1,     0.66, 3,   boost,   34.32,  99015.00,  194.09,    9.41,   27.24, 28.3, 4.06, 0.01, 4.03,  44.47,  -2.20,  -0.15,  31.02,  38.84, -11.51,   0.94,   0.84,   0.19,   9.72, 4.05, 4.04, 0.00, 0.00, 0.00
6, 5581, 1,     0.67, 3,   boost,   34.32,  99009.00,  194.60,    9.92,   27.58, 28.3, 4.06, 0.01, 4.03,  44.04,  -1.89,  -0.32,  47.69,  24.86, -13.10,   0.94,   0.84,   0.19,   9.87, 4.05, 4.04, 0.00, 0.00, 0.00
6, 5581, 1,     0.68, 3,   boost,   33.83,  99005.00,  194.94,   10.26,   27.92, 28.3, 4.06, 0.01, 4.03,  43.49,  -1.88,   0.07,  51.90,  21.08, -12.55,   0.95,   0.84,   0.19,  10.00, 4.05, 4.04, 0.00, 0.00, 0.00
6, 5581, 1,     0.69, 3,   boost,   34.32,  99007.00,  194.77,   10.09,   28.25, 28.3, 4.06, 0.01, 4.03,  43.59,  -1.87,   0.28,  53.85,  21.63, -12.98,   0.95,   0.84,   0.19,  10.13, 4.05, 4.04, 0.00, 0.00, 0.00
6, 5581, 1,     0.70, 3,   boost,   34.81,  98996.00,  195.70,   11.02,   28.59, 28.3, 4.06, 0.01, 4.03,  43.57,  -1.49,  -0.03,  57.82,  22.18, -14.08,   0.95,   0.85,   0.19,  10.27, 4.05, 4.04, 0.00, 0.00, 0.00
6, 5581, 1,     0.71, 3,   boost,   34.81,  98993.00,  195.96,   11.28,   28.93, 28.3, 4.06, 0.01, 4.03,  43.91,  -1.80,  -0.44,  59.59,  22.12, -14.75,   0.95,   0.84,   0.19,  10.40, 4.05, 4.04, 0.00, 0.00, 0.00
6, 5581, 1,     0.72, 3,   boost,   33.83,  98996.00,  195.70,   11.02,   29.26, 28.3, 4.06, 0.01, 4.03,  44.08,  -1.58,  -0.78,  63.01,  21.08, -14.99,   0.93,   0.83,   0.18,  10.53, 4.05, 4.04, 0.00, 0.00, 0.00
6, 5581, 1,     0.73, 3,   boost,   34.81,  98989.00,  196.29,   11.62,   29.60, 28.3, 4.06, 0.01, 4.03,  44.20,  -1.33,  -0.21,  67.83,  20.53, -15.36,   0.93,   0.84,   0.17,  10.65, 4.05, 4.04, 0.00, 0.00, 0.00
6, 5581, 1,     0.74, 3,   boost,   34.81,  98983.00,  196.80,   12.12,   29.94, 28.3, 4.06, 0.01, 4.03,  44.23,  -1.24,   0.10,  69.11,  20.77, -15.85,   0.93,   0.84,   0.18,  10.77, 4.05, 4.04, 0.00, 0.00, 0.00
6, 5581, 1,     0.75, 3,   boost,   34.32,  98981.00,  196.97,   12.29,   30.28, 28.3, 4.06, 0.01, 4.03,  44.44,  -1.72,   0.44,  70.45,  21.20, -16.70,   0.93,   0.83,   0.19,  10.90, 4.05, 4.04, 0.00, 0.00, 0.00
6, 5581, 1,     0.76, 3,   boost,   34.81,  98972.00,  197.74,   13.06,   30.62, 28.3, 4.06, 0.01, 4.03,  44.19,  -1.87,  -0.07,  72.41,  21.44, -17.01,   0.93,   0.84,   0.19,  11.03, 4.05, 4.04, 0.00, 0.00, 0.00
6, 5581, 1,     0.77, 3,   boost,   34.81,  98971.00,  197.82,   13.14,   30.96, 28.3, 4.06, 0.01, 4.03,  44.27,  -1.68,  -0.31,  74.91,  21.69, -16.52,   0.92,   0.83,   0.19,  11.17, 4.05, 4.04, 0.00, 0.00, 0.00
6, 5581, 1,     0.78, 3,   boost,   34.81,  98968.00,  198.08,   13.40,   31.30, 28.3, 4.06, 0.01, 4.03,  44.04,  -1.55,   0.01,  77.41,  21.20, -16.03,   0.93,   0.84,   0.17,  11.30, 4.05, 4.04, 0.00, 0.00, 0.00
6, 5581, 1,     0.79, 3,   boost,   34.81,  98968.00,  198.08,   13.40,   31.63, 28.3, 4.06, 0.01, 4.03,  44.49,  -1.78,   0.26,  81.50,  21.08, -17.68,   0.92,   0.85,   0.19,  11.43, 4.05, 4.04, 0.00, 0.00, 0.00
6, 5581, 1,     0.80, 3,   boost,   34.81,  98962.00,  198.59,   13.91,   31.97, 28.3, 4.06, 0.01, 4.03,  44.32,  -1.76,   0.46,  82.78,  21.38, -18.23,   0.92,   0.85,   0.19,  11.57, 4.05, 4.04, 0.00, 0.00, 0.00
6, 5581, 1,     0.81, 3,   boost,   34.81,  98956.00,  199.09,   14.41,   32.31, 28.3, 4.06, 0.01, 4.03,  44.34,  -2.08,   0.25,  85.53,  22.24, -17.74,   0.91,   0.84,   0.19,  11.71, 4.05, 4.04, 0.00, 0.00, 0.00
6, 5581, 1,     0.82, 3,   boost,   34.32,  98951.00,  199.52,   14.84,   32.65, 28.3, 4.06, 0.01, 4.03,  44.51,  -1.60,  -0.06,  88.52,  22.12, -17.07,   0.92,   0.85,   0.19,  11.86, 4.05, 4.04, 0.00, 0.00, 0.00
6, 5581, 1,     0.83, 3,   boost,   34.32,  98950.00,  199.60,   14.92,   32.98, 28.3, 4.06, 0.01, 4.03,  44.40,  -1.28,   0.07,  91.27,  21.20, -17.37,   0.92,   0.85,   0.17,  11.99, 4.05, 4.04, 0.00, 0.00, 0.00
6, 5581, 1,     0.84, 3,   boost,   34.81,  98947.00,  199.86,   15.18,   33.32, 28.3, 4.06, 0.01, 4.03,  44.23,  -1.45,   0.59,  93.40,  21.32, -18.35,   0.91,   0.84,   0.18,  12.13, 4.05, 4.04, 0.00, 0.00, 0.00
6, 5581, 1,     0.85, 3,   boost,   34.81,  98938.00,  200.62,   15.94,   33.66, 28.3, 4.06, 0.01, 4.03,  44.38,  -1.65,   0.31,  95.72,  21.93, -18.84,   0.91,   0.84,   0.18,  12.27, 4.05, 4.04, 0.00, 0.00, 0.00
6, 5581, 1,     0.86, 3,   boost,   33.83,  98938.00,  200.62,   15.94,   33.99, 28.3, 4.06, 0.01, 4.03,  44.37,  -1.88,   0.19,  98.47,  22.54, -18.35,   0.90,   0.85,   0.18,  12.42, 4.05, 4.04, 0.00, 0.00, 0.00
6, 5581, 1,     0.87, 3,   boost,   35.30,  98929.00,  201.39,   16.71,   34.33, 28.3, 4.06, 0.01, 4.03,  44.35,  -1.68,   0.19, 101.09,  21.99, -18.11,   0.90,   0.84,   0.19,  12.57, 4.05, 4.04, 0.00, 0.00, 0.00
6, 5581, 1,     0.88, 3,   boost,   35.30,  98925.00,  201.72,   17.05,   34.67, 28.3, 4.06, 0.01, 4.03,  44.45,  -1.54,   0.34, 103.47,  21.87, -18.17,   0.91,   0.85,   0.19,  12.71, 4.05, 4.04, 0.00, 0.00, 0.00
6, 5581, 1,     0.89, 3,   boost,   35.30,  98922.00,  201.98,   17.30,   35.01, 28.3, 4.06, 0.01, 4.03,  44.57,  -1.42,   0.47, 106.04,  22.30, -18.72,   0.90,   0.84,   0.18,  12.86, 4.05, 4.04, 0.00, 0.00, 0.00
6, 5581, 1,     0.90, 3,   boost,   35.30,  98922.00,  201.98,   17.30,   35.35, 28.3, 4.06, 0.01, 4.03,  44.83,  -1.43,   0.28, 109.82,  23.40, -18.96,   0.91,   0.85,   0.18,  13.02, 4.05, 4.04, 0.00, 0.00, 0.00
6, 5581, 1,     0.91, 3,   boost,   34.32,  98914.00,  202.66,   17.98,   35.69, 28.3, 4.06, 0.01, 4.03,  44.95,  -1.53,   0.14, 110.80,  23.40, -18.90,   0.89,   0.85,   0.18,  13.17, 4.05, 4.04, 0.00, 0.00, 0.00
6, 5581, 1,     0.92, 3,   boost,   35.79,  98906.00,  203.34,   18.66,   36.03, 28.3, 4.06, 0.01, 4.03,  44.53,  -1.54,   0.26, 113.12,  22.91, -18.35,   0.89,   0.85,   0.18,  13.33, 4.05, 4.04, 0.00, 0.00, 0.00
6, 5581, 1,     0.93, 3,   boost,   34.81,  98907.00,  203.25,   18.57,   36.37, 28.3, 4.06, 0.01, 4.03,  45.07,  -0.67,   0.40, 115.44,  22.97, -18.17,   0.89,   0.86,   0.17,  13.48, 4.05, 4.04, 0.00, 0.00, 0.00
6, 5581, 1,     0.94, 3,   boost,   35.30,  98901.00,  203.76,   19.08,   36.70, 28.3, 4.06, 0.01, 4.03,  44.75,  -0.70,   0.60, 116.90,  24.19, -18.47,   0.89,   0.85,   0.18,  13.65, 4.05, 4.04, 0.00, 0.00, 0.00
6, 5581, 1,     0.95, 3,   boost,   35.30,  98896.00,  204.19,   19.51,   37.04, 28.3, 4.06, 0.01, 4.03,  44.81,  -0.84,   0.33, 118.55,  25.05, -19.02,   0.89,   0.84,   0.18,  13.82, 4.05, 4.04, 0.00, 0.00, 0.00
6, 5581, 1,     0.96, 3,   boost,   34.32,  98886.00,  205.04,   20.36,   37.38, 28.3, 4.06, 0.01, 4.03,  44.61,  -0.94,   0.10, 119.34,  25.05, -18.96,   0.88,   0.85,   0.17,  13.99, 4.05, 4.04, 0.00, 0.00, 0.00
6, 5581, 1,     0.97, 3,   boost,   35.30,  98880.00,  205.54,   20.87,   37.72, 28.3, 4.06, 0.01, 4.03,  44.54,  -0.88,   0.31, 120.75,  24.44, -18.53,   0.88,   0.84,   0.18,  14.16, 4.05, 4.04, 0.00, 0.00, 0.00
6, 5581, 1,     0.98, 3,   boost,   34.81,  98877.00,  205.80,   21.12,   38.05, 28.3, 4.06, 0.00, 4.03,  44.09,  -0.39,   0.75, 121.60,  24.86, -18.29,   0.87,   0.85,   0.17,  14.33, 4.03, 4.04, 0.00, 0.00, 0.00
6, 5581, 1,     0.98, 3,   boost,   34.81,  98877.00,  205.80,   21.12,   38.05, 28.3, 4.06, 0.00, 4.03,  44.09,  -0.39,   0.75, 121.60,  24.86, -18.29,   0.87,   0.85,   0.17,  14.33, 4.03, 4.04, 0.00, 0.00, 0.00
6, 5581, 1,     0.99, 3,   boost,   35.30,  98876.00,  205.88,   21.21,   38.39, 28.3, 4.06, 0.00, 4.03,  44.41,  -0.80,   0.48, 123.25,  26.51, -18.17,   0.87,   0.86,   0.17,  14.51, 4.03, 4.04, 0.00, 0.00, 0.00
6, 5581, 1,     1.00, 3,   boost,   35.79,  98870.00,  206.39,   21.71,   38.73, 28.3, 4.06, 0.00, 4.03,  44.89,  -1.07,  -0.12, 124.84,  27.06, -17.68,   0.87,   0.85,   0.17,  14.70, 4.03, 4.04, 0.00, 0.00, 0.00
6, 5581, 1,     1.01, 3,   boost,   35.79,  98863.00,  206.99,   22.31,   39.07, 28.3, 4.06, 0.00, 4.03,  45.18,  -0.41,   0.36, 126.61,  26.57, -17.01,   0.87,   0.85,   0.18,  14.89, 4.03, 4.04, 0.00, 0.00, 0.00
6, 5581, 1,     1.02, 3,   boost,   35.30,  98866.00,  206.73,   22.05,   39.41, 28.3, 4.06, 0.00, 4.03,  45.16,  -0.64,   0.59, 126.73,  26.63, -16.89,   0.86,   0.86,   0.17,  15.08, 4.03, 4.04, 0.00, 0.00, 0.00
6, 5581, 1,     1.03, 3,   boost,   35.79,  98850.00,  208.09,   23.41,   39.75, 28.3, 4.06, 0.00, 4.03,  45.15,  -0.74,   0.99, 127.34,  27.61, -17.01,   0.85,   0.85,   0.17,  15.27, 4.03, 4.04, 0.00, 0.00, 0.00
6, 5581, 1,     1.04, 3,   boost,   34.81,  98846.00,  208.43,   23.75,   40.09, 28.3, 4.06, 0.00, 4.03,  44.89,  -0.91,   1.02, 128.19,  28.65, -16.64,   0.86,   0.86,   0.16,  15.47, 4.03, 4.04, 0.00, 0.00, 0.00
6, 5581, 1,     1.05, 3,   boost,   35.30,  98839.00,  209.03,   24.35,   40.42, 28.3, 4.06, 0.00, 4.03,  44.84,  -0.74,   0.85, 129.41,  28.65, -15.36,   0.86,   0.86,   0.18,  15.68, 4.03, 4.04, 0.00, 0.00, 0.00
6, 5581, 1,     1.06, 3,   boost,   35.30,  98823.00,  210.39,   25.71,   40.76, 28.3, 4.06, 0.00, 4.03,  44.84,  -0.63,   1.15, 130.45,  28.77, -14.32,   0.85,   0.85,   0.17,  15.89, 4.03, 4.04, 0.00, 0.00, 0.00
6, 5581, 1,     1.07, 3,   boost,   35.79,  98828.00,  209.96,   25.28,   41.09, 28.3, 4.06, 0.00, 4.03,  44.96,  -0.23,   1.47, 130.88,  28.95, -14.51,   0.85,   0.86,   0.17,  16.10, 4.03, 4.04, 0.00, 0.00, 0.00
6, 5581, 1,     1.08, 3,   boost,   34.81,  98820.00,  210.64,   25.96,   41.43, 28.3, 4.06, 0.00, 4.03,  45.26,  -0.41,   1.58, 131.37,  30.23, -14.57,   0.85,   0.86,   0.17,  16.32, 4.03, 4.04, 0.00, 0.00, 0.00
6, 5581, 1,     1.09, 3,   boost,   34.81,  98815.00,  211.07,   26.39,   41.76, 28.3, 4.06, 0.00, 4.03,  44.69,  -0.58,   1.45, 131.92,  30.97, -14.44,   0.85,   0.85,   0.17,  16.54, 4.03, 4.04, 0.00, 0.00, 0.00
6, 5581, 1,     1.10, 3,   boost,   35.30,  98807.00,  211.74,   27.07,   42.09, 28.3, 4.06, 0.00, 4.03,  44.82,  -0.68,   1.36, 132.77,  31.39, -13.53,   0.84,   0.85,   0.17,  16.77, 4.03, 4.04, 0.00, 0.00, 0.00
6, 5581, 1,     1.11, 3,   boost,   35.30,  98801.00,  212.25,   27.58,   42.43, 28.3, 4.06, 0.00, 4.03,  44.64,  -0.58,   1.59, 133.87,  31.52, -12.00,   0.84,   0.85,   0.16,  17.01, 4.03, 4.04, 0.00, 0.00, 0.00
6, 5581, 1,     1.12, 3,   boost,   35.79,  98793.00,  212.93,   28.25,   42.76, 28.3, 4.06, 0.00, 4.03,  44.90,  -0.07,   1.75, 133.75,  32.00, -11.58,   0.85,   0.85,   0.17,  17.25, 4.03, 4.04, 0.00, 0.00, 0.00
6, 5581, 1,     1.13, 3,   boost,   35.30,  98795.00,  212.76,   28.09,   43.09, 28.3, 4.06, 0.00, 4.03,  44.86,  -0.13,   1.67, 133.93,  32.55, -11.76,   0.85,   0.85,   0.17,  17.49, 4.03, 4.04, 0.00, 0.00, 0.00
6, 5581, 1,     1.14, 3,   boost,   34.81,  98791.00,  213.10,   28.42,   43.43, 28.3, 4.06, 0.00, 4.03,  45.11,  -0.33,   1.49, 134.60,  33.16, -11.76,   0.85,   0.85,   0.15,  17.73, 4.03, 4.04, 0.00, 0.00, 0.00
6, 5581, 1,     1.15, 3,   boost,   36.28,  98774.00,  214.55,   29.87,   43.76, 28.3, 4.06, 0.00, 4.03,  44.96,  -0.40,   1.81, 135.52,  33.10, -10.29,   0.84,   0.86,   0.15,  17.98, 4.03, 4.04, 0.00, 0.00, 0.00
6, 5581, 1,     1.16, 3,   boost,   35.79,  98774.00,  214.55,   29.87,   44.09, 28.3, 4.06, 0.00, 4.03,  45.01,  -0.31,   1.90, 136.07,  33.35,  -8.95,   0.84,   0.85,   0.16,  18.23, 4.03, 4.04, 0.00, 0.00, 0.00
6, 5581, 1,     1.17, 3,   boost,   34.81,  98770.00,  214.89,   30.21,   44.42, 28.3, 4.06, 0.00, 4.03,  45.03,  -0.32,   2.09, 136.80,  34.14,  -8.46,   0.84,   0.85,   0.13,  18.49, 4.03, 4.04, 0.00, 0.00, 0.00
6, 5581, 1,     1.18, 3,   boost,   35.30,  98759.00,  215.82,   31.14,   44.75, 28.3, 4.06, 0.00, 4.03,  45.01,  -0.62,   2.28, 137.17,  34.93,  -8.34,   0.84,   0.86,   0.14,  18.76, 4.03, 4.04, 0.00, 0.00, 0.00
6, 5581, 1,     1.19, 3,   boost,   35.30,  98743.00,  217.18,   32.50,   45.08, 28.3, 4.06, 0.00, 4.03,  44.82,  -0.91,   2.45, 137.96,  35.06,  -7.61,   0.83,   0.85,   0.14,  19.02, 4.03, 4.04, 0.00, 0.00, 0.00
6, 5581, 1,     1.20, 3,   boost,   35.30,  98737.00,  217.69,   33.01,   45.41, 28.3, 4.06, 0.00, 4.03,  44.85,  -0.68,   2.41, 138.69,  35.12,  -6.39,   0.82,   0.86,   0.14,  19.29, 4.03, 4.04, 0.00, 0.00, 0.00
6, 5581, 1,     1.21, 3,   boost,   35.79,  98735.00,  217.86,   33.18,   45.74, 28.3, 4.06, 0.00, 4.03,  45.03,  -0.58,   2.76, 139.97,  35.42,  -4.98,   0.83,   0.85,   0.15,  19.57, 4.03, 4.04, 0.00, 0.00, 0.00
6, 5581, 1,     1.22, 3,   boost,   35.30,  98727.00,  218.54,   33.86,   46.07, 28.3, 4.06, 0.00, 4.03,  45.32,  -0.25,   2.79, 140.52,  36.28,  -4.50,   0.83,   0.86,   0.13,  19.86, 4.03, 4.04, 0.00, 0.00, 0.00
6, 5581, 1,     1.23, 3,   boost,   35.79,  98713.00,  219.73,   35.05,   46.40, 28.3, 4.06, 0.00, 4.03,  45.16,  -0.55,   2.84, 141.68,  36.40,  -4.31,   0.83,   0.86,   0.13,  20.14, 4.03, 4.04, 0.00, 0.00, 0.00
6, 5581, 1,     1.24, 3,   boost,   35.79,  98706.00,  220.33,   35.65,   46.72, 28.3, 4.06, 0.00, 4.03,  45.20,  -0.85,   3.08, 141.93,  36.15,  -4.07,   0.83,   0.86,   0.13,  20.42, 4.03, 4.04, 0.00, 0.00, 0.00
6, 5581, 1,     1.25, 3,   boost,   34.81,  98678.00,  222.71,   38.03,   47.05, 28.3, 4.06, 0.00, 4.03,  45.14,  -1.05,   3.42, 142.78,  36.15,  -2.85,   0.83,   0.87,   0.13,  20.70, 4.03, 4.04, 0.00, 0.00, 0.00
6, 5581, 1,     1.26, 3,   boost,   35.79,  98675.00,  222.97,   38.29,   47.38, 28.3, 4.06, 0.00, 4.03,  45.26,  -0.85,   3.56, 143.09,  36.58,  -1.44,   0.82,   0.86,   0.13,  20.99, 4.03, 4.04, 0.00, 0.00, 0.00
6, 5581, 1,     1.27, 3,   boost,   35.79,  98660.00,  224.24,   39.56,   47.70, 28.3, 4.06, 0.00, 4.03,  45.18,  -0.81,   4.06, 142.90,  37.13,  -1.02,   0.82,   0.87,   0.12,  21.29, 4.03, 4.04, 0.00, 0.00, 0.00
6, 5581, 1,     1.28, 3,   boost,   35.30,  98650.00,  225.09,   40.41,   48.02, 28.3, 4.06, 0.00, 4.03,  45.01,  -1.07,   4.22, 143.09,  36.89,  -1.32,   0.83,   0.86,   0.12,  21.57, 4.03, 4.04, 0.00, 0.00, 0.00
6, 5581, 1,     1.29, 3,   boost,   35.30,  98635.00,  226.37,   41.69,   48.35, 28.3, 4.06, 0.00, 4.03,  45.16,  -1.05,   4.49, 143.09,  36.70,  -0.77,   0.82,   0.86,   0.11,  21.86, 4.03, 4.04, 0.00, 0.00, 0.00
6, 5581, 1,     1.30, 3,   boost,   35.79,  98626.00,  227.13,   42.45,   48.67, 28.3, 4.06, 0.00, 4.03,  45.15,  -1.23,   4.47, 141.80,  36.34,   0.39,   0.83,   0.86,   0.11,  22.15, 4.04, 4.04, 0.00, 0.00, 0.00
6, 5581, 1,     1.30, 3,   boost,   35.79,  98626.00,  227.13,   42.45,   48.67, 28.3, 4.06, 0.00, 4.03,  45.15,  -1.23,   4.47, 141.80,  36.34,   0.39,   0.83,   0.86,   0.11,  22.15, 4.04, 4.04, 0.00, 0.00, 0.00
6, 5581, 1,     1.31, 3,   boost,   35.30,  98611.00,  228.41,   43.73,   48.99, 28.3, 4.06, 0.00, 4.03,  45.25,  -1.44,   4.69, 139.79,  36.76,   1.12,   0.82,   0.85,   0.12,  22.44, 4.04, 4.04, 0.00, 0.00, 0.00
6, 5581, 1,     1.32, 3,   boost,   35.30,  98604.00,  229.01,   44.33,   49.31, 28.3, 4.06, 0.00, 4.03,  45.14,  -1.42,   4.90, 137.29,  36.40,   1.43,   0.82,   0.86,   0.11,  22.72, 4.04, 4.04, 0.00, 0.00, 0.00
6, 5581, 1,     1.33, 3,   boost,   34.81,  98596.00,  229.69,   45.01,   49.63, 28.3, 4.06, 0.00, 4.03,  45.03,  -1.47,   5.06, 133.69,  36.09,   1.12,   0.83,   0.86,   0.10,  23.00, 4.04, 4.04, 0.00, 0.00, 0.00
6, 5581, 1,     1.34, 3,   boost,   35.79,  98582.00,  230.88,   46.20,   49.94, 28.3, 4.06, 0.00, 4.03,  45.36,  -1.73,   5.46, 127.28,  35.48,   1.61,   0.83,   0.86,   0.10,  23.28, 4.04, 4.04, 0.00, 0.00, 0.00
6, 5581, 1,     1.35, 3,   boost,   35.30,  98566.00,  232.24,   47.56,   50.26, 28.3, 4.06, 0.00, 4.03,  45.27,  -1.86,   5.61, 124.65,  35.42,   1.73,   0.82,   0.85,   0.11,  23.55, 4.04, 4.04, 0.00, 0.00, 0.00
6, 5581, 1,     1.36, 3,   boost,   34.32,  98549.00,  233.69,   49.01,   50.57, 28.3, 4.06, 0.00, 4.03,  44.88,  -1.35,   5.99, 119.71,  35.36,   1.61,   0.83,   0.85,   0.11,  23.82, 4.04, 4.04, 0.00, 0.00, 0.00
6, 5581, 1,     1.37, 3,   boost,   34.81,  98548.00,  233.77,   49.09,   50.88, 28.3, 4.06, 0.00, 4.03,  45.00,  -1.59,   5.87, 114.34,  35.24,   1.12,   0.83,   0.87,   0.10,  24.08, 4.04, 4.04, 0.00, 0.00, 0.00
6, 5581, 1,     1.38, 3,   boost,   35.79,  98556.00,  233.09,   48.41,   51.20, 28.3, 4.06, 0.00, 4.03,  45.23,  -2.23,   5.77, 108.66,  34.45,   1.24,   0.82,   0.85,   0.10,  24.33, 4.04, 4.04, 0.00, 0.00, 0.00
6, 5581, 1,     1.39, 3,   boost,   35.79,  98540.00,  234.45,   49.77,   51.51, 28.3, 4.06, 0.00, 4.03,  45.21,  -2.59,   6.15, 105.61,  33.90,   0.88,   0.84,   0.86,   0.10,  24.58, 4.04, 4.04, 0.00, 0.00, 0.00
6, 5581, 1,     1.40, 3,   boost,   35.79,  98531.00,  235.22,   50.54,   51.83, 28.3, 4.06, 0.00, 4.03,  45.03,  -2.90,   5.74, 101.46,  34.63,   0.08,   0.83,   0.87,   0.09,  24.82, 4.04, 4.04, 0.00, 0.00, 0.00
6, 5581, 1,     1.41, 3,   boost,   35.79,  98532.00,  235.13,   50.45,   52.14, 28.3, 4.06, 0.00, 4.03,  45.15,  -3.32,   5.64,  96.03,  34.02,   0.08,   0.83,   0.86,   0.09,  25.06, 4.04, 4.04, 0.00, 0.00, 0.00
6, 5581, 1,     1.42, 3,   boost,   36.28,  98522.00,  235.99,   51.31,   52.45, 28.3, 4.06, 0.00, 4.03,  45.24,  -2.95,   5.97,  89.68,  32.31,   0.08,   0.83,   0.86,   0.08,  25.28, 4.04, 4.04, 0.00, 0.00, 0.00
6, 5581, 1,     1.43, 3,   boost,   34.81,  98506.00,  237.35,   52.67,   52.76, 28.3, 4.06, 0.00, 4.03,  45.23,  -2.33,   6.67,  84.43,  31.88,  -0.47,   0.83,   0.85,   0.09,  25.49, 4.04, 4.04, 0.00, 0.00, 0.00
6, 5581, 1,     1.44, 3,   boost,   34.81,  98488.00,  238.88,   54.20,   53.07, 28.3, 4.06, 0.00, 4.03,  45.49,  -2.51,   6.50,  79.73,  32.74,  -1.69,   0.82,   0.85,   0.08,  25.70, 4.04, 4.04, 0.00, 0.00, 0.00
6, 5581, 1,     1.45, 3,   boost,   35.30,  98485.00,  239.14,   54.46,   53.38, 28.3, 4.06, 0.00, 4.03,  45.46,  -2.45,   6.52,  71.98,  31.45,  -3.09,   0.82,   0.86,   0.08,  25.89, 4.04, 4.04, 0.00, 0.00, 0.00
6, 5581, 1,     1.46, 3,   boost,   35.79,  98472.00,  240.24,   55.56,   53.69, 28.3, 4.06, 0.00, 4.03,  45.75,  -3.67,   7.10,  69.41,  30.60,  -3.09,   0.83,   0.86,   0.09,  26.07, 4.04, 4.04, 0.00, 0.00, 0.00
6, 5581, 1,     1.47, 3,   boost,   36.28,  98461.00,  241.18,   56.50,   54.00, 28.3, 4.06, 0.00, 4.03,  45.26,  -3.23,   7.40,  64.41,  29.99,  -3.52,   0.84,   0.85,   0.08,  26.25, 4.04, 4.04, 0.00, 0.00, 0.00
6, 5581, 1,     1.48, 3,   boost,   36.28,  98435.00,  243.40,   58.72,   54.32, 28.3, 4.06, 0.00, 4.03,  45.72,  -3.18,   7.66,  60.26,  31.33,  -3.95,   0.82,   0.85,   0.07,  26.43, 4.04, 4.04, 0.00, 0.00, 0.00
6, 5581, 1,     1.49, 3,   boost,   35.79,  98425.00,  244.25,   59.57,   54.63, 28.3, 4.06, 0.00, 4.03,  45.47,  -3.43,   7.18,  55.44,  31.52,  -5.17,   0.83,   0.86,   0.06,  26.60, 4.04, 4.04, 0.00, 0.00, 0.00
6, 5581, 1,     1.50, 3,   boost,   35.79,  98413.00,  245.27,   60.59,   54.94, 28.3, 4.06, 0.00, 4.03,  45.10,  -3.70,   7.65,  51.23,  30.97,  -5.84,   0.82,   0.85,   0.06,  26.76, 4.04, 4.04, 0.00, 0.00, 0.00
6, 5581, 1,     1.51, 3,   boost,   35.79,  98395.00,  246.81,   62.13,   55.25, 28.3, 4.06, 0.00, 4.03,  45.39,  -3.65,   8.26,  48.11,  29.56,  -6.81,   0.82,   0.87,   0.07,  26.91, 4.04, 4.04, 0.00, 0.00, 0.00
6, 5581, 1,     1.52, 3,   boost,   35.79,  98393.00,  246.98,   62.30,   55.55, 28.3, 4.06, 0.00, 4.03,  45.45,  -3.18,   8.68,  44.08,  29.62,  -7.00,   0.82,   0.85,   0.07,  27.05, 4.04, 4.04, 0.00, 0.00, 0.00
6, 5581, 1,     1.53, 3,   boost,   35.30,  98398.00,  246.55,   61.87,   55.86, 28.3, 4.06, 0.00, 4.03,  45.39,  -3.22,   8.70,  41.89,  30.17,  -7.85,   0.82,   0.85,   0.07,  27.20, 4.04, 4.04, 0.00, 0.00, 0.00
6, 5581, 1,     1.54, 3,   boost,   35.79,  98399.00,  246.46,   61.79,   56.16, 28.3, 4.06, 0.00, 4.03,  45.22,  -3.32,   8.16,  38.23,  30.36,  -8.58,   0.83,   0.86,   0.05,  27.34, 4.04, 4.04, 0.00, 0.00, 0.00
6, 5581, 1,     1.55, 3,   boost,   34.81,  98399.00,  246.46,   61.79,   56.47, 28.3, 4.06, 0.00, 4.03,  45.25,  -2.30,   7.69,  35.84,  30.05,  -7.79,   0.83,   0.85,   0.06,  27.48, 4.04, 4.04, 0.00, 0.00, 0.00
6, 5581, 1,     1.56, 3,   boost,   35.79,  98375.00,  248.51,   63.83,   56.77, 28.3, 4.06, 0.00, 4.03,  45.22,  -2.19,   7.38,  32.73,  28.40, -10.05,   0.82,   0.85,   0.06,  27.60, 4.04, 4.04, 0.00, 0.00, 0.00
6, 5581, 1,     1.57, 3,   boost,   35.30,  98373.00,  248.68,   64.00,   57.08, 28.3, 4.06, 0.00, 4.03,  44.78,  -2.99,   7.87,  31.82,  28.10, -10.17,   0.82,   0.85,   0.06,  27.71, 4.04, 4.04, 0.00, 0.00, 0.00
6, 5581, 1,     1.58, 3,   boost,   35.79,  98359.00,  249.88,   65.20,   57.38, 28.3, 4.06, 0.00, 4.03,  44.64,  -3.02,   8.25,  29.86,  27.98, -10.17,   0.83,   0.86,   0.06,  27.83, 4.04, 4.04, 0.00, 0.00, 0.00
6, 5581, 1,     1.59, 3,   boost,   35.79,  98348.00,  250.81,   66.13,   57.68, 28.3, 4.06, 0.00, 4.03,  44.76,  -3.40,   8.16,  27.42,  27.91,  -9.81,   0.82,   0.85,   0.05,  27.95, 4.04, 4.04, 0.00, 0.00, 0.00
6, 5581, 1,     1.60, 3,   boost,   35.79,  98328.00,  252.52,   67.84,   57.99, 28.3, 4.06, 0.00, 4.03,  44.70,  -2.71,   8.45,  24.43,  27.79, -10.72,   0.82,   0.85,   0.05,  28.06, 4.04, 4.04, 0.00, 0.00, 0.00
6, 5581, 1,     1.61, 3,   boost,   35.30,  98321.00,  253.12,   68.44,   58.29, 28.3, 4.06, 0.00, 4.03,  44.78,  -3.03,   9.07,  22.11,  27.49, -10.35,   0.83,   0.86,   0.06,  28.17, 4.04, 4.04, 0.00, 0.00, 0.00
6, 5581, 1,     1.62, 3,   boost,   36.77,  98307.00,  254.31,   69.63,   58.60, 28.3, 4.06, 0.00, 4.03,  45.17,  -2.12,   9.09,  18.82,  27.49, -10.23,   0.82,   0.85,   0.05,  28.29, 4.04, 4.04, 0.00, 0.00, 0.00
6, 5581, 1,     1.62, 3,   boost,   36.77,  98307.00,  254.31,   69.63,   58.60, 28.3, 4.06, 0.00, 4.03,  45.17,  -2.12,   9.09,  18.82,  27.49, -10.23,   0.82,   0.85,   0.05,  28.29, 4.04, 4.04, 0.00, 0.00, 0.00
6, 5581, 1,     1.63, 3,   boost,   36.28,  98301.00,  254.82,   70.14,   58.90, 28.3, 4.06, 0.00, 4.03,  46.24,  -1.69,   8.94,  14.24,  27.30,  -9.62,   0.83,   0.86,   0.04,  28.41, 4.04, 4.04, 0.00, 0.00, 0.00
6, 5581, 1,     1.64, 3,   boost,   35.30,  98282.00,  256.44,   71.76,   59.20, 28.3, 4.06, 0.00, 4.03,  46.03,  -1.69,   9.54,  12.59,  27.61, -10.96,   0.82,   0.84,   0.04,  28.52, 4.04, 4.04, 0.00, 0.00, 0.00
6, 5581, 1,     1.65, 3,   boost,   35.79,  98296.00,  255.25,   70.57,   59.50, 28.3, 4.06, 0.00, 4.03,  45.04,  -1.78,   9.12,  10.82,  27.24, -11.03,   0.82,   0.83,   0.04,  28.64, 4.04, 4.04, 0.00, 0.00, 0.00
6, 5581, 1,     1.66, 3,   boost,   34.81,  98280.00,  256.61,   71.93,   59.80, 28.3, 4.06, 0.00, 4.03,  45.25,  -2.64,   9.43,   6.18,  26.39,  -9.87,   0.82,   0.85,   0.04,  28.75, 4.04, 4.04, 0.00, 0.00, 0.00
6, 5581, 1,     1.67, 3,   boost,   34.81,  98270.00,  257.47,   72.79,   60.10, 28.3, 4.06, 0.00, 4.03,  44.68,  -2.46,   9.48,   3.37,  26.75, -10.11,   0.82,   0.85,   0.04,  28.88, 4.04, 4.04, 0.00, 0.00, 0.00
6, 5581, 1,     1.68, 3,   boost,   34.81,  98254.00,  258.83,   74.15,   60.39, 28.3, 4.06, 0.00, 4.03,  44.67,  -2.55,   9.59,   0.26,  27.43,  -9.99,   0.82,   0.85,   0.04,  29.00, 4.04, 4.04, 0.00, 0.00, 0.00
6, 5581, 1,     1.69, 3,   boost,   34.32,  98249.00,  259.26,   74.58,   60.68, 28.3, 4.06, 0.00, 4.03,  44.39,  -3.06,   9.49,  -4.01,  26.27,  -9.01,   0.82,   0.86,   0.03,  29.13, 4.04, 4.04, 0.00, 0.00, 0.00
6, 5581, 1,     1.70, 3,   boost,   35.30,  98235.00,  260.45,   75.77,   60.97, 28.3, 4.06, 0.00, 4.03,  44.25,  -2.93,  10.43,  -9.02,  25.59,  -8.58,   0.82,   0.85,   0.04,  29.26, 4.04, 4.04, 0.00, 0.00, 0.00
6, 5581, 1,     1.71, 3,   boost,   34.32,  98218.00,  261.91,   77.23,   61.27, 28.3, 4.06, 0.00, 4.03,  44.72,  -2.21,  10.48, -13.05,  24.62,  -8.22,   0.82,   0.85,   0.02,  29.39, 4.04, 4.04, 0.00, 0.00, 0.00
6, 5581, 1,     1.72, 3,   boost,   35.79,  98211.00,  262.50,   77.82,   61.56, 28.3, 4.06, 0.00, 4.03,  45.05,  -2.21,  10.98, -16.16,  26.21,  -8.04,   0.81,   0.85,   0.03,  29.53, 4.04, 4.04, 0.00, 0.00, 0.00
6, 5581, 1,     1.73, 3,   boost,   36.28,  98192.00,  264.12,   79.45,   61.86, 28.3, 4.06, 0.00, 4.03,  45.97,  -0.98,  10.33, -19.88,  25.84,  -7.61,   0.81,   0.85,   0.02,  29.67, 4.04, 4.04, 0.00, 0.00, 0.00
6, 5581, 1,     1.74, 3,   boost,   35.30,  98188.00,  264.47,   79.79,   62.15, 28.3, 4.06, 0.00, 4.03,  45.06,  -1.88,  10.20, -21.84,  25.90,  -6.14,   0.82,   0.84,   0.02,  29.83, 4.04, 4.04, 0.00, 0.00, 0.00
6, 5581, 1,     1.75, 3,   boost,   35.30,  98160.00,  266.86,   82.18,   62.44, 28.3, 4.06, 0.00, 4.03,  44.54,  -1.61,  10.98, -21.77,  25.53,  -5.84,   0.82,   0.84,   0.03,  29.98, 4.04, 4.04, 0.00, 0.00, 0.00
6, 5581, 1,     1.76, 3,   boost,   34.81,  98142.00,  268.40,   83.72,   62.73, 28.3, 4.06, 0.00, 4.03,  44.90,  -1.95,  11.44, -22.14,  24.80,  -4.80,   0.82,   0.84,   0.02,  30.14, 4.04, 4.04, 0.00, 0.00, 0.00
6, 5581, 1,     1.77, 3,   boost,   34.32,  98132.00,  269.25,   84.57,   63.02, 28.3, 4.06, 0.00, 4.03,  44.31,  -0.92,  11.88, -22.26,  25.47,  -5.35,   0.81,   0.85,   0.03,  30.31, 4.04, 4.04, 0.00, 0.00, 0.00
6, 5581, 1,     1.78, 3,   boost,   34.32,  98126.00,  269.76,   85.08,   63.31, 28.3, 4.06, 0.00, 4.03,  43.89,  -1.26,  12.11, -21.23,  24.86,  -2.79,   0.81,   0.85,   0.01,  30.48, 4.04, 4.04, 0.00, 0.00, 0.00
6, 5581, 1,     1.79, 3,   boost,   35.30,  98117.00,  270.53,   85.85,   63.59, 28.3, 4.06, 0.00, 4.03,  44.16,  -1.24,  12.11, -19.52,  24.92,  -1.99,   0.81,   0.85,   0.01,  30.67, 4.04, 4.04, 0.00, 0.00, 0.00
6, 5581, 1,     1.80, 3,   boost,   34.32,  98130.00,  269.42,   84.74,   63.87, 28.3, 4.06, 0.00, 4.03,  44.78,  -1.88,  12.12, -19.82,  24.01,   0.27,   0.81,   0.85,   0.00,  30.86, 4.04, 4.04, 0.00, 0.00, 0.00
6, 5581, 1,     1.81, 3,   boost,   34.32,  98118.00,  270.45,   85.77,   64.16, 28.3, 4.06, 0.00, 4.03,  44.40,  -0.39,  11.62, -17.87,  23.76,   1.67,   0.81,   0.85,   0.01,  31.06, 4.04, 4.04, 0.00, 0.00, 0.00
6, 5581, 1,     1.82, 3,   boost,   34.81,  98106.00,  271.47,   86.79,   64.44, 28.3, 4.06, 0.00, 4.03,  43.87,  -1.18,  11.38, -16.34,  23.95,   2.40,   0.81,   0.83,   0.02,  31.27, 4.04, 4.04, 0.00, 0.00, 0.00
6, 5581, 1,     1.83, 3,   boost,   34.32,  98088.00,  273.01,   88.33,   64.72, 28.3, 4.06, 0.00, 4.03,  43.93,  -1.62,  11.43, -11.70,  22.91,   3.38,   0.81,   0.84,   0.00,  31.47, 4.04, 4.04, 0.00, 0.00, 0.00
6, 5581, 1,     1.84, 3,   boost,   35.30,  98093.00,  272.58,   87.90,   65.00, 28.3, 4.06, 0.00, 4.03,  44.33,  -1.14,  11.59,  -5.05,  21.14,   5.27,   0.81,   0.83,   0.00,  31.67, 4.04, 4.04, 0.00, 0.00, 0.00
6, 5581, 1,     1.85, 3,   boost,   34.32,  98081.00,  273.61,   88.93,   65.28, 28.3, 4.06, 0.00, 4.03,  44.24,  -1.66,  12.08,  -0.41,  19.86,   7.59,   0.81,   0.84,   0.00,  31.88, 4.04, 4.04, 0.00, 0.00, 0.00
6, 5581, 1,     1.86, 3,   boost,   34.32,  98060.00,  275.40,   90.72,   65.56, 28.3, 4.06, 0.00, 4.03,  44.43,  -1.09,  12.12,   4.11,  20.96,   9.54,   0.80,   0.84,   0.01,  32.10, 4.04, 4.04, 0.00, 0.00, 0.00
6, 5581, 1,     1.87, 3,   boost,   34.32,  98057.00,  275.66,   90.98,   65.83, 28.3, 4.06, 0.00, 4.03,  43.55,  -1.47,  12.03,   7.83,  21.26,   9.97,   0.81,   0.84,   0.01,  32.33, 4.04, 4.04, 0.00, 0.00, 0.00
6, 5581, 1,     1.88, 3,   boost,   33.83,  98032.00,  277.80,   93.12,   66.11, 28.3, 4.06, 0.00, 4.03,  44.03,  -1.83,  12.42,   9.35,  19.06,  11.37,   0.81,   0.83,   0.00,  32.55, 4.04, 4.04, 0.00, 0.00, 0.00
6, 5581, 1,     1.89, 3,   boost,   34.81,  98018.00,  278.99,   94.31,   66.38, 28.3, 4.06, 0.00, 4.03,  44.22,  -1.70,  13.42,  13.51,  17.11,  13.69,   0.81,   0.84,   0.00,  32.77, 4.04, 4.04, 0.00, 0.00, 0.00
6, 5581, 1,     1.90, 3,   boost,   34.81,  98009.00,  279.76,   95.08,   66.66, 28.3, 4.06, 0.00, 4.03,  44.58,  -0.81,  12.93,  15.09,  17.90,  13.69,   0.80,   0.83,  -0.01,  33.00, 4.04, 4.04, 0.00, 0.00, 0.00
6, 5581, 1,     1.91, 3,   boost,   34.81,  97996.00,  280.87,   96.19,   66.93, 28.3, 4.06, 0.00, 4.03,  44.21,  -1.33,  13.34,  15.95,  18.94,  14.43,   0.81,   0.84,   0.00,  33.24, 4.04, 4.04, 0.00, 0.00, 0.00
6, 5581, 1,     1.92, 3,   boost,   35.30,  97978.00,  282.41,   97.73,   67.21, 28.3, 4.06, 0.00, 4.03,  43.95,  -1.25,  12.33,  16.74,  17.84,  15.59,   0.81,   0.84,  -0.00,  33.47, 4.04, 4.04, 0.00, 0.00, 0.00
6, 5581, 1,     1.93, 3,   boost,   34.32,  97970.00,  283.10,   98.42,   67.48, 28.3, 4.06, 0.00, 4.03,  44.09,  -1.72,  13.33,  16.80,  15.83,  17.42,   0.82,   0.83,   0.00,  33.70, 4.04, 4.04, 0.00, 0.00, 0.00
6, 5581, 1,     1.94, 3,   boost,   33.83,  97962.00,  283.78,   99.10,   67.75, 28.3, 4.06, 0.00, 4.03,  44.10,  -0.35,  13.16,  15.64,  14.61,  18.33,   0.82,   0.84,   0.00,  33.93, 4.04, 4.03, 0.00, 0.01, 0.00
6, 5581, 1,     1.94, 3,   boost,   33.83,  97962.00,  283.78,   99.10,   67.75, 28.3, 4.06, 0.00, 4.03,  44.10,  -0.35,  13.16,  15.64,  14.61,  18.33,   0.82,   0.84,   0.00,  33.93, 4.04, 4.03, 0.00, 0.01, 0.00
6, 5581, 1,     1.95, 3,   boost,   34.32,  97967.00,  283.35,   98.68,   68.01, 28.3, 4.06, 0.00, 4.03,  43.74,  -1.54,  13.94,  15.82,  15.71,  18.09,   0.82,   0.84,  -0.00,  34.17, 4.04, 4.03, 0.00, 0.01, 0.00
6, 5581, 1,     1.96, 3,   boost,   33.34,  97949.00,  284.89,  100.22,   68.27, 28.3, 4.06, 0.00, 4.03,  43.69,  -1.60,  12.78,  16.07,  16.38,  18.15,   0.83,   0.84,  -0.01,  34.41, 4.04, 4.03, 0.00, 0.01, 0.00
6, 5581, 1,     1.97, 3,   boost,   33.34,  97930.00,  286.52,  101.84,   68.53, 28.3, 4.06, 0.00, 4.03,  42.98,  -2.46,  12.83,  13.63,  15.16,  19.68,   0.82,   0.84,  -0.01,  34.65, 4.04, 4.03, 0.00, 0.01, 0.00
6, 5581, 1,     1.98, 3,   boost,   33.83,  97917.00,  287.63,  102.95,   68.79, 28.3, 4.06, 0.00, 4.03,  43.63,  -2.29,  13.01,  10.88,  13.08,  20.29,   0.83,   0.84,  -0.02,  34.87, 4.04, 4.03, 0.00, 0.01, 0.00
6, 5581, 1,     1.99, 3,   boost,   33.83,  97926.00,  286.86,  102.18,   69.05, 28.3, 4.06, 0.00, 4.03,  43.65,  -1.55,  13.67,   7.58,  12.29,  20.29,   0.82,   0.84,  -0.02,  35.10, 4.04, 4.03, 0.00, 0.01, 0.00
6, 5581, 1,     2.00, 3,   boost,   32.85,  97903.00,  288.83,  104.15,   69.30, 28.3, 4.06, 0.00, 4.03,  43.46,  -2.26,  14.09,   1.48,  13.88,  18.76,   0.84,   0.83,  -0.01,  35.32, 4.04, 4.03, 0.00, 0.01, 0.00
6, 5581, 1,     2.01, 3,   boost,   33.34,  97895.00,  289.52,  104.84,   69.56, 28.3, 4.06, 0.00, 4.03,  43.28,  -2.90,  13.74,  -1.82,  14.43,  18.76,   0.83,   0.83,  -0.01,  35.55, 4.04, 4.03, 0.00, 0.01, 0.00
6, 5581, 1,     2.02, 3,   boost,   33.34,  97895.00,  289.52,  104.84,   69.81, 28.3, 4.06, 0.00, 4.03,  43.10,  -3.26,  13.22,  -8.04,  12.84,  19.43,   0.83,   0.83,  -0.01,  35.77, 4.04, 4.03, 0.00, 0.01, 0.00
6, 5581, 1,     2.03, 3,   boost,   33.83,  97877.00,  291.06,  106.38,   70.07, 28.3, 4.06, 0.00, 4.03,  43.11,  -2.43,  13.84, -10.12,  10.58,  19.49,   0.84,   0.84,  -0.01,  35.98, 4.04, 4.03, 0.00, 0.01, 0.00
6, 5581, 1,     2.04, 3,   boost,   33.83,  97884.00,  290.46,  105.78,   70.32, 28.3, 4.06, 0.00, 4.03,  43.62,  -2.33,  13.69, -12.68,  11.31,  18.27,   0.84,   0.85,  -0.00,  36.18, 4.04, 4.03, 0.00, 0.01, 0.00
6, 5581, 1,     2.05, 3,   boost,   33.34,  97870.00,  291.66,  106.98,   70.57, 28.3, 4.06, 0.00, 4.03,  44.26,  -2.62,  13.86, -17.26,  12.47,  17.72,   0.83,   0.83,  -0.02,  36.39, 4.04, 4.03, 0.00, 0.01, 0.00
6, 5581, 1,     2.06, 3,   boost,   33.83,  97850.00,  293.37,  108.69,   70.82, 28.3, 4.06, 0.00, 4.03,  44.06,  -2.94,  14.10, -20.61,  11.80,  17.42,   0.84,   0.84,  -0.01,  36.59, 4.04, 4.03, 0.00, 0.01, 0.00
6, 5581, 1,     2.07, 3,   boost,   33.83,  97841.00,  294.14,  109.46,   71.07, 28.3, 4.06, 0.00, 4.03,  43.71,  -2.37,  14.48, -23.06,  10.21,  15.89,   0.85,   0.83,  -0.01,  36.76, 4.04, 4.03, 0.00, 0.01, 0.00
6, 5581, 1,     2.08, 3,   boost,   33.83,  97837.00,  294.48,  109.80,   71.32, 28.3, 4.06, 0.00, 4.03,  43.51,  -3.50,  15.12, -25.38,   9.11,  15.65,   0.83,   0.83,  -0.02,  36.93, 4.04, 4.03, 0.00, 0.01, 0.00
